{
  "investor": {
    "id": "01923b9f-721d-7d4b-bd01-2b4b4736786d",
    "name": "Justin Bean",
    "email": "jlean502@gmail.com",
    "phone": "+1 (502) 539-8647",
    "totalWon": 1,
    "totalBids": 3,
    "ytdWon": 0,
    "ytdBids": 0,
    "entities": [
      "LIGHTHOUSE ESTATES LLC",
      "RED DOOR LEGACY LLC"
    ]
  },
  "stats": {
    "totalTransactions2025": 281,
    "rebuiltTransactions": 1,
    "recorderTransactions": 398,
    "quarterlyStats": {
      "2024-Q1": {
        "rebuilt": 0,
        "total": 1
      },
      "2024-Q2": {
        "rebuilt": 0,
        "total": 11
      },
      "2024-Q3": {
        "rebuilt": 1,
        "total": 26
      },
      "2024-Q4": {
        "rebuilt": 0,
        "total": 76
      },
      "2025-Q1": {
        "rebuilt": 0,
        "total": 102
      },
      "2025-Q2": {
        "rebuilt": 0,
        "total": 109
      },
      "2025-Q3": {
        "rebuilt": 0,
        "total": 56
      },
      "2025-Q4": {
        "rebuilt": 0,
        "total": 14
      },
      "2026-Q1": {
        "rebuilt": 0,
        "total": 4
      }
    }
  },
  "properties": [
    {
      "propertyId": null,
      "attomId": 8736916,
      "offerDate": "2024-09-29",
      "offerPrice": 14000.0,
      "status": "won",
      "isRebuilt": true,
      "address": "102 S 43RD ST, LOUISVILLE ky",
      "city": "LOUISVILLE",
      "state": "ky",
      "beds": null,
      "baths": null,
      "sqft": null,
      "lotSize": null,
      "lat": 38.265131,
      "lng": -85.819105
    },
    {
      "propertyId": null,
      "attomId": 20684845,
      "offerDate": "2025-01-06",
      "offerPrice": 265000,
      "status": "recorder",
      "isRebuilt": false,
      "address": "12855 GREENBOWER ST NE, ALLIANCE OH",
      "city": "ALLIANCE",
      "state": "OH",
      "beds": null,
      "baths": null,
      "sqft": null,
      "lotSize": null,
      "lat": 40.974435,
      "lng": -81.150364
    },
    {
      "propertyId": null,
      "attomId": 158465607,
      "offerDate": "2026-03-04",
      "offerPrice": 17000,
      "status": "recorder",
      "isRebuilt": false,
      "address": "1621 MARYLAND ST, GARY IN",
      "city": "GARY",
      "state": "IN",
      "beds": null,
      "baths": null,
      "sqft": null,
      "lotSize": null,
      "lat": 41.586465,
      "lng": -87.330603
    },
    {
      "propertyId": null,
      "attomId": 209254977,
      "offerDate": "2026-01-13",
      "offerPrice": 35000,
      "status": "recorder",
      "isRebuilt": false,
      "address": "509 E MICHIGAN ST, EVANSVILLE IN",
      "city": "EVANSVILLE",
      "state": "IN",
      "beds": null,
      "baths": null,
      "sqft": null,
      "lotSize": null,
      "lat": 37.980651,
      "lng": -87.557243
    },
    {
      "propertyId": null,
      "attomId": 9428257,
      "offerDate": "2026-01-08",
      "offerPrice": 22500,
      "status": "recorder",
      "isRebuilt": false,
      "address": "947 S 16TH ST, LOUISVILLE KY",
      "city": "LOUISVILLE",
      "state": "KY",
      "beds": null,
      "baths": null,
      "sqft": null,
      "lotSize": null,
      "lat": 38.242138,
      "lng": -85.779926
    },
    {
      "propertyId": null,
      "attomId": 53992532,
      "offerDate": "2026-01-02",
      "offerPrice": 9000,
      "status": "recorder",
      "isRebuilt": false,
      "address": "2548 ADAMS ST, GARY IN",
      "city": "GARY",
      "state": "IN",
      "beds": null,
      "baths": null,
      "sqft": null,
      "lotSize": null,
      "lat": 41.57228,
      "lng": -87.339254
    },
    {
      "propertyId": null,
      "attomId": 24809369,
      "offerDate": "2025-12-30",
      "offerPrice": 35000,
      "status": "recorder",
      "isRebuilt": false,
      "address": "4416 PENNSYLVANIA ST, GARY IN",
      "city": "GARY",
      "state": "IN",
      "beds": null,
      "baths": null,
      "sqft": null,
      "lotSize": null,
      "lat": 41.538108,
      "lng": -87.332962
    },
    {
      "propertyId": null,
      "attomId": 193595279,
      "offerDate": "2025-12-23",
      "offerPrice": 25000,
      "status": "recorder",
      "isRebuilt": false,
      "address": "332 CLARK RD, GARY IN",
      "city": "GARY",
      "state": "IN",
      "beds": null,
      "baths": null,
      "sqft": null,
      "lotSize": null,
      "lat": 41.604844,
      "lng": -87.394204
    },
    {
      "propertyId": null,
      "attomId": 17579377,
      "offerDate": "2025-12-23",
      "offerPrice": 7500,
      "status": "recorder",
      "isRebuilt": false,
      "address": "312 KAMMER AVE # 314, DAYTON OH",
      "city": "DAYTON",
      "state": "OH",
      "beds": null,
      "baths": null,
      "sqft": null,
      "lotSize": null,
      "lat": 39.759524,
      "lng": -84.232153
    },
    {
      "propertyId": null,
      "attomId": 39134606,
      "offerDate": "2025-12-09",
      "offerPrice": 9250,
      "status": "recorder",
      "isRebuilt": false,
      "address": "1730 FILLMORE ST, GARY IN",
      "city": "GARY",
      "state": "IN",
      "beds": null,
      "baths": null,
      "sqft": null,
      "lotSize": null,
      "lat": 41.585368,
      "lng": -87.350606
    },
    {
      "propertyId": null,
      "attomId": 25860972,
      "offerDate": "2025-12-09",
      "offerPrice": 20000,
      "status": "recorder",
      "isRebuilt": false,
      "address": "550 TAFT ST, GARY IN",
      "city": "GARY",
      "state": "IN",
      "beds": null,
      "baths": null,
      "sqft": null,
      "lotSize": null,
      "lat": 41.600696,
      "lng": -87.365779
    },
    {
      "propertyId": null,
      "attomId": 209243514,
      "offerDate": "2025-12-09",
      "offerPrice": 135000,
      "status": "recorder",
      "isRebuilt": false,
      "address": "910 W VIRGINIA ST, EVANSVILLE IN",
      "city": "EVANSVILLE",
      "state": "IN",
      "beds": null,
      "baths": null,
      "sqft": null,
      "lotSize": null,
      "lat": 37.981896,
      "lng": -87.576745
    },
    {
      "propertyId": null,
      "attomId": 196540336,
      "offerDate": "2025-12-04",
      "offerPrice": 25000,
      "status": "recorder",
      "isRebuilt": false,
      "address": "448 MATTHEWS ST, GARY IN",
      "city": "GARY",
      "state": "IN",
      "beds": null,
      "baths": null,
      "sqft": null,
      "lotSize": null,
      "lat": 41.602792,
      "lng": -87.397821
    },
    {
      "propertyId": null,
      "attomId": 29452520,
      "offerDate": "2025-12-01",
      "offerPrice": 9000,
      "status": "recorder",
      "isRebuilt": false,
      "address": "3935 JEFFERSON ST, GARY IN",
      "city": "GARY",
      "state": "IN",
      "beds": null,
      "baths": null,
      "sqft": null,
      "lotSize": null,
      "lat": 41.546975,
      "lng": -87.339723
    },
    {
      "propertyId": null,
      "attomId": 23441076,
      "offerDate": "2025-11-14",
      "offerPrice": 14000,
      "status": "recorder",
      "isRebuilt": false,
      "address": "4356 MARYLAND ST, GARY IN",
      "city": "GARY",
      "state": "IN",
      "beds": null,
      "baths": null,
      "sqft": null,
      "lotSize": null,
      "lat": 41.539247,
      "lng": -87.330563
    },
    {
      "propertyId": null,
      "attomId": 8718361,
      "offerDate": "2025-11-06",
      "offerPrice": 100000,
      "status": "recorder",
      "isRebuilt": false,
      "address": "2111 7TH STREET RD, LOUISVILLE KY",
      "city": "LOUISVILLE",
      "state": "KY",
      "beds": null,
      "baths": null,
      "sqft": null,
      "lotSize": null,
      "lat": 38.218922,
      "lng": -85.778205
    },
    {
      "propertyId": null,
      "attomId": 149517241,
      "offerDate": "2025-11-04",
      "offerPrice": 24000,
      "status": "recorder",
      "isRebuilt": false,
      "address": "806 E VIRGINIA ST, EVANSVILLE IN",
      "city": "EVANSVILLE",
      "state": "IN",
      "beds": null,
      "baths": null,
      "sqft": null,
      "lotSize": null,
      "lat": 37.982273,
      "lng": -87.551627
    },
    {
      "propertyId": null,
      "attomId": 34329235,
      "offerDate": "2025-10-28",
      "offerPrice": 110500,
      "status": "recorder",
      "isRebuilt": false,
      "address": "1924 PORTLAND AVE, LOUISVILLE KY",
      "city": "LOUISVILLE",
      "state": "KY",
      "beds": null,
      "baths": null,
      "sqft": null,
      "lotSize": null,
      "lat": 38.266218,
      "lng": -85.779974
    },
    {
      "propertyId": null,
      "attomId": 15109182,
      "offerDate": "2025-10-08",
      "offerPrice": 50000,
      "status": "recorder",
      "isRebuilt": false,
      "address": "1754 ROOSEVELT PL, GARY IN",
      "city": "GARY",
      "state": "IN",
      "beds": null,
      "baths": null,
      "sqft": null,
      "lotSize": null,
      "lat": 41.584991,
      "lng": -87.365155
    },
    {
      "propertyId": null,
      "attomId": 53101304,
      "offerDate": "2025-10-07",
      "offerPrice": 16000,
      "status": "recorder",
      "isRebuilt": false,
      "address": "910 E 131ST ST, CLEVELAND OH",
      "city": "CLEVELAND",
      "state": "OH",
      "beds": null,
      "baths": null,
      "sqft": null,
      "lotSize": null,
      "lat": 41.532604,
      "lng": -81.592068
    },
    {
      "propertyId": null,
      "attomId": 10969828,
      "offerDate": "2025-09-30",
      "offerPrice": 20000,
      "status": "recorder",
      "isRebuilt": false,
      "address": "4132 JOHNSON ST, GARY IN",
      "city": "GARY",
      "state": "IN",
      "beds": null,
      "baths": null,
      "sqft": null,
      "lotSize": null,
      "lat": 41.543397,
      "lng": -87.354882
    },
    {
      "propertyId": null,
      "attomId": 19344324,
      "offerDate": "2025-09-16",
      "offerPrice": 25000,
      "status": "recorder",
      "isRebuilt": false,
      "address": "2057 CONNECTICUT ST, GARY IN",
      "city": "GARY",
      "state": "IN",
      "beds": null,
      "baths": null,
      "sqft": null,
      "lotSize": null,
      "lat": 41.581098,
      "lng": -87.334018
    },
    {
      "propertyId": null,
      "attomId": 39133242,
      "offerDate": "2025-09-15",
      "offerPrice": 15000,
      "status": "recorder",
      "isRebuilt": false,
      "address": "854 OHIO ST, GARY IN",
      "city": "GARY",
      "state": "IN",
      "beds": null,
      "baths": null,
      "sqft": null,
      "lotSize": null,
      "lat": 41.595873,
      "lng": -87.321262
    },
    {
      "propertyId": null,
      "attomId": 18782600,
      "offerDate": "2025-09-15",
      "offerPrice": 7000,
      "status": "recorder",
      "isRebuilt": false,
      "address": "2040 MARYLAND ST, GARY IN",
      "city": "GARY",
      "state": "IN",
      "beds": null,
      "baths": null,
      "sqft": null,
      "lotSize": null,
      "lat": 41.581321,
      "lng": -87.331202
    },
    {
      "propertyId": null,
      "attomId": 9842671,
      "offerDate": "2025-09-15",
      "offerPrice": 10000,
      "status": "recorder",
      "isRebuilt": false,
      "address": "2233 W 9TH AVE, GARY IN",
      "city": "GARY",
      "state": "IN",
      "beds": null,
      "baths": null,
      "sqft": null,
      "lotSize": null,
      "lat": 41.594322,
      "lng": -87.364923
    },
    {
      "propertyId": null,
      "attomId": 11954186,
      "offerDate": "2025-09-15",
      "offerPrice": 30000,
      "status": "recorder",
      "isRebuilt": false,
      "address": "3014 CENTRAL AVE, ANDERSON IN",
      "city": "ANDERSON",
      "state": "IN",
      "beds": null,
      "baths": null,
      "sqft": null,
      "lotSize": null,
      "lat": 40.085884,
      "lng": -85.676503
    },
    {
      "propertyId": null,
      "attomId": 25846633,
      "offerDate": "2025-09-11",
      "offerPrice": 25000,
      "status": "recorder",
      "isRebuilt": false,
      "address": "569 MARYLAND ST, GARY IN",
      "city": "GARY",
      "state": "IN",
      "beds": null,
      "baths": null,
      "sqft": null,
      "lotSize": null,
      "lat": 41.600549,
      "lng": -87.330656
    },
    {
      "propertyId": null,
      "attomId": 27154260,
      "offerDate": "2025-08-25",
      "offerPrice": 40000,
      "status": "recorder",
      "isRebuilt": false,
      "address": "972 DURBIN ST, GARY IN",
      "city": "GARY",
      "state": "IN",
      "beds": null,
      "baths": null,
      "sqft": null,
      "lotSize": null,
      "lat": 41.59367,
      "lng": -87.400223
    },
    {
      "propertyId": null,
      "attomId": 13024674,
      "offerDate": "2025-08-15",
      "offerPrice": 40000,
      "status": "recorder",
      "isRebuilt": false,
      "address": "1720 FILLMORE ST, GARY IN",
      "city": "GARY",
      "state": "IN",
      "beds": null,
      "baths": null,
      "sqft": null,
      "lotSize": null,
      "lat": 41.585505,
      "lng": -87.350608
    },
    {
      "propertyId": null,
      "attomId": 200690812,
      "offerDate": "2025-08-15",
      "offerPrice": 15000,
      "status": "recorder",
      "isRebuilt": false,
      "address": "4648 HARRISON ST, GARY IN",
      "city": "GARY",
      "state": "IN",
      "beds": null,
      "baths": null,
      "sqft": null,
      "lotSize": null,
      "lat": 41.53399,
      "lng": -87.346322
    },
    {
      "propertyId": null,
      "attomId": 26091490,
      "offerDate": "2025-08-14",
      "offerPrice": 20000,
      "status": "recorder",
      "isRebuilt": false,
      "address": "3855 LOUISIANA ST, GARY IN",
      "city": "GARY",
      "state": "IN",
      "beds": null,
      "baths": null,
      "sqft": null,
      "lotSize": null,
      "lat": 41.548269,
      "lng": -87.319172
    },
    {
      "propertyId": null,
      "attomId": 200690734,
      "offerDate": "2025-08-14",
      "offerPrice": 35000,
      "status": "recorder",
      "isRebuilt": false,
      "address": "1128 HARRISON ST, GARY IN",
      "city": "GARY",
      "state": "IN",
      "beds": null,
      "baths": null,
      "sqft": null,
      "lotSize": null,
      "lat": 41.591315,
      "lng": -87.346572
    },
    {
      "propertyId": null,
      "attomId": 19225423,
      "offerDate": "2025-08-12",
      "offerPrice": 3750,
      "status": "recorder",
      "isRebuilt": false,
      "address": "4359 RICHARD GORDON HATCHER BLVD, GARY IN",
      "city": "GARY",
      "state": "IN",
      "beds": null,
      "baths": null,
      "sqft": null,
      "lotSize": null,
      "lat": 41.539409,
      "lng": -87.355352
    },
    {
      "propertyId": null,
      "attomId": 200243548,
      "offerDate": "2025-08-11",
      "offerPrice": 14000,
      "status": "recorder",
      "isRebuilt": false,
      "address": "118 E RIDGE RD, GARY IN",
      "city": "GARY",
      "state": "IN",
      "beds": null,
      "baths": null,
      "sqft": null,
      "lotSize": null,
      "lat": 41.550206,
      "lng": -87.334729
    },
    {
      "propertyId": null,
      "attomId": 203200654,
      "offerDate": "2025-08-08",
      "offerPrice": 32000,
      "status": "recorder",
      "isRebuilt": false,
      "address": "2391 MASSACHUSETTS ST, GARY IN",
      "city": "GARY",
      "state": "IN",
      "beds": null,
      "baths": null,
      "sqft": null,
      "lotSize": null,
      "lat": 41.575151,
      "lng": -87.33525
    },
    {
      "propertyId": null,
      "attomId": 18269376,
      "offerDate": "2025-08-07",
      "offerPrice": 56000,
      "status": "recorder",
      "isRebuilt": false,
      "address": "215 EDMUND ST, DAYTON OH",
      "city": "DAYTON",
      "state": "OH",
      "beds": null,
      "baths": null,
      "sqft": null,
      "lotSize": null,
      "lat": 39.778724,
      "lng": -84.175026
    },
    {
      "propertyId": null,
      "attomId": 26870315,
      "offerDate": "2025-08-05",
      "offerPrice": 35000,
      "status": "recorder",
      "isRebuilt": false,
      "address": "1318 SWISHER AVE # 1320, DAYTON OH",
      "city": "DAYTON",
      "state": "OH",
      "beds": null,
      "baths": null,
      "sqft": null,
      "lotSize": null,
      "lat": 39.738364,
      "lng": -84.216307
    },
    {
      "propertyId": null,
      "attomId": 39109367,
      "offerDate": "2025-07-29",
      "offerPrice": 25000,
      "status": "recorder",
      "isRebuilt": false,
      "address": "824 VAN BUREN ST, GARY IN",
      "city": "GARY",
      "state": "IN",
      "beds": null,
      "baths": null,
      "sqft": null,
      "lotSize": null,
      "lat": 41.595921,
      "lng": -87.346298
    },
    {
      "propertyId": null,
      "attomId": 189860124,
      "offerDate": "2025-07-28",
      "offerPrice": 10000,
      "status": "recorder",
      "isRebuilt": false,
      "address": "2254 W 9TH AVE, GARY IN",
      "city": "GARY",
      "state": "IN",
      "beds": null,
      "baths": null,
      "sqft": null,
      "lotSize": null,
      "lat": 41.594942,
      "lng": -87.365116
    },
    {
      "propertyId": null,
      "attomId": 199877251,
      "offerDate": "2025-07-28",
      "offerPrice": 6000,
      "status": "recorder",
      "isRebuilt": false,
      "address": "841 DELAWARE ST, GARY IN",
      "city": "GARY",
      "state": "IN",
      "beds": null,
      "baths": null,
      "sqft": null,
      "lotSize": null,
      "lat": 41.595684,
      "lng": -87.331808
    },
    {
      "propertyId": null,
      "attomId": 21335931,
      "offerDate": "2025-07-25",
      "offerPrice": 8000,
      "status": "recorder",
      "isRebuilt": false,
      "address": "4742 CONNECTICUT ST, GARY IN",
      "city": "GARY",
      "state": "IN",
      "beds": null,
      "baths": null,
      "sqft": null,
      "lotSize": null,
      "lat": 41.532304,
      "lng": -87.334104
    },
    {
      "propertyId": null,
      "attomId": 200242013,
      "offerDate": "2025-07-25",
      "offerPrice": 15000,
      "status": "recorder",
      "isRebuilt": false,
      "address": "650 MISSISSIPPI ST, GARY IN",
      "city": "GARY",
      "state": "IN",
      "beds": null,
      "baths": null,
      "sqft": null,
      "lotSize": null,
      "lat": 41.599218,
      "lng": -87.317603
    },
    {
      "propertyId": null,
      "attomId": 187151820,
      "offerDate": "2025-07-25",
      "offerPrice": 25000,
      "status": "recorder",
      "isRebuilt": false,
      "address": "4385 MASSACHUSETTS ST, GARY IN",
      "city": "GARY",
      "state": "IN",
      "beds": null,
      "baths": null,
      "sqft": null,
      "lotSize": null,
      "lat": 41.538824,
      "lng": -87.334718
    },
    {
      "propertyId": null,
      "attomId": 39135638,
      "offerDate": "2025-07-24",
      "offerPrice": 5000,
      "status": "recorder",
      "isRebuilt": false,
      "address": "444 JOHNSON ST, GARY IN",
      "city": "GARY",
      "state": "IN",
      "beds": null,
      "baths": null,
      "sqft": null,
      "lotSize": null,
      "lat": 41.602929,
      "lng": -87.3561
    },
    {
      "propertyId": null,
      "attomId": 4294339,
      "offerDate": "2025-07-24",
      "offerPrice": 15000,
      "status": "recorder",
      "isRebuilt": false,
      "address": "3940 JEFFERSON ST, GARY IN",
      "city": "GARY",
      "state": "IN",
      "beds": null,
      "baths": null,
      "sqft": null,
      "lotSize": null,
      "lat": 41.546861,
      "lng": -87.3404
    },
    {
      "propertyId": null,
      "attomId": 1268656,
      "offerDate": "2025-07-22",
      "offerPrice": 40000,
      "status": "recorder",
      "isRebuilt": false,
      "address": "712 VAN BUREN ST, GARY IN",
      "city": "GARY",
      "state": "IN",
      "beds": null,
      "baths": null,
      "sqft": null,
      "lotSize": null,
      "lat": 41.597958,
      "lng": -87.346322
    },
    {
      "propertyId": null,
      "attomId": 20926280,
      "offerDate": "2025-07-16",
      "offerPrice": 20000,
      "status": "recorder",
      "isRebuilt": false,
      "address": "1921 W 14TH AVE, GARY IN",
      "city": "GARY",
      "state": "IN",
      "beds": null,
      "baths": null,
      "sqft": null,
      "lotSize": null,
      "lat": 41.588518,
      "lng": -87.360219
    },
    {
      "propertyId": null,
      "attomId": 190840469,
      "offerDate": "2025-07-16",
      "offerPrice": 34000,
      "status": "recorder",
      "isRebuilt": false,
      "address": "2445 POLK ST, GARY IN",
      "city": "GARY",
      "state": "IN",
      "beds": null,
      "baths": null,
      "sqft": null,
      "lotSize": null,
      "lat": 41.574054,
      "lng": -87.348537
    },
    {
      "propertyId": null,
      "attomId": 158482983,
      "offerDate": "2025-07-15",
      "offerPrice": 15000,
      "status": "recorder",
      "isRebuilt": false,
      "address": "1341 GEORGIA ST, GARY IN",
      "city": "GARY",
      "state": "IN",
      "beds": null,
      "baths": null,
      "sqft": null,
      "lotSize": null,
      "lat": 41.58909,
      "lng": -87.327042
    },
    {
      "propertyId": null,
      "attomId": 18239514,
      "offerDate": "2025-07-15",
      "offerPrice": 5000,
      "status": "recorder",
      "isRebuilt": false,
      "address": "404 MOUNT ST, GARY IN",
      "city": "GARY",
      "state": "IN",
      "beds": null,
      "baths": null,
      "sqft": null,
      "lotSize": null,
      "lat": 41.603503,
      "lng": -87.39903
    },
    {
      "propertyId": null,
      "attomId": 16410324,
      "offerDate": "2025-07-15",
      "offerPrice": 33000,
      "status": "recorder",
      "isRebuilt": false,
      "address": "3712 DELAWARE ST, GARY IN",
      "city": "GARY",
      "state": "IN",
      "beds": null,
      "baths": null,
      "sqft": null,
      "lotSize": null,
      "lat": 41.550926,
      "lng": -87.332033
    },
    {
      "propertyId": null,
      "attomId": 189526023,
      "offerDate": "2025-07-15",
      "offerPrice": 25000,
      "status": "recorder",
      "isRebuilt": false,
      "address": "1000 TAFT ST, GARY IN",
      "city": "GARY",
      "state": "IN",
      "beds": null,
      "baths": null,
      "sqft": null,
      "lotSize": null,
      "lat": 41.592841,
      "lng": -87.366433
    },
    {
      "propertyId": null,
      "attomId": 145131903,
      "offerDate": "2025-07-15",
      "offerPrice": 32500,
      "status": "recorder",
      "isRebuilt": false,
      "address": "1339 BLACKSTONE AVE # 1341, SAINT LOUIS MO",
      "city": "SAINT LOUIS",
      "state": "MO",
      "beds": null,
      "baths": null,
      "sqft": null,
      "lotSize": null,
      "lat": 38.667134,
      "lng": -90.280869
    },
    {
      "propertyId": null,
      "attomId": 209242738,
      "offerDate": "2025-07-15",
      "offerPrice": 40000,
      "status": "recorder",
      "isRebuilt": false,
      "address": "1523 JUDSON ST, EVANSVILLE IN",
      "city": "EVANSVILLE",
      "state": "IN",
      "beds": null,
      "baths": null,
      "sqft": null,
      "lotSize": null,
      "lat": 37.955888,
      "lng": -87.561651
    },
    {
      "propertyId": null,
      "attomId": 187817308,
      "offerDate": "2025-07-15",
      "offerPrice": 33000,
      "status": "recorder",
      "isRebuilt": false,
      "address": "744 TENNESSEE ST, GARY IN",
      "city": "GARY",
      "state": "IN",
      "beds": null,
      "baths": null,
      "sqft": null,
      "lotSize": null,
      "lat": 41.597472,
      "lng": -87.322486
    },
    {
      "propertyId": null,
      "attomId": 188064070,
      "offerDate": "2025-07-15",
      "offerPrice": 30000,
      "status": "recorder",
      "isRebuilt": false,
      "address": "1553 HARRISON ST, GARY IN",
      "city": "GARY",
      "state": "IN",
      "beds": null,
      "baths": null,
      "sqft": null,
      "lotSize": null,
      "lat": 41.586985,
      "lng": -87.345882
    },
    {
      "propertyId": null,
      "attomId": 1422525,
      "offerDate": "2025-07-14",
      "offerPrice": 4000,
      "status": "recorder",
      "isRebuilt": false,
      "address": "4216 WASHINGTON ST, GARY IN",
      "city": "GARY",
      "state": "IN",
      "beds": null,
      "baths": null,
      "sqft": null,
      "lotSize": null,
      "lat": 41.541825,
      "lng": -87.337892
    },
    {
      "propertyId": null,
      "attomId": 18239328,
      "offerDate": "2025-07-14",
      "offerPrice": 8000,
      "status": "recorder",
      "isRebuilt": false,
      "address": "2369 INDUSTRIAL BLVD, GARY IN",
      "city": "GARY",
      "state": "IN",
      "beds": null,
      "baths": null,
      "sqft": null,
      "lotSize": null,
      "lat": 41.57544,
      "lng": -87.32714
    },
    {
      "propertyId": null,
      "attomId": 22071102,
      "offerDate": "2025-07-14",
      "offerPrice": 4500,
      "status": "recorder",
      "isRebuilt": false,
      "address": "1121 TYLER ST, GARY IN",
      "city": "GARY",
      "state": "IN",
      "beds": null,
      "baths": null,
      "sqft": null,
      "lotSize": null,
      "lat": 41.5915,
      "lng": -87.348192
    },
    {
      "propertyId": null,
      "attomId": 215510983,
      "offerDate": "2025-07-14",
      "offerPrice": 35000,
      "status": "recorder",
      "isRebuilt": false,
      "address": "2245 1ST AVE, TERRE HAUTE IN",
      "city": "TERRE HAUTE",
      "state": "IN",
      "beds": null,
      "baths": null,
      "sqft": null,
      "lotSize": null,
      "lat": 39.478149,
      "lng": -87.383682
    },
    {
      "propertyId": null,
      "attomId": 214594077,
      "offerDate": "2025-07-14",
      "offerPrice": 42000,
      "status": "recorder",
      "isRebuilt": false,
      "address": "1928 7TH AVE, TERRE HAUTE IN",
      "city": "TERRE HAUTE",
      "state": "IN",
      "beds": null,
      "baths": null,
      "sqft": null,
      "lotSize": null,
      "lat": 39.484147,
      "lng": -87.387239
    },
    {
      "propertyId": null,
      "attomId": 201992710,
      "offerDate": "2025-07-14",
      "offerPrice": 5000,
      "status": "recorder",
      "isRebuilt": false,
      "address": "2376 PENNSYLVANIA ST, GARY IN",
      "city": "GARY",
      "state": "IN",
      "beds": null,
      "baths": null,
      "sqft": null,
      "lotSize": null,
      "lat": 41.575405,
      "lng": -87.333598
    },
    {
      "propertyId": null,
      "attomId": 22635065,
      "offerDate": "2025-07-12",
      "offerPrice": 38800,
      "status": "recorder",
      "isRebuilt": false,
      "address": "10924 GRANTWOOD AVE, CLEVELAND OH",
      "city": "CLEVELAND",
      "state": "OH",
      "beds": null,
      "baths": null,
      "sqft": null,
      "lotSize": null,
      "lat": 41.525834,
      "lng": -81.610087
    },
    {
      "propertyId": null,
      "attomId": 209242381,
      "offerDate": "2025-07-11",
      "offerPrice": 60000,
      "status": "recorder",
      "isRebuilt": false,
      "address": "116 E VIRGINIA ST, EVANSVILLE IN",
      "city": "EVANSVILLE",
      "state": "IN",
      "beds": null,
      "baths": null,
      "sqft": null,
      "lotSize": null,
      "lat": 37.982212,
      "lng": -87.561503
    },
    {
      "propertyId": null,
      "attomId": 10215607,
      "offerDate": "2025-07-09",
      "offerPrice": 25000,
      "status": "recorder",
      "isRebuilt": false,
      "address": "2125 W 10TH PL, GARY IN",
      "city": "GARY",
      "state": "IN",
      "beds": null,
      "baths": null,
      "sqft": null,
      "lotSize": null,
      "lat": 41.592056,
      "lng": -87.362626
    },
    {
      "propertyId": null,
      "attomId": 208191666,
      "offerDate": "2025-07-07",
      "offerPrice": 10000,
      "status": "recorder",
      "isRebuilt": false,
      "address": "2101 SYCAMORE ST, TERRE HAUTE IN",
      "city": "TERRE HAUTE",
      "state": "IN",
      "beds": null,
      "baths": null,
      "sqft": null,
      "lotSize": null,
      "lat": 39.470955,
      "lng": -87.386276
    },
    {
      "propertyId": null,
      "attomId": 10955840,
      "offerDate": "2025-07-03",
      "offerPrice": 15000,
      "status": "recorder",
      "isRebuilt": false,
      "address": "4550 CONNECTICUT ST, GARY IN",
      "city": "GARY",
      "state": "IN",
      "beds": null,
      "baths": null,
      "sqft": null,
      "lotSize": null,
      "lat": 41.535777,
      "lng": -87.334136
    },
    {
      "propertyId": null,
      "attomId": 4234040,
      "offerDate": "2025-07-01",
      "offerPrice": 65000,
      "status": "recorder",
      "isRebuilt": false,
      "address": "1257 E 135TH ST, EAST CLEVELAND OH",
      "city": "EAST CLEVELAND",
      "state": "OH",
      "beds": null,
      "baths": null,
      "sqft": null,
      "lotSize": null,
      "lat": 41.543981,
      "lng": -81.588485
    },
    {
      "propertyId": null,
      "attomId": 20420710,
      "offerDate": "2025-07-01",
      "offerPrice": 15000,
      "status": "recorder",
      "isRebuilt": false,
      "address": "4097 E 81ST ST, CLEVELAND OH",
      "city": "CLEVELAND",
      "state": "OH",
      "beds": null,
      "baths": null,
      "sqft": null,
      "lotSize": null,
      "lat": 41.447366,
      "lng": -81.6286
    },
    {
      "propertyId": null,
      "attomId": 7632461,
      "offerDate": "2025-07-01",
      "offerPrice": 39000,
      "status": "recorder",
      "isRebuilt": false,
      "address": "1257 E 137TH ST, EAST CLEVELAND OH",
      "city": "EAST CLEVELAND",
      "state": "OH",
      "beds": null,
      "baths": null,
      "sqft": null,
      "lotSize": null,
      "lat": 41.544005,
      "lng": -81.587483
    },
    {
      "propertyId": null,
      "attomId": 4180282,
      "offerDate": "2025-07-01",
      "offerPrice": 45500,
      "status": "recorder",
      "isRebuilt": false,
      "address": "904 PAXTON RD, CLEVELAND OH",
      "city": "CLEVELAND",
      "state": "OH",
      "beds": null,
      "baths": null,
      "sqft": null,
      "lotSize": null,
      "lat": 41.532804,
      "lng": -81.596453
    },
    {
      "propertyId": null,
      "attomId": 11932226,
      "offerDate": "2025-06-30",
      "offerPrice": 10000,
      "status": "recorder",
      "isRebuilt": false,
      "address": "2313 MASSACHUSETTS ST, GARY IN",
      "city": "GARY",
      "state": "IN",
      "beds": null,
      "baths": null,
      "sqft": null,
      "lotSize": null,
      "lat": 41.576456,
      "lng": -87.335269
    },
    {
      "propertyId": null,
      "attomId": 201524054,
      "offerDate": "2025-06-27",
      "offerPrice": 5000,
      "status": "recorder",
      "isRebuilt": false,
      "address": "2931 ABNER PL # 2933, SAINT LOUIS MO",
      "city": "SAINT LOUIS",
      "state": "MO",
      "beds": null,
      "baths": null,
      "sqft": null,
      "lotSize": null,
      "lat": 38.676033,
      "lng": -90.263224
    },
    {
      "propertyId": null,
      "attomId": 19497986,
      "offerDate": "2025-06-27",
      "offerPrice": 30000,
      "status": "recorder",
      "isRebuilt": false,
      "address": "2380 E 40TH ST, CLEVELAND OH",
      "city": "CLEVELAND",
      "state": "OH",
      "beds": null,
      "baths": null,
      "sqft": null,
      "lotSize": null,
      "lat": 41.49437,
      "lng": -81.657597
    },
    {
      "propertyId": null,
      "attomId": 17497564,
      "offerDate": "2025-06-27",
      "offerPrice": 20000,
      "status": "recorder",
      "isRebuilt": false,
      "address": "13122 JANE ST, DETROIT MI",
      "city": "DETROIT",
      "state": "MI",
      "beds": null,
      "baths": null,
      "sqft": null,
      "lotSize": null,
      "lat": 42.417732,
      "lng": -82.980261
    },
    {
      "propertyId": null,
      "attomId": 18467707,
      "offerDate": "2025-06-26",
      "offerPrice": 14000,
      "status": "recorder",
      "isRebuilt": false,
      "address": "4450 LABADIE AVE, SAINT LOUIS MO",
      "city": "SAINT LOUIS",
      "state": "MO",
      "beds": null,
      "baths": null,
      "sqft": null,
      "lotSize": null,
      "lat": 38.66556,
      "lng": -90.241635
    },
    {
      "propertyId": null,
      "attomId": 2530118,
      "offerDate": "2025-06-26",
      "offerPrice": 20000,
      "status": "recorder",
      "isRebuilt": false,
      "address": "4330 MARYLAND ST, GARY IN",
      "city": "GARY",
      "state": "IN",
      "beds": null,
      "baths": null,
      "sqft": null,
      "lotSize": null,
      "lat": 41.539796,
      "lng": -87.330573
    },
    {
      "propertyId": null,
      "attomId": 22374161,
      "offerDate": "2025-06-26",
      "offerPrice": 48000,
      "status": "recorder",
      "isRebuilt": false,
      "address": "1901 BACON ST, SAINT LOUIS MO",
      "city": "SAINT LOUIS",
      "state": "MO",
      "beds": null,
      "baths": null,
      "sqft": null,
      "lotSize": null,
      "lat": 38.650251,
      "lng": -90.223588
    },
    {
      "propertyId": null,
      "attomId": 18106058,
      "offerDate": "2025-06-25",
      "offerPrice": 15000,
      "status": "recorder",
      "isRebuilt": false,
      "address": "21 E 39TH AVE, GARY IN",
      "city": "GARY",
      "state": "IN",
      "beds": null,
      "baths": null,
      "sqft": null,
      "lotSize": null,
      "lat": 41.547393,
      "lng": -87.335706
    },
    {
      "propertyId": null,
      "attomId": 200243393,
      "offerDate": "2025-06-25",
      "offerPrice": 15000,
      "status": "recorder",
      "isRebuilt": false,
      "address": "960 WILLARD ST, GARY IN",
      "city": "GARY",
      "state": "IN",
      "beds": null,
      "baths": null,
      "sqft": null,
      "lotSize": null,
      "lat": 41.594151,
      "lng": -87.388113
    },
    {
      "propertyId": null,
      "attomId": 1715731,
      "offerDate": "2025-06-24",
      "offerPrice": 22500,
      "status": "recorder",
      "isRebuilt": false,
      "address": "1001 E 71ST ST, CLEVELAND OH",
      "city": "CLEVELAND",
      "state": "OH",
      "beds": null,
      "baths": null,
      "sqft": null,
      "lotSize": null,
      "lat": 41.527392,
      "lng": -81.639378
    },
    {
      "propertyId": null,
      "attomId": 22517611,
      "offerDate": "2025-06-23",
      "offerPrice": 138000,
      "status": "recorder",
      "isRebuilt": false,
      "address": "1722 GALLAGHER ST, LOUISVILLE KY",
      "city": "LOUISVILLE",
      "state": "KY",
      "beds": null,
      "baths": null,
      "sqft": null,
      "lotSize": null,
      "lat": 38.238792,
      "lng": -85.784799
    },
    {
      "propertyId": null,
      "attomId": 172889158,
      "offerDate": "2025-06-23",
      "offerPrice": 35000,
      "status": "recorder",
      "isRebuilt": false,
      "address": "2118 STANLEY ST, DETROIT MI",
      "city": "DETROIT",
      "state": "MI",
      "beds": null,
      "baths": null,
      "sqft": null,
      "lotSize": null,
      "lat": 42.355937,
      "lng": -83.089402
    },
    {
      "propertyId": null,
      "attomId": 1268687,
      "offerDate": "2025-06-20",
      "offerPrice": 17000,
      "status": "recorder",
      "isRebuilt": false,
      "address": "2966 W 10TH PL, GARY IN",
      "city": "GARY",
      "state": "IN",
      "beds": null,
      "baths": null,
      "sqft": null,
      "lotSize": null,
      "lat": 41.592636,
      "lng": -87.374941
    },
    {
      "propertyId": null,
      "attomId": 203201452,
      "offerDate": "2025-06-20",
      "offerPrice": 3000,
      "status": "recorder",
      "isRebuilt": false,
      "address": "753 GEORGIA ST, GARY IN",
      "city": "GARY",
      "state": "IN",
      "beds": null,
      "baths": null,
      "sqft": null,
      "lotSize": null,
      "lat": 41.597281,
      "lng": -87.326634
    },
    {
      "propertyId": null,
      "attomId": 20926834,
      "offerDate": "2025-06-20",
      "offerPrice": 22000,
      "status": "recorder",
      "isRebuilt": false,
      "address": "3571 VIRGINIA ST, GARY IN",
      "city": "GARY",
      "state": "IN",
      "beds": null,
      "baths": null,
      "sqft": null,
      "lotSize": null,
      "lat": 41.553594,
      "lng": -87.328953
    },
    {
      "propertyId": null,
      "attomId": 20271168,
      "offerDate": "2025-06-18",
      "offerPrice": 20000,
      "status": "recorder",
      "isRebuilt": false,
      "address": "4824 SAINT LOUIS AVE, SAINT LOUIS MO",
      "city": "SAINT LOUIS",
      "state": "MO",
      "beds": null,
      "baths": null,
      "sqft": null,
      "lotSize": null,
      "lat": 38.668737,
      "lng": -90.25166
    },
    {
      "propertyId": null,
      "attomId": 199818532,
      "offerDate": "2025-06-18",
      "offerPrice": 20000,
      "status": "recorder",
      "isRebuilt": false,
      "address": "5240 LOTUS AVE, SAINT LOUIS MO",
      "city": "SAINT LOUIS",
      "state": "MO",
      "beds": null,
      "baths": null,
      "sqft": null,
      "lotSize": null,
      "lat": 38.66832,
      "lng": -90.264449
    },
    {
      "propertyId": null,
      "attomId": 158444071,
      "offerDate": "2025-06-17",
      "offerPrice": 85000,
      "status": "recorder",
      "isRebuilt": false,
      "address": "837 VIRGINIA ST, GARY IN",
      "city": "GARY",
      "state": "IN",
      "beds": null,
      "baths": null,
      "sqft": null,
      "lotSize": null,
      "lat": 41.595782,
      "lng": -87.329259
    },
    {
      "propertyId": null,
      "attomId": 26105071,
      "offerDate": "2025-06-17",
      "offerPrice": 45000,
      "status": "recorder",
      "isRebuilt": false,
      "address": "3028 CARTER ST, DETROIT MI",
      "city": "DETROIT",
      "state": "MI",
      "beds": null,
      "baths": null,
      "sqft": null,
      "lotSize": null,
      "lat": 42.368408,
      "lng": -83.111623
    },
    {
      "propertyId": null,
      "attomId": 38642907,
      "offerDate": "2025-06-11",
      "offerPrice": 29500,
      "status": "recorder",
      "isRebuilt": false,
      "address": "4264 E LABADIE AVE, SAINT LOUIS MO",
      "city": "SAINT LOUIS",
      "state": "MO",
      "beds": null,
      "baths": null,
      "sqft": null,
      "lotSize": null,
      "lat": 38.662709,
      "lng": -90.235075
    },
    {
      "propertyId": null,
      "attomId": 20934903,
      "offerDate": "2025-06-06",
      "offerPrice": 8250,
      "status": "recorder",
      "isRebuilt": false,
      "address": "277 WAITE ST, GARY IN",
      "city": "GARY",
      "state": "IN",
      "beds": null,
      "baths": null,
      "sqft": null,
      "lotSize": null,
      "lat": 41.605784,
      "lng": -87.37565
    },
    {
      "propertyId": null,
      "attomId": 145560197,
      "offerDate": "2025-06-06",
      "offerPrice": 20000,
      "status": "recorder",
      "isRebuilt": false,
      "address": "1949 W 11TH AVE, GARY IN",
      "city": "GARY",
      "state": "IN",
      "beds": null,
      "baths": null,
      "sqft": null,
      "lotSize": null,
      "lat": 41.591223,
      "lng": -87.361012
    },
    {
      "propertyId": null,
      "attomId": 202293751,
      "offerDate": "2025-06-06",
      "offerPrice": 30000,
      "status": "recorder",
      "isRebuilt": false,
      "address": "1917 MASSACHUSETTS ST, GARY IN",
      "city": "GARY",
      "state": "IN",
      "beds": null,
      "baths": null,
      "sqft": null,
      "lotSize": null,
      "lat": 41.583641,
      "lng": -87.335262
    },
    {
      "propertyId": null,
      "attomId": 3656294,
      "offerDate": "2025-06-05",
      "offerPrice": 13000,
      "status": "recorder",
      "isRebuilt": false,
      "address": "1341 3RD ST N, BIRMINGHAM AL",
      "city": "BIRMINGHAM",
      "state": "AL",
      "beds": null,
      "baths": null,
      "sqft": null,
      "lotSize": null,
      "lat": 33.526942,
      "lng": -86.83132
    },
    {
      "propertyId": null,
      "attomId": 173009553,
      "offerDate": "2025-06-04",
      "offerPrice": 31000,
      "status": "recorder",
      "isRebuilt": false,
      "address": "3439 SEYBURN ST, DETROIT MI",
      "city": "DETROIT",
      "state": "MI",
      "beds": null,
      "baths": null,
      "sqft": null,
      "lotSize": null,
      "lat": 42.364789,
      "lng": -83.007057
    },
    {
      "propertyId": null,
      "attomId": 143057794,
      "offerDate": "2025-06-04",
      "offerPrice": 12500,
      "status": "recorder",
      "isRebuilt": false,
      "address": "1232 PRINCETON AVE SW, BIRMINGHAM AL",
      "city": "BIRMINGHAM",
      "state": "AL",
      "beds": null,
      "baths": null,
      "sqft": null,
      "lotSize": null,
      "lat": 33.494687,
      "lng": -86.854336
    },
    {
      "propertyId": null,
      "attomId": 18655090,
      "offerDate": "2025-06-03",
      "offerPrice": 65000,
      "status": "recorder",
      "isRebuilt": false,
      "address": "1304 E 27TH ST, ANDERSON IN",
      "city": "ANDERSON",
      "state": "IN",
      "beds": null,
      "baths": null,
      "sqft": null,
      "lotSize": null,
      "lat": 40.089434,
      "lng": -85.663084
    },
    {
      "propertyId": null,
      "attomId": 144787842,
      "offerDate": "2025-06-03",
      "offerPrice": 16000,
      "status": "recorder",
      "isRebuilt": false,
      "address": "823 W 11TH AVE, GARY IN",
      "city": "GARY",
      "state": "IN",
      "beds": null,
      "baths": null,
      "sqft": null,
      "lotSize": null,
      "lat": 41.591718,
      "lng": -87.346951
    },
    {
      "propertyId": null,
      "attomId": 193049996,
      "offerDate": "2025-06-02",
      "offerPrice": 5000,
      "status": "recorder",
      "isRebuilt": false,
      "address": "4701 PENNSYLVANIA ST, GARY IN",
      "city": "GARY",
      "state": "IN",
      "beds": null,
      "baths": null,
      "sqft": null,
      "lotSize": null,
      "lat": 41.532948,
      "lng": -87.332221
    },
    {
      "propertyId": null,
      "attomId": 17873763,
      "offerDate": "2025-05-30",
      "offerPrice": 45000,
      "status": "recorder",
      "isRebuilt": false,
      "address": "1416 E 84TH ST, CLEVELAND OH",
      "city": "CLEVELAND",
      "state": "OH",
      "beds": null,
      "baths": null,
      "sqft": null,
      "lotSize": null,
      "lat": 41.516967,
      "lng": -81.62972
    },
    {
      "propertyId": null,
      "attomId": 196592211,
      "offerDate": "2025-05-29",
      "offerPrice": 55000,
      "status": "recorder",
      "isRebuilt": false,
      "address": "703 CENTRAL AVE, ANDERSON IN",
      "city": "ANDERSON",
      "state": "IN",
      "beds": null,
      "baths": null,
      "sqft": null,
      "lotSize": null,
      "lat": 40.108772,
      "lng": -85.670755
    },
    {
      "propertyId": null,
      "attomId": 733023,
      "offerDate": "2025-05-29",
      "offerPrice": 31000,
      "status": "recorder",
      "isRebuilt": false,
      "address": "1278 E 152ND ST, EAST CLEVELAND OH",
      "city": "EAST CLEVELAND",
      "state": "OH",
      "beds": null,
      "baths": null,
      "sqft": null,
      "lotSize": null,
      "lat": 41.544378,
      "lng": -81.575701
    },
    {
      "propertyId": null,
      "attomId": 182204810,
      "offerDate": "2025-05-29",
      "offerPrice": 42000,
      "status": "recorder",
      "isRebuilt": false,
      "address": "2883 E 112TH ST, CLEVELAND OH",
      "city": "CLEVELAND",
      "state": "OH",
      "beds": null,
      "baths": null,
      "sqft": null,
      "lotSize": null,
      "lat": 41.48051,
      "lng": -81.606704
    },
    {
      "propertyId": null,
      "attomId": 25125176,
      "offerDate": "2025-05-28",
      "offerPrice": 5000,
      "status": "recorder",
      "isRebuilt": false,
      "address": "1417 GRANVILLE PL, SAINT LOUIS MO",
      "city": "SAINT LOUIS",
      "state": "MO",
      "beds": null,
      "baths": null,
      "sqft": null,
      "lotSize": null,
      "lat": 38.666761,
      "lng": -90.275088
    },
    {
      "propertyId": null,
      "attomId": 4802405,
      "offerDate": "2025-05-28",
      "offerPrice": 35000,
      "status": "recorder",
      "isRebuilt": false,
      "address": "5456 WREN AVE, SAINT LOUIS MO",
      "city": "SAINT LOUIS",
      "state": "MO",
      "beds": null,
      "baths": null,
      "sqft": null,
      "lotSize": null,
      "lat": 38.700753,
      "lng": -90.248074
    },
    {
      "propertyId": null,
      "attomId": 43824,
      "offerDate": "2025-05-27",
      "offerPrice": 32000,
      "status": "recorder",
      "isRebuilt": false,
      "address": "237 E 39TH AVE, GARY IN",
      "city": "GARY",
      "state": "IN",
      "beds": null,
      "baths": null,
      "sqft": null,
      "lotSize": null,
      "lat": 41.547371,
      "lng": -87.332977
    },
    {
      "propertyId": null,
      "attomId": 189118246,
      "offerDate": "2025-05-27",
      "offerPrice": 55000,
      "status": "recorder",
      "isRebuilt": false,
      "address": "1628 SHERMAN ST, ANDERSON IN",
      "city": "ANDERSON",
      "state": "IN",
      "beds": null,
      "baths": null,
      "sqft": null,
      "lotSize": null,
      "lat": 40.099358,
      "lng": -85.689482
    },
    {
      "propertyId": null,
      "attomId": 187817005,
      "offerDate": "2025-05-27",
      "offerPrice": 14500,
      "status": "recorder",
      "isRebuilt": false,
      "address": "426 HOVEY ST, GARY IN",
      "city": "GARY",
      "state": "IN",
      "beds": null,
      "baths": null,
      "sqft": null,
      "lotSize": null,
      "lat": 41.60312,
      "lng": -87.396615
    },
    {
      "propertyId": null,
      "attomId": 9638100,
      "offerDate": "2025-05-23",
      "offerPrice": 25000,
      "status": "recorder",
      "isRebuilt": false,
      "address": "1685 W 13TH AVE, GARY IN",
      "city": "GARY",
      "state": "IN",
      "beds": null,
      "baths": null,
      "sqft": null,
      "lotSize": null,
      "lat": 41.589431,
      "lng": -87.35856
    },
    {
      "propertyId": null,
      "attomId": 20376524,
      "offerDate": "2025-05-23",
      "offerPrice": 50000,
      "status": "recorder",
      "isRebuilt": false,
      "address": "1709 CENTRAL AVE, ANDERSON IN",
      "city": "ANDERSON",
      "state": "IN",
      "beds": null,
      "baths": null,
      "sqft": null,
      "lotSize": null,
      "lat": 40.099225,
      "lng": -85.677187
    },
    {
      "propertyId": null,
      "attomId": 196874617,
      "offerDate": "2025-05-23",
      "offerPrice": 24000,
      "status": "recorder",
      "isRebuilt": false,
      "address": "2623 JOHNSON ST, GARY IN",
      "city": "GARY",
      "state": "IN",
      "beds": null,
      "baths": null,
      "sqft": null,
      "lotSize": null,
      "lat": 41.571698,
      "lng": -87.354738
    },
    {
      "propertyId": null,
      "attomId": 22941621,
      "offerDate": "2025-05-23",
      "offerPrice": 50000,
      "status": "recorder",
      "isRebuilt": false,
      "address": "1610 CENTRAL AVE, ANDERSON IN",
      "city": "ANDERSON",
      "state": "IN",
      "beds": null,
      "baths": null,
      "sqft": null,
      "lotSize": null,
      "lat": 40.100216,
      "lng": -85.676428
    },
    {
      "propertyId": null,
      "attomId": 188858527,
      "offerDate": "2025-05-23",
      "offerPrice": 3200,
      "status": "recorder",
      "isRebuilt": false,
      "address": "4079 FILLMORE ST, GARY IN",
      "city": "GARY",
      "state": "IN",
      "beds": null,
      "baths": null,
      "sqft": null,
      "lotSize": null,
      "lat": 41.544492,
      "lng": -87.349388
    },
    {
      "propertyId": null,
      "attomId": 52333725,
      "offerDate": "2025-05-22",
      "offerPrice": 10000,
      "status": "recorder",
      "isRebuilt": false,
      "address": "908 18TH WAY SW, BIRMINGHAM AL",
      "city": "BIRMINGHAM",
      "state": "AL",
      "beds": null,
      "baths": null,
      "sqft": null,
      "lotSize": null,
      "lat": 33.480867,
      "lng": -86.867357
    },
    {
      "propertyId": null,
      "attomId": 21060520,
      "offerDate": "2025-05-22",
      "offerPrice": 46000,
      "status": "recorder",
      "isRebuilt": false,
      "address": "2361 MONROE ST, GARY IN",
      "city": "GARY",
      "state": "IN",
      "beds": null,
      "baths": null,
      "sqft": null,
      "lotSize": null,
      "lat": 41.575663,
      "lng": -87.342044
    },
    {
      "propertyId": null,
      "attomId": 200808688,
      "offerDate": "2025-05-21",
      "offerPrice": 45000,
      "status": "recorder",
      "isRebuilt": false,
      "address": "2025 CONNECTICUT ST, GARY IN",
      "city": "GARY",
      "state": "IN",
      "beds": null,
      "baths": null,
      "sqft": null,
      "lotSize": null,
      "lat": 41.581685,
      "lng": -87.334027
    },
    {
      "propertyId": null,
      "attomId": 16971651,
      "offerDate": "2025-05-21",
      "offerPrice": 78000,
      "status": "recorder",
      "isRebuilt": false,
      "address": "2350 EDISON ST, GARY IN",
      "city": "GARY",
      "state": "IN",
      "beds": null,
      "baths": null,
      "sqft": null,
      "lotSize": null,
      "lat": 41.576155,
      "lng": -87.420712
    },
    {
      "propertyId": null,
      "attomId": 199011364,
      "offerDate": "2025-05-21",
      "offerPrice": 8000,
      "status": "recorder",
      "isRebuilt": false,
      "address": "3934 SULLIVAN AVE, SAINT LOUIS MO",
      "city": "SAINT LOUIS",
      "state": "MO",
      "beds": null,
      "baths": null,
      "sqft": null,
      "lotSize": null,
      "lat": 38.661094,
      "lng": -90.226168
    },
    {
      "propertyId": null,
      "attomId": 22765749,
      "offerDate": "2025-05-20",
      "offerPrice": 31000,
      "status": "recorder",
      "isRebuilt": false,
      "address": "13108 TULLER ST, DETROIT MI",
      "city": "DETROIT",
      "state": "MI",
      "beds": null,
      "baths": null,
      "sqft": null,
      "lotSize": null,
      "lat": 42.384188,
      "lng": -83.146021
    },
    {
      "propertyId": null,
      "attomId": 201090100,
      "offerDate": "2025-05-20",
      "offerPrice": 10000,
      "status": "recorder",
      "isRebuilt": false,
      "address": "2344 VERMONT ST, GARY IN",
      "city": "GARY",
      "state": "IN",
      "beds": null,
      "baths": null,
      "sqft": null,
      "lotSize": null,
      "lat": 41.575704,
      "lng": -87.325104
    },
    {
      "propertyId": null,
      "attomId": 172908567,
      "offerDate": "2025-05-20",
      "offerPrice": 29000,
      "status": "recorder",
      "isRebuilt": false,
      "address": "5531 MCDOUGALL ST, DETROIT MI",
      "city": "DETROIT",
      "state": "MI",
      "beds": null,
      "baths": null,
      "sqft": null,
      "lotSize": null,
      "lat": 42.372046,
      "lng": -83.039239
    },
    {
      "propertyId": null,
      "attomId": 27157920,
      "offerDate": "2025-05-20",
      "offerPrice": 90000,
      "status": "recorder",
      "isRebuilt": false,
      "address": "4172 MADISON ST, GARY IN",
      "city": "GARY",
      "state": "IN",
      "beds": null,
      "baths": null,
      "sqft": null,
      "lotSize": null,
      "lat": 41.542659,
      "lng": -87.341544
    },
    {
      "propertyId": null,
      "attomId": 50384027,
      "offerDate": "2025-05-20",
      "offerPrice": 50000,
      "status": "recorder",
      "isRebuilt": false,
      "address": "3523 E 143RD ST, CLEVELAND OH",
      "city": "CLEVELAND",
      "state": "OH",
      "beds": null,
      "baths": null,
      "sqft": null,
      "lotSize": null,
      "lat": 41.463605,
      "lng": -81.582063
    },
    {
      "propertyId": null,
      "attomId": 23278168,
      "offerDate": "2025-05-19",
      "offerPrice": 55000,
      "status": "recorder",
      "isRebuilt": false,
      "address": "571 PENNSYLVANIA ST, GARY IN",
      "city": "GARY",
      "state": "IN",
      "beds": null,
      "baths": null,
      "sqft": null,
      "lotSize": null,
      "lat": 41.600534,
      "lng": -87.333069
    },
    {
      "propertyId": null,
      "attomId": 197131299,
      "offerDate": "2025-05-19",
      "offerPrice": 25000,
      "status": "recorder",
      "isRebuilt": false,
      "address": "506 N 19TH ST, LOUISVILLE KY",
      "city": "LOUISVILLE",
      "state": "KY",
      "beds": null,
      "baths": null,
      "sqft": null,
      "lotSize": null,
      "lat": 38.264791,
      "lng": -85.780695
    },
    {
      "propertyId": null,
      "attomId": 743189,
      "offerDate": "2025-05-15",
      "offerPrice": 55000,
      "status": "recorder",
      "isRebuilt": false,
      "address": "9613 RAYMOND AVE, CLEVELAND OH",
      "city": "CLEVELAND",
      "state": "OH",
      "beds": null,
      "baths": null,
      "sqft": null,
      "lotSize": null,
      "lat": 41.466481,
      "lng": -81.61827
    },
    {
      "propertyId": null,
      "attomId": 142236328,
      "offerDate": "2025-05-15",
      "offerPrice": 40000,
      "status": "recorder",
      "isRebuilt": false,
      "address": "2657 SPRINGLE ST, DETROIT MI",
      "city": "DETROIT",
      "state": "MI",
      "beds": null,
      "baths": null,
      "sqft": null,
      "lotSize": null,
      "lat": 42.378628,
      "lng": -82.961013
    },
    {
      "propertyId": null,
      "attomId": 16850887,
      "offerDate": "2025-05-15",
      "offerPrice": 8000,
      "status": "recorder",
      "isRebuilt": false,
      "address": "2885 E 92ND ST, CLEVELAND OH",
      "city": "CLEVELAND",
      "state": "OH",
      "beds": null,
      "baths": null,
      "sqft": null,
      "lotSize": null,
      "lat": 41.480269,
      "lng": -81.623167
    },
    {
      "propertyId": null,
      "attomId": 148627700,
      "offerDate": "2025-05-14",
      "offerPrice": 45000,
      "status": "recorder",
      "isRebuilt": false,
      "address": "779 MATTHEWS ST, GARY IN",
      "city": "GARY",
      "state": "IN",
      "beds": null,
      "baths": null,
      "sqft": null,
      "lotSize": null,
      "lat": 41.597077,
      "lng": -87.39714
    },
    {
      "propertyId": null,
      "attomId": 27368733,
      "offerDate": "2025-05-14",
      "offerPrice": 10000,
      "status": "recorder",
      "isRebuilt": false,
      "address": "403 S 27TH ST, LOUISVILLE KY",
      "city": "LOUISVILLE",
      "state": "KY",
      "beds": null,
      "baths": null,
      "sqft": null,
      "lotSize": null,
      "lat": 38.256493,
      "lng": -85.795026
    },
    {
      "propertyId": null,
      "attomId": 10597390,
      "offerDate": "2025-05-14",
      "offerPrice": 80000,
      "status": "recorder",
      "isRebuilt": false,
      "address": "823 E 34TH AVE, GARY IN",
      "city": "GARY",
      "state": "IN",
      "beds": null,
      "baths": null,
      "sqft": null,
      "lotSize": null,
      "lat": 41.55639,
      "lng": -87.326044
    },
    {
      "propertyId": null,
      "attomId": 142349437,
      "offerDate": "2025-05-14",
      "offerPrice": 20000,
      "status": "recorder",
      "isRebuilt": false,
      "address": "2437 DIAMOND AVE, GARY IN",
      "city": "GARY",
      "state": "IN",
      "beds": null,
      "baths": null,
      "sqft": null,
      "lotSize": null,
      "lat": 41.574466,
      "lng": -87.327278
    },
    {
      "propertyId": null,
      "attomId": 206051162,
      "offerDate": "2025-05-14",
      "offerPrice": 60000,
      "status": "recorder",
      "isRebuilt": false,
      "address": "11831 UNION AVE, CLEVELAND OH",
      "city": "CLEVELAND",
      "state": "OH",
      "beds": null,
      "baths": null,
      "sqft": null,
      "lotSize": null,
      "lat": null,
      "lng": null
    },
    {
      "propertyId": null,
      "attomId": 13941194,
      "offerDate": "2025-05-13",
      "offerPrice": 30000,
      "status": "recorder",
      "isRebuilt": false,
      "address": "1118 W OREGON ST, EVANSVILLE IN",
      "city": "EVANSVILLE",
      "state": "IN",
      "beds": null,
      "baths": null,
      "sqft": null,
      "lotSize": null,
      "lat": 37.986955,
      "lng": -87.579896
    },
    {
      "propertyId": null,
      "attomId": 158489062,
      "offerDate": "2025-05-13",
      "offerPrice": 35000,
      "status": "recorder",
      "isRebuilt": false,
      "address": "835 VAN BUREN ST, GARY IN",
      "city": "GARY",
      "state": "IN",
      "beds": null,
      "baths": null,
      "sqft": null,
      "lotSize": null,
      "lat": 41.595761,
      "lng": -87.345529
    },
    {
      "propertyId": null,
      "attomId": 1268694,
      "offerDate": "2025-05-12",
      "offerPrice": 70000,
      "status": "recorder",
      "isRebuilt": false,
      "address": "1200 GARFIELD ST, GARY IN",
      "city": "GARY",
      "state": "IN",
      "beds": null,
      "baths": null,
      "sqft": null,
      "lotSize": null,
      "lat": 41.590444,
      "lng": -87.35998
    },
    {
      "propertyId": null,
      "attomId": 34360082,
      "offerDate": "2025-05-12",
      "offerPrice": 68000,
      "status": "recorder",
      "isRebuilt": false,
      "address": "1437 HEMLOCK ST, LOUISVILLE KY",
      "city": "LOUISVILLE",
      "state": "KY",
      "beds": null,
      "baths": null,
      "sqft": null,
      "lotSize": null,
      "lat": 38.232772,
      "lng": -85.803135
    },
    {
      "propertyId": null,
      "attomId": 200963127,
      "offerDate": "2025-05-08",
      "offerPrice": 25000,
      "status": "recorder",
      "isRebuilt": false,
      "address": "4468 MASSACHUSETTS ST, GARY IN",
      "city": "GARY",
      "state": "IN",
      "beds": null,
      "baths": null,
      "sqft": null,
      "lotSize": null,
      "lat": 41.537261,
      "lng": -87.335347
    },
    {
      "propertyId": null,
      "attomId": 9357998,
      "offerDate": "2025-05-08",
      "offerPrice": 25000,
      "status": "recorder",
      "isRebuilt": false,
      "address": "1992 CONNECTICUT ST, GARY IN",
      "city": "GARY",
      "state": "IN",
      "beds": null,
      "baths": null,
      "sqft": null,
      "lotSize": null,
      "lat": 41.582331,
      "lng": -87.334708
    },
    {
      "propertyId": null,
      "attomId": 158500062,
      "offerDate": "2025-05-08",
      "offerPrice": 25000,
      "status": "recorder",
      "isRebuilt": false,
      "address": "377 MCKINLEY ST, GARY IN",
      "city": "GARY",
      "state": "IN",
      "beds": null,
      "baths": null,
      "sqft": null,
      "lotSize": null,
      "lat": 41.603927,
      "lng": -87.362677
    },
    {
      "propertyId": null,
      "attomId": 34265249,
      "offerDate": "2025-05-08",
      "offerPrice": 65000,
      "status": "recorder",
      "isRebuilt": false,
      "address": "2243 DATE ST, LOUISVILLE KY",
      "city": "LOUISVILLE",
      "state": "KY",
      "beds": null,
      "baths": null,
      "sqft": null,
      "lotSize": null,
      "lat": 38.243528,
      "lng": -85.791134
    },
    {
      "propertyId": null,
      "attomId": 202278059,
      "offerDate": "2025-05-07",
      "offerPrice": 47500,
      "status": "recorder",
      "isRebuilt": false,
      "address": "1615 WILSON AVE, LOUISVILLE KY",
      "city": "LOUISVILLE",
      "state": "KY",
      "beds": null,
      "baths": null,
      "sqft": null,
      "lotSize": null,
      "lat": 38.233857,
      "lng": -85.781552
    },
    {
      "propertyId": null,
      "attomId": 24103645,
      "offerDate": "2025-05-07",
      "offerPrice": 37500,
      "status": "recorder",
      "isRebuilt": false,
      "address": "670 S 41ST ST, LOUISVILLE KY",
      "city": "LOUISVILLE",
      "state": "KY",
      "beds": null,
      "baths": null,
      "sqft": null,
      "lotSize": null,
      "lat": 38.251671,
      "lng": -85.820139
    },
    {
      "propertyId": null,
      "attomId": 53769407,
      "offerDate": "2025-05-07",
      "offerPrice": 27000,
      "status": "recorder",
      "isRebuilt": false,
      "address": "13900 CLOVERLAWN ST, DETROIT MI",
      "city": "DETROIT",
      "state": "MI",
      "beds": null,
      "baths": null,
      "sqft": null,
      "lotSize": null,
      "lat": 42.388793,
      "lng": -83.151554
    },
    {
      "propertyId": null,
      "attomId": 199212851,
      "offerDate": "2025-05-07",
      "offerPrice": 20000,
      "status": "recorder",
      "isRebuilt": false,
      "address": "2129 DUMESNIL ST, LOUISVILLE KY",
      "city": "LOUISVILLE",
      "state": "KY",
      "beds": null,
      "baths": null,
      "sqft": null,
      "lotSize": null,
      "lat": 38.236777,
      "lng": -85.790141
    },
    {
      "propertyId": null,
      "attomId": 23281044,
      "offerDate": "2025-05-06",
      "offerPrice": 15000,
      "status": "recorder",
      "isRebuilt": false,
      "address": "1316 WOODLAND AVE SW, BIRMINGHAM AL",
      "city": "BIRMINGHAM",
      "state": "AL",
      "beds": null,
      "baths": null,
      "sqft": null,
      "lotSize": null,
      "lat": 33.497051,
      "lng": -86.858114
    },
    {
      "propertyId": null,
      "attomId": 186856203,
      "offerDate": "2025-05-06",
      "offerPrice": 17000,
      "status": "recorder",
      "isRebuilt": false,
      "address": "1630 W 14TH AVE, GARY IN",
      "city": "GARY",
      "state": "IN",
      "beds": null,
      "baths": null,
      "sqft": null,
      "lotSize": null,
      "lat": 41.589027,
      "lng": -87.357274
    },
    {
      "propertyId": null,
      "attomId": 175643333,
      "offerDate": "2025-05-05",
      "offerPrice": 24000,
      "status": "recorder",
      "isRebuilt": false,
      "address": "2557 MADISON AVE, GRANITE CITY IL",
      "city": "GRANITE CITY",
      "state": "IL",
      "beds": null,
      "baths": null,
      "sqft": null,
      "lotSize": null,
      "lat": 38.708776,
      "lng": -90.135441
    },
    {
      "propertyId": null,
      "attomId": 209242674,
      "offerDate": "2025-05-05",
      "offerPrice": 20000,
      "status": "recorder",
      "isRebuilt": false,
      "address": "221 E FLORIDA ST, EVANSVILLE IN",
      "city": "EVANSVILLE",
      "state": "IN",
      "beds": null,
      "baths": null,
      "sqft": null,
      "lotSize": null,
      "lat": 37.989106,
      "lng": -87.560028
    },
    {
      "propertyId": null,
      "attomId": 146890718,
      "offerDate": "2025-04-30",
      "offerPrice": 30000,
      "status": "recorder",
      "isRebuilt": false,
      "address": "104 SAUNDERS CT, LOUISVILLE KY",
      "city": "LOUISVILLE",
      "state": "KY",
      "beds": null,
      "baths": null,
      "sqft": null,
      "lotSize": null,
      "lat": 38.245593,
      "lng": -85.791569
    },
    {
      "propertyId": null,
      "attomId": 196889184,
      "offerDate": "2025-04-30",
      "offerPrice": 25000,
      "status": "recorder",
      "isRebuilt": false,
      "address": "217 W ILLINOIS ST, EVANSVILLE IN",
      "city": "EVANSVILLE",
      "state": "IN",
      "beds": null,
      "baths": null,
      "sqft": null,
      "lotSize": null,
      "lat": 37.979558,
      "lng": -87.567646
    },
    {
      "propertyId": null,
      "attomId": 24061209,
      "offerDate": "2025-04-29",
      "offerPrice": 30000,
      "status": "recorder",
      "isRebuilt": false,
      "address": "1710 GARLAND AVE, LOUISVILLE KY",
      "city": "LOUISVILLE",
      "state": "KY",
      "beds": null,
      "baths": null,
      "sqft": null,
      "lotSize": null,
      "lat": 38.242748,
      "lng": -85.782493
    },
    {
      "propertyId": null,
      "attomId": 26056136,
      "offerDate": "2025-04-29",
      "offerPrice": 19000,
      "status": "recorder",
      "isRebuilt": false,
      "address": "2174 PIERCE ST, GARY IN",
      "city": "GARY",
      "state": "IN",
      "beds": null,
      "baths": null,
      "sqft": null,
      "lotSize": null,
      "lat": 41.579073,
      "lng": -87.351732
    },
    {
      "propertyId": null,
      "attomId": 200925453,
      "offerDate": "2025-04-29",
      "offerPrice": 45000,
      "status": "recorder",
      "isRebuilt": false,
      "address": "3022 GREENWOOD AVE, LOUISVILLE KY",
      "city": "LOUISVILLE",
      "state": "KY",
      "beds": null,
      "baths": null,
      "sqft": null,
      "lotSize": null,
      "lat": 38.242321,
      "lng": -85.804049
    },
    {
      "propertyId": null,
      "attomId": 34442921,
      "offerDate": "2025-04-28",
      "offerPrice": 70000,
      "status": "recorder",
      "isRebuilt": false,
      "address": "411 LOUIS COLEMAN JR DR, LOUISVILLE KY",
      "city": "LOUISVILLE",
      "state": "KY",
      "beds": null,
      "baths": null,
      "sqft": null,
      "lotSize": null,
      "lat": 38.258373,
      "lng": -85.807082
    },
    {
      "propertyId": null,
      "attomId": 141134763,
      "offerDate": "2025-04-28",
      "offerPrice": 34000,
      "status": "recorder",
      "isRebuilt": false,
      "address": "13286 COYLE ST, DETROIT MI",
      "city": "DETROIT",
      "state": "MI",
      "beds": null,
      "baths": null,
      "sqft": null,
      "lotSize": null,
      "lat": 42.385192,
      "lng": -83.19333
    },
    {
      "propertyId": null,
      "attomId": 186398120,
      "offerDate": "2025-04-28",
      "offerPrice": 49000,
      "status": "recorder",
      "isRebuilt": false,
      "address": "2409 VANCE ST, LITTLE ROCK AR",
      "city": "LITTLE ROCK",
      "state": "AR",
      "beds": null,
      "baths": null,
      "sqft": null,
      "lotSize": null,
      "lat": 34.72511,
      "lng": -92.264802
    },
    {
      "propertyId": null,
      "attomId": 39143836,
      "offerDate": "2025-04-28",
      "offerPrice": 15000,
      "status": "recorder",
      "isRebuilt": false,
      "address": "1762 POLK ST, GARY IN",
      "city": "GARY",
      "state": "IN",
      "beds": null,
      "baths": null,
      "sqft": null,
      "lotSize": null,
      "lat": 41.584807,
      "lng": -87.349386
    },
    {
      "propertyId": null,
      "attomId": 215862104,
      "offerDate": "2025-04-24",
      "offerPrice": 37500,
      "status": "recorder",
      "isRebuilt": false,
      "address": "1007 S 10TH ST, TERRE HAUTE IN",
      "city": "TERRE HAUTE",
      "state": "IN",
      "beds": null,
      "baths": null,
      "sqft": null,
      "lotSize": null,
      "lat": 39.456338,
      "lng": -87.403442
    },
    {
      "propertyId": null,
      "attomId": 22070752,
      "offerDate": "2025-04-23",
      "offerPrice": 4300,
      "status": "recorder",
      "isRebuilt": false,
      "address": "1586 HAYES ST, GARY IN",
      "city": "GARY",
      "state": "IN",
      "beds": null,
      "baths": null,
      "sqft": null,
      "lotSize": null,
      "lat": 41.58625,
      "lng": -87.357873
    },
    {
      "propertyId": null,
      "attomId": 26952255,
      "offerDate": "2025-04-23",
      "offerPrice": 65000,
      "status": "recorder",
      "isRebuilt": false,
      "address": "4393 KENTUCKY ST, GARY IN",
      "city": "GARY",
      "state": "IN",
      "beds": null,
      "baths": null,
      "sqft": null,
      "lotSize": null,
      "lat": 41.538551,
      "lng": -87.321988
    },
    {
      "propertyId": null,
      "attomId": 141134505,
      "offerDate": "2025-04-22",
      "offerPrice": 25000,
      "status": "recorder",
      "isRebuilt": false,
      "address": "7726 E CANFIELD ST, DETROIT MI",
      "city": "DETROIT",
      "state": "MI",
      "beds": null,
      "baths": null,
      "sqft": null,
      "lotSize": null,
      "lat": 42.370997,
      "lng": -83.011298
    },
    {
      "propertyId": null,
      "attomId": 34365680,
      "offerDate": "2025-04-22",
      "offerPrice": 30000,
      "status": "recorder",
      "isRebuilt": false,
      "address": "2732 CHASE CT, LOUISVILLE KY",
      "city": "LOUISVILLE",
      "state": "KY",
      "beds": null,
      "baths": null,
      "sqft": null,
      "lotSize": null,
      "lat": 38.250429,
      "lng": -85.797841
    },
    {
      "propertyId": null,
      "attomId": 209264375,
      "offerDate": "2025-04-16",
      "offerPrice": 12500,
      "status": "recorder",
      "isRebuilt": false,
      "address": "602 E MARYLAND ST, EVANSVILLE IN",
      "city": "EVANSVILLE",
      "state": "IN",
      "beds": null,
      "baths": null,
      "sqft": null,
      "lotSize": null,
      "lat": 37.985901,
      "lng": -87.556365
    },
    {
      "propertyId": null,
      "attomId": 212483697,
      "offerDate": "2025-04-16",
      "offerPrice": 44000,
      "status": "recorder",
      "isRebuilt": false,
      "address": "1510 S HACKLEY ST, MUNCIE IN",
      "city": "MUNCIE",
      "state": "IN",
      "beds": null,
      "baths": null,
      "sqft": null,
      "lotSize": null,
      "lat": 40.181821,
      "lng": -85.376799
    },
    {
      "propertyId": null,
      "attomId": 9951908,
      "offerDate": "2025-04-11",
      "offerPrice": 30000,
      "status": "recorder",
      "isRebuilt": false,
      "address": "1723 MARCUS AVE, SAINT LOUIS MO",
      "city": "SAINT LOUIS",
      "state": "MO",
      "beds": null,
      "baths": null,
      "sqft": null,
      "lotSize": null,
      "lat": 38.662129,
      "lng": -90.252513
    },
    {
      "propertyId": null,
      "attomId": 201821034,
      "offerDate": "2025-04-10",
      "offerPrice": 59000,
      "status": "recorder",
      "isRebuilt": false,
      "address": "2501 S MICHIGAN ST, SOUTH BEND IN",
      "city": "SOUTH BEND",
      "state": "IN",
      "beds": null,
      "baths": null,
      "sqft": null,
      "lotSize": null,
      "lat": 41.648668,
      "lng": -86.250167
    },
    {
      "propertyId": null,
      "attomId": 13529483,
      "offerDate": "2025-04-09",
      "offerPrice": 38000,
      "status": "recorder",
      "isRebuilt": false,
      "address": "12636 ILENE ST, DETROIT MI",
      "city": "DETROIT",
      "state": "MI",
      "beds": null,
      "baths": null,
      "sqft": null,
      "lotSize": null,
      "lat": 42.381278,
      "lng": -83.160655
    },
    {
      "propertyId": null,
      "attomId": 989899,
      "offerDate": "2025-04-09",
      "offerPrice": 46000,
      "status": "recorder",
      "isRebuilt": false,
      "address": "1721 W 22ND ST, LITTLE ROCK AR",
      "city": "LITTLE ROCK",
      "state": "AR",
      "beds": null,
      "baths": null,
      "sqft": null,
      "lotSize": null,
      "lat": 34.727992,
      "lng": -92.292951
    },
    {
      "propertyId": null,
      "attomId": 34386112,
      "offerDate": "2025-04-08",
      "offerPrice": 65000,
      "status": "recorder",
      "isRebuilt": false,
      "address": "2901 SLEVIN ST, LOUISVILLE KY",
      "city": "LOUISVILLE",
      "state": "KY",
      "beds": null,
      "baths": null,
      "sqft": null,
      "lotSize": null,
      "lat": 38.266717,
      "lng": -85.79777
    },
    {
      "propertyId": null,
      "attomId": 25060888,
      "offerDate": "2025-04-08",
      "offerPrice": 35000,
      "status": "recorder",
      "isRebuilt": false,
      "address": "2229 W MADISON ST, LOUISVILLE KY",
      "city": "LOUISVILLE",
      "state": "KY",
      "beds": null,
      "baths": null,
      "sqft": null,
      "lotSize": null,
      "lat": 38.253795,
      "lng": -85.788746
    },
    {
      "propertyId": null,
      "attomId": 209258972,
      "offerDate": "2025-04-08",
      "offerPrice": 50000,
      "status": "recorder",
      "isRebuilt": false,
      "address": "914 N ELLIOTT ST, EVANSVILLE IN",
      "city": "EVANSVILLE",
      "state": "IN",
      "beds": null,
      "baths": null,
      "sqft": null,
      "lotSize": null,
      "lat": 37.986252,
      "lng": -87.558041
    },
    {
      "propertyId": null,
      "attomId": 193602304,
      "offerDate": "2025-04-03",
      "offerPrice": 24000,
      "status": "recorder",
      "isRebuilt": false,
      "address": "809 CAROLINA ST, GARY IN",
      "city": "GARY",
      "state": "IN",
      "beds": null,
      "baths": null,
      "sqft": null,
      "lotSize": null,
      "lat": 41.596367,
      "lng": -87.327876
    },
    {
      "propertyId": null,
      "attomId": 146369948,
      "offerDate": "2025-04-02",
      "offerPrice": 30000,
      "status": "recorder",
      "isRebuilt": false,
      "address": "1404 DELMAR AVE, EVANSVILLE IN",
      "city": "EVANSVILLE",
      "state": "IN",
      "beds": null,
      "baths": null,
      "sqft": null,
      "lotSize": null,
      "lat": 37.961981,
      "lng": -87.612317
    },
    {
      "propertyId": null,
      "attomId": 9101231,
      "offerDate": "2025-04-02",
      "offerPrice": 40000,
      "status": "recorder",
      "isRebuilt": false,
      "address": "2213 W BURNETT AVE, LOUISVILLE KY",
      "city": "LOUISVILLE",
      "state": "KY",
      "beds": null,
      "baths": null,
      "sqft": null,
      "lotSize": null,
      "lat": 38.231357,
      "lng": -85.793913
    },
    {
      "propertyId": null,
      "attomId": 172253997,
      "offerDate": "2025-04-02",
      "offerPrice": 30000,
      "status": "recorder",
      "isRebuilt": false,
      "address": "201 TYLER ST, HIGHLAND PARK MI",
      "city": "HIGHLAND PARK",
      "state": "MI",
      "beds": null,
      "baths": null,
      "sqft": null,
      "lotSize": null,
      "lat": 42.399058,
      "lng": -83.101236
    },
    {
      "propertyId": null,
      "attomId": 564835,
      "offerDate": "2025-04-01",
      "offerPrice": 15000,
      "status": "recorder",
      "isRebuilt": false,
      "address": "11051 ROSEMARY ST, DETROIT MI",
      "city": "DETROIT",
      "state": "MI",
      "beds": null,
      "baths": null,
      "sqft": null,
      "lotSize": null,
      "lat": 42.407153,
      "lng": -82.998662
    },
    {
      "propertyId": null,
      "attomId": 2693137,
      "offerDate": "2025-04-01",
      "offerPrice": 50000,
      "status": "recorder",
      "isRebuilt": false,
      "address": "4234 COOK AVE, SAINT LOUIS MO",
      "city": "SAINT LOUIS",
      "state": "MO",
      "beds": null,
      "baths": null,
      "sqft": null,
      "lotSize": null,
      "lat": 38.65077,
      "lng": -90.242351
    },
    {
      "propertyId": null,
      "attomId": 14016789,
      "offerDate": "2025-03-27",
      "offerPrice": 1000,
      "status": "recorder",
      "isRebuilt": false,
      "address": "3837 SUNSET AVE, LOUISVILLE KY",
      "city": "LOUISVILLE",
      "state": "KY",
      "beds": null,
      "baths": null,
      "sqft": null,
      "lotSize": null,
      "lat": 38.242273,
      "lng": -85.818216
    },
    {
      "propertyId": null,
      "attomId": 16412679,
      "offerDate": "2025-03-26",
      "offerPrice": 22500,
      "status": "recorder",
      "isRebuilt": false,
      "address": "2600 POLK ST, GARY IN",
      "city": "GARY",
      "state": "IN",
      "beds": null,
      "baths": null,
      "sqft": null,
      "lotSize": null,
      "lat": 41.57194,
      "lng": -87.348765
    },
    {
      "propertyId": null,
      "attomId": 196874454,
      "offerDate": "2025-03-26",
      "offerPrice": 20000,
      "status": "recorder",
      "isRebuilt": false,
      "address": "2460 INDUSTRIAL BLVD, GARY IN",
      "city": "GARY",
      "state": "IN",
      "beds": null,
      "baths": null,
      "sqft": null,
      "lotSize": null,
      "lat": 41.57409,
      "lng": -87.325806
    },
    {
      "propertyId": null,
      "attomId": 20926389,
      "offerDate": "2025-03-25",
      "offerPrice": 20000,
      "status": "recorder",
      "isRebuilt": false,
      "address": "3920 LOUISIANA ST, GARY IN",
      "city": "GARY",
      "state": "IN",
      "beds": null,
      "baths": null,
      "sqft": null,
      "lotSize": null,
      "lat": 41.547083,
      "lng": -87.319826
    },
    {
      "propertyId": null,
      "attomId": 200374805,
      "offerDate": "2025-03-21",
      "offerPrice": 45000,
      "status": "recorder",
      "isRebuilt": false,
      "address": "116 E MISSOURI ST, EVANSVILLE IN",
      "city": "EVANSVILLE",
      "state": "IN",
      "beds": null,
      "baths": null,
      "sqft": null,
      "lotSize": null,
      "lat": 37.987729,
      "lng": -87.561399
    },
    {
      "propertyId": null,
      "attomId": 193603726,
      "offerDate": "2025-03-18",
      "offerPrice": 20000,
      "status": "recorder",
      "isRebuilt": false,
      "address": "3404 MARYLAND ST, GARY IN",
      "city": "GARY",
      "state": "IN",
      "beds": null,
      "baths": null,
      "sqft": null,
      "lotSize": null,
      "lat": 41.556428,
      "lng": -87.33087
    },
    {
      "propertyId": null,
      "attomId": 3329828,
      "offerDate": "2025-03-18",
      "offerPrice": 20000,
      "status": "recorder",
      "isRebuilt": false,
      "address": "3449 MARYLAND ST, GARY IN",
      "city": "GARY",
      "state": "IN",
      "beds": null,
      "baths": null,
      "sqft": null,
      "lotSize": null,
      "lat": 41.555596,
      "lng": -87.330175
    },
    {
      "propertyId": null,
      "attomId": 18238747,
      "offerDate": "2025-03-18",
      "offerPrice": 20000,
      "status": "recorder",
      "isRebuilt": false,
      "address": "3840 MASSACHUSETTS ST, GARY IN",
      "city": "GARY",
      "state": "IN",
      "beds": null,
      "baths": null,
      "sqft": null,
      "lotSize": null,
      "lat": 41.548599,
      "lng": -87.335592
    },
    {
      "propertyId": null,
      "attomId": 189974939,
      "offerDate": "2025-03-18",
      "offerPrice": 30000,
      "status": "recorder",
      "isRebuilt": false,
      "address": "3719 PALM ST, SAINT LOUIS MO",
      "city": "SAINT LOUIS",
      "state": "MO",
      "beds": null,
      "baths": null,
      "sqft": null,
      "lotSize": null,
      "lat": 38.661502,
      "lng": -90.219734
    },
    {
      "propertyId": null,
      "attomId": 209251577,
      "offerDate": "2025-03-18",
      "offerPrice": 55000,
      "status": "recorder",
      "isRebuilt": false,
      "address": "864 LINCOLN AVE, EVANSVILLE IN",
      "city": "EVANSVILLE",
      "state": "IN",
      "beds": null,
      "baths": null,
      "sqft": null,
      "lotSize": null,
      "lat": 37.970369,
      "lng": -87.54999
    },
    {
      "propertyId": null,
      "attomId": 24809166,
      "offerDate": "2025-03-18",
      "offerPrice": 16000,
      "status": "recorder",
      "isRebuilt": false,
      "address": "469 FILLMORE ST, GARY IN",
      "city": "GARY",
      "state": "IN",
      "beds": null,
      "baths": null,
      "sqft": null,
      "lotSize": null,
      "lat": 41.602252,
      "lng": -87.350703
    },
    {
      "propertyId": null,
      "attomId": 20926500,
      "offerDate": "2025-03-18",
      "offerPrice": 20000,
      "status": "recorder",
      "isRebuilt": false,
      "address": "3409 MARYLAND ST, GARY IN",
      "city": "GARY",
      "state": "IN",
      "beds": null,
      "baths": null,
      "sqft": null,
      "lotSize": null,
      "lat": 41.55634,
      "lng": -87.330182
    },
    {
      "propertyId": null,
      "attomId": 19683854,
      "offerDate": "2025-03-12",
      "offerPrice": 32500,
      "status": "recorder",
      "isRebuilt": false,
      "address": "1777 W HILL ST, LOUISVILLE KY",
      "city": "LOUISVILLE",
      "state": "KY",
      "beds": null,
      "baths": null,
      "sqft": null,
      "lotSize": null,
      "lat": 38.228521,
      "lng": -85.788711
    },
    {
      "propertyId": null,
      "attomId": 38532003,
      "offerDate": "2025-03-10",
      "offerPrice": 30000,
      "status": "recorder",
      "isRebuilt": false,
      "address": "4023 DRYDEN AVE, SAINT LOUIS MO",
      "city": "SAINT LOUIS",
      "state": "MO",
      "beds": null,
      "baths": null,
      "sqft": null,
      "lotSize": null,
      "lat": 38.674736,
      "lng": -90.239254
    },
    {
      "propertyId": null,
      "attomId": 194176665,
      "offerDate": "2025-03-10",
      "offerPrice": 28000,
      "status": "recorder",
      "isRebuilt": false,
      "address": "5071 DURANT AVE, SAINT LOUIS MO",
      "city": "SAINT LOUIS",
      "state": "MO",
      "beds": null,
      "baths": null,
      "sqft": null,
      "lotSize": null,
      "lat": 38.68941,
      "lng": -90.24398
    },
    {
      "propertyId": null,
      "attomId": 145129499,
      "offerDate": "2025-03-10",
      "offerPrice": 28000,
      "status": "recorder",
      "isRebuilt": false,
      "address": "5448 THEODORE AVE, SAINT LOUIS MO",
      "city": "SAINT LOUIS",
      "state": "MO",
      "beds": null,
      "baths": null,
      "sqft": null,
      "lotSize": null,
      "lat": 38.694527,
      "lng": -90.249066
    },
    {
      "propertyId": null,
      "attomId": 201720484,
      "offerDate": "2025-03-10",
      "offerPrice": 12000,
      "status": "recorder",
      "isRebuilt": false,
      "address": "5077 EMERSON AVE, SAINT LOUIS MO",
      "city": "SAINT LOUIS",
      "state": "MO",
      "beds": null,
      "baths": null,
      "sqft": null,
      "lotSize": null,
      "lat": 38.693553,
      "lng": -90.248208
    },
    {
      "propertyId": null,
      "attomId": 195668312,
      "offerDate": "2025-03-10",
      "offerPrice": 18000,
      "status": "recorder",
      "isRebuilt": false,
      "address": "4276 E KOSSUTH AVE, SAINT LOUIS MO",
      "city": "SAINT LOUIS",
      "state": "MO",
      "beds": null,
      "baths": null,
      "sqft": null,
      "lotSize": null,
      "lat": 38.671553,
      "lng": -90.230323
    },
    {
      "propertyId": null,
      "attomId": 209156210,
      "offerDate": "2025-03-10",
      "offerPrice": 35000,
      "status": "recorder",
      "isRebuilt": false,
      "address": "1413 NEWHOUSE AVE # 1415, SAINT LOUIS MO",
      "city": "SAINT LOUIS",
      "state": "MO",
      "beds": null,
      "baths": null,
      "sqft": null,
      "lotSize": null,
      "lat": 38.665219,
      "lng": -90.201785
    },
    {
      "propertyId": null,
      "attomId": 141363140,
      "offerDate": "2025-03-06",
      "offerPrice": 30000,
      "status": "recorder",
      "isRebuilt": false,
      "address": "5901 HIGHLAND AVE, SAINT LOUIS MO",
      "city": "SAINT LOUIS",
      "state": "MO",
      "beds": null,
      "baths": null,
      "sqft": null,
      "lotSize": null,
      "lat": 38.67764,
      "lng": -90.279933
    },
    {
      "propertyId": null,
      "attomId": 54225609,
      "offerDate": "2025-03-06",
      "offerPrice": 23000,
      "status": "recorder",
      "isRebuilt": false,
      "address": "9003 ZION CITY RD, BIRMINGHAM AL",
      "city": "BIRMINGHAM",
      "state": "AL",
      "beds": null,
      "baths": null,
      "sqft": null,
      "lotSize": null,
      "lat": 33.584755,
      "lng": -86.732005
    },
    {
      "propertyId": null,
      "attomId": 10140624,
      "offerDate": "2025-03-05",
      "offerPrice": 20000,
      "status": "recorder",
      "isRebuilt": false,
      "address": "3384 MARYLAND ST, GARY IN",
      "city": "GARY",
      "state": "IN",
      "beds": null,
      "baths": null,
      "sqft": null,
      "lotSize": null,
      "lat": 41.556964,
      "lng": -87.330875
    },
    {
      "propertyId": null,
      "attomId": 2568531,
      "offerDate": "2025-03-04",
      "offerPrice": 55000,
      "status": "recorder",
      "isRebuilt": false,
      "address": "1956 VERMONT ST, GARY IN",
      "city": "GARY",
      "state": "IN",
      "beds": null,
      "baths": null,
      "sqft": null,
      "lotSize": null,
      "lat": 41.582757,
      "lng": -87.325211
    },
    {
      "propertyId": null,
      "attomId": 23233698,
      "offerDate": "2025-03-03",
      "offerPrice": 11000,
      "status": "recorder",
      "isRebuilt": false,
      "address": "548 HARRISON ST, GARY IN",
      "city": "GARY",
      "state": "IN",
      "beds": null,
      "baths": null,
      "sqft": null,
      "lotSize": null,
      "lat": 41.600845,
      "lng": -87.347607
    },
    {
      "propertyId": null,
      "attomId": 1741102,
      "offerDate": "2025-02-28",
      "offerPrice": 45000,
      "status": "recorder",
      "isRebuilt": false,
      "address": "2223 S VALENTINE ST, LITTLE ROCK AR",
      "city": "LITTLE ROCK",
      "state": "AR",
      "beds": null,
      "baths": null,
      "sqft": null,
      "lotSize": null,
      "lat": 34.730395,
      "lng": -92.313652
    },
    {
      "propertyId": null,
      "attomId": 3811802,
      "offerDate": "2025-02-26",
      "offerPrice": 15000,
      "status": "recorder",
      "isRebuilt": false,
      "address": "1725 W OAK ST, LOUISVILLE KY",
      "city": "LOUISVILLE",
      "state": "KY",
      "beds": null,
      "baths": null,
      "sqft": null,
      "lotSize": null,
      "lat": 38.237485,
      "lng": -85.784882
    },
    {
      "propertyId": null,
      "attomId": 48378424,
      "offerDate": "2025-02-25",
      "offerPrice": 37000,
      "status": "recorder",
      "isRebuilt": false,
      "address": "5111 SEYBURN ST, DETROIT MI",
      "city": "DETROIT",
      "state": "MI",
      "beds": null,
      "baths": null,
      "sqft": null,
      "lotSize": null,
      "lat": 42.376907,
      "lng": -83.014953
    },
    {
      "propertyId": null,
      "attomId": 22245296,
      "offerDate": "2025-02-24",
      "offerPrice": 36000,
      "status": "recorder",
      "isRebuilt": false,
      "address": "3509 MODENA ST, DAYTON OH",
      "city": "DAYTON",
      "state": "OH",
      "beds": null,
      "baths": null,
      "sqft": null,
      "lotSize": null,
      "lat": 39.732514,
      "lng": -84.250638
    },
    {
      "propertyId": null,
      "attomId": 13786473,
      "offerDate": "2025-02-24",
      "offerPrice": 39000,
      "status": "recorder",
      "isRebuilt": false,
      "address": "2671 BUCHANAN ST, GARY IN",
      "city": "GARY",
      "state": "IN",
      "beds": null,
      "baths": null,
      "sqft": null,
      "lotSize": null,
      "lat": 41.570526,
      "lng": -87.352534
    },
    {
      "propertyId": null,
      "attomId": 201714878,
      "offerDate": "2025-02-24",
      "offerPrice": 70000,
      "status": "recorder",
      "isRebuilt": false,
      "address": "852 HUMLER ST, LOUISVILLE KY",
      "city": "LOUISVILLE",
      "state": "KY",
      "beds": null,
      "baths": null,
      "sqft": null,
      "lotSize": null,
      "lat": 38.245327,
      "lng": -85.791673
    },
    {
      "propertyId": null,
      "attomId": 191408837,
      "offerDate": "2025-02-24",
      "offerPrice": 13000,
      "status": "recorder",
      "isRebuilt": false,
      "address": "4480 MASSACHUSETTS ST, GARY IN",
      "city": "GARY",
      "state": "IN",
      "beds": null,
      "baths": null,
      "sqft": null,
      "lotSize": null,
      "lat": 41.53711,
      "lng": -87.335344
    },
    {
      "propertyId": null,
      "attomId": 10322905,
      "offerDate": "2025-02-21",
      "offerPrice": 34000,
      "status": "recorder",
      "isRebuilt": false,
      "address": "1009 ELLSWORTH PL, GARY IN",
      "city": "GARY",
      "state": "IN",
      "beds": null,
      "baths": null,
      "sqft": null,
      "lotSize": null,
      "lat": 41.592675,
      "lng": -87.36946
    },
    {
      "propertyId": null,
      "attomId": 267982,
      "offerDate": "2025-02-21",
      "offerPrice": 35000,
      "status": "recorder",
      "isRebuilt": false,
      "address": "14134 SEYMOUR ST, DETROIT MI",
      "city": "DETROIT",
      "state": "MI",
      "beds": null,
      "baths": null,
      "sqft": null,
      "lotSize": null,
      "lat": 42.426797,
      "lng": -82.978745
    },
    {
      "propertyId": null,
      "attomId": 181985433,
      "offerDate": "2025-02-19",
      "offerPrice": 2000,
      "status": "recorder",
      "isRebuilt": false,
      "address": "30 E HELENA ST, DAYTON OH",
      "city": "DAYTON",
      "state": "OH",
      "beds": null,
      "baths": null,
      "sqft": null,
      "lotSize": null,
      "lat": 39.775706,
      "lng": -84.199456
    },
    {
      "propertyId": null,
      "attomId": 141937013,
      "offerDate": "2025-02-18",
      "offerPrice": 2500,
      "status": "recorder",
      "isRebuilt": false,
      "address": "325 E RIDGE RD, GARY IN",
      "city": "GARY",
      "state": "IN",
      "beds": null,
      "baths": null,
      "sqft": null,
      "lotSize": null,
      "lat": 41.549884,
      "lng": -87.332065
    },
    {
      "propertyId": null,
      "attomId": 149141379,
      "offerDate": "2025-02-18",
      "offerPrice": 30000,
      "status": "recorder",
      "isRebuilt": false,
      "address": "673 VERMONT ST, GARY IN",
      "city": "GARY",
      "state": "IN",
      "beds": null,
      "baths": null,
      "sqft": null,
      "lotSize": null,
      "lat": 41.598655,
      "lng": -87.324236
    },
    {
      "propertyId": null,
      "attomId": 16382908,
      "offerDate": "2025-02-18",
      "offerPrice": 20000,
      "status": "recorder",
      "isRebuilt": false,
      "address": "4257 MASSACHUSETTS ST, GARY IN",
      "city": "GARY",
      "state": "IN",
      "beds": null,
      "baths": null,
      "sqft": null,
      "lotSize": null,
      "lat": 41.540898,
      "lng": -87.334759
    },
    {
      "propertyId": null,
      "attomId": 209173646,
      "offerDate": "2025-02-18",
      "offerPrice": 17500,
      "status": "recorder",
      "isRebuilt": false,
      "address": "2469 CONNECTICUT ST, GARY IN",
      "city": "GARY",
      "state": "IN",
      "beds": null,
      "baths": null,
      "sqft": null,
      "lotSize": null,
      "lat": 41.573753,
      "lng": -87.33409
    },
    {
      "propertyId": null,
      "attomId": 140331068,
      "offerDate": "2025-02-14",
      "offerPrice": 55000,
      "status": "recorder",
      "isRebuilt": false,
      "address": "1613 JACKSON AVE, EVANSVILLE IN",
      "city": "EVANSVILLE",
      "state": "IN",
      "beds": null,
      "baths": null,
      "sqft": null,
      "lotSize": null,
      "lat": 37.957944,
      "lng": -87.534817
    },
    {
      "propertyId": null,
      "attomId": 18084466,
      "offerDate": "2025-02-14",
      "offerPrice": 20000,
      "status": "recorder",
      "isRebuilt": false,
      "address": "1036 CLEVELAND ST, GARY IN",
      "city": "GARY",
      "state": "IN",
      "beds": null,
      "baths": null,
      "sqft": null,
      "lotSize": null,
      "lat": 41.591971,
      "lng": -87.362106
    },
    {
      "propertyId": null,
      "attomId": 20493221,
      "offerDate": "2025-02-12",
      "offerPrice": 20000,
      "status": "recorder",
      "isRebuilt": false,
      "address": "53 RICHTON ST, HIGHLAND PARK MI",
      "city": "HIGHLAND PARK",
      "state": "MI",
      "beds": null,
      "baths": null,
      "sqft": null,
      "lotSize": null,
      "lat": 42.395074,
      "lng": -83.092333
    },
    {
      "propertyId": null,
      "attomId": 198930845,
      "offerDate": "2025-02-11",
      "offerPrice": 55000,
      "status": "recorder",
      "isRebuilt": false,
      "address": "1912 MARYLAND ST, GARY IN",
      "city": "GARY",
      "state": "IN",
      "beds": null,
      "baths": null,
      "sqft": null,
      "lotSize": null,
      "lat": 41.583672,
      "lng": -87.331238
    },
    {
      "propertyId": null,
      "attomId": 16383063,
      "offerDate": "2025-02-11",
      "offerPrice": 30000,
      "status": "recorder",
      "isRebuilt": false,
      "address": "4205 MONROE ST, GARY IN",
      "city": "GARY",
      "state": "IN",
      "beds": null,
      "baths": null,
      "sqft": null,
      "lotSize": null,
      "lat": 41.54205,
      "lng": -87.342068
    },
    {
      "propertyId": null,
      "attomId": 13802494,
      "offerDate": "2025-02-11",
      "offerPrice": 2200,
      "status": "recorder",
      "isRebuilt": false,
      "address": "929 W 11TH AVE, GARY IN",
      "city": "GARY",
      "state": "IN",
      "beds": null,
      "baths": null,
      "sqft": null,
      "lotSize": null,
      "lat": 41.591736,
      "lng": -87.348342
    },
    {
      "propertyId": null,
      "attomId": 149142029,
      "offerDate": "2025-02-11",
      "offerPrice": 5488,
      "status": "recorder",
      "isRebuilt": false,
      "address": "933 E RIDGE RD, GARY IN",
      "city": "GARY",
      "state": "IN",
      "beds": null,
      "baths": null,
      "sqft": null,
      "lotSize": null,
      "lat": 41.550864,
      "lng": -87.324754
    },
    {
      "propertyId": null,
      "attomId": 14283769,
      "offerDate": "2025-02-11",
      "offerPrice": 30000,
      "status": "recorder",
      "isRebuilt": false,
      "address": "4201 MONROE ST, GARY IN",
      "city": "GARY",
      "state": "IN",
      "beds": null,
      "baths": null,
      "sqft": null,
      "lotSize": null,
      "lat": 41.54212,
      "lng": -87.34207
    },
    {
      "propertyId": null,
      "attomId": 17344438,
      "offerDate": "2025-02-10",
      "offerPrice": 50000,
      "status": "recorder",
      "isRebuilt": false,
      "address": "1521 W ORMSBY AVE, LOUISVILLE KY",
      "city": "LOUISVILLE",
      "state": "KY",
      "beds": null,
      "baths": null,
      "sqft": null,
      "lotSize": null,
      "lat": 38.234927,
      "lng": -85.779777
    },
    {
      "propertyId": null,
      "attomId": 17366764,
      "offerDate": "2025-02-10",
      "offerPrice": 10000,
      "status": "recorder",
      "isRebuilt": false,
      "address": "1313 DIXIE HWY, LOUISVILLE KY",
      "city": "LOUISVILLE",
      "state": "KY",
      "beds": null,
      "baths": null,
      "sqft": null,
      "lotSize": null,
      "lat": 38.234744,
      "lng": -85.787541
    },
    {
      "propertyId": null,
      "attomId": 34352791,
      "offerDate": "2025-02-10",
      "offerPrice": 45000,
      "status": "recorder",
      "isRebuilt": false,
      "address": "1425 HAZEL ST, LOUISVILLE KY",
      "city": "LOUISVILLE",
      "state": "KY",
      "beds": null,
      "baths": null,
      "sqft": null,
      "lotSize": null,
      "lat": 38.233472,
      "lng": -85.805862
    },
    {
      "propertyId": null,
      "attomId": 43887130,
      "offerDate": "2025-02-07",
      "offerPrice": 10000,
      "status": "recorder",
      "isRebuilt": false,
      "address": "3416 W 14TH ST, LITTLE ROCK AR",
      "city": "LITTLE ROCK",
      "state": "AR",
      "beds": null,
      "baths": null,
      "sqft": null,
      "lotSize": null,
      "lat": 34.738576,
      "lng": -92.31248
    },
    {
      "propertyId": null,
      "attomId": 199282249,
      "offerDate": "2025-02-07",
      "offerPrice": 10000,
      "status": "recorder",
      "isRebuilt": false,
      "address": "2627 N SARAH ST, SAINT LOUIS MO",
      "city": "SAINT LOUIS",
      "state": "MO",
      "beds": null,
      "baths": null,
      "sqft": null,
      "lotSize": null,
      "lat": 38.658085,
      "lng": -90.233262
    },
    {
      "propertyId": null,
      "attomId": 211641288,
      "offerDate": "2025-02-06",
      "offerPrice": 33000,
      "status": "recorder",
      "isRebuilt": false,
      "address": "520 N BAUER ST, MUNCIE IN",
      "city": "MUNCIE",
      "state": "IN",
      "beds": null,
      "baths": null,
      "sqft": null,
      "lotSize": null,
      "lat": 40.198222,
      "lng": -85.345949
    },
    {
      "propertyId": null,
      "attomId": 1693846,
      "offerDate": "2025-02-06",
      "offerPrice": 13000,
      "status": "recorder",
      "isRebuilt": false,
      "address": "3309 MARSHALL ST, LITTLE ROCK AR",
      "city": "LITTLE ROCK",
      "state": "AR",
      "beds": null,
      "baths": null,
      "sqft": null,
      "lotSize": null,
      "lat": 34.716304,
      "lng": -92.292234
    },
    {
      "propertyId": null,
      "attomId": 221062452,
      "offerDate": "2025-02-05",
      "offerPrice": 30000,
      "status": "recorder",
      "isRebuilt": false,
      "address": "2432 CASS ST, GARY IN",
      "city": "GARY",
      "state": "IN",
      "beds": null,
      "baths": null,
      "sqft": null,
      "lotSize": null,
      "lat": null,
      "lng": null
    },
    {
      "propertyId": null,
      "attomId": 201760812,
      "offerDate": "2025-02-05",
      "offerPrice": 45000,
      "status": "recorder",
      "isRebuilt": false,
      "address": "5941 ROMAINE PL, SAINT LOUIS MO",
      "city": "SAINT LOUIS",
      "state": "MO",
      "beds": null,
      "baths": null,
      "sqft": null,
      "lotSize": null,
      "lat": 38.671258,
      "lng": -90.285811
    },
    {
      "propertyId": null,
      "attomId": 48285456,
      "offerDate": "2025-01-31",
      "offerPrice": 32000,
      "status": "recorder",
      "isRebuilt": false,
      "address": "6109 PENNSYLVANIA AVE, SAINT LOUIS MO",
      "city": "SAINT LOUIS",
      "state": "MO",
      "beds": null,
      "baths": null,
      "sqft": null,
      "lotSize": null,
      "lat": 38.558837,
      "lng": -90.246965
    },
    {
      "propertyId": null,
      "attomId": 1002258213,
      "offerDate": "2025-01-31",
      "offerPrice": 137000,
      "status": "recorder",
      "isRebuilt": false,
      "address": "5941 CAPE HATTERAS DR, VERMILION OH",
      "city": "VERMILION",
      "state": "OH",
      "beds": null,
      "baths": null,
      "sqft": null,
      "lotSize": null,
      "lat": null,
      "lng": null
    },
    {
      "propertyId": null,
      "attomId": 1002258208,
      "offerDate": "2025-01-31",
      "offerPrice": 137000,
      "status": "recorder",
      "isRebuilt": false,
      "address": "5940 CAPE HATTERAS DR, VERMILION OH",
      "city": "VERMILION",
      "state": "OH",
      "beds": null,
      "baths": null,
      "sqft": null,
      "lotSize": null,
      "lat": null,
      "lng": null
    },
    {
      "propertyId": null,
      "attomId": 198968346,
      "offerDate": "2025-01-30",
      "offerPrice": 55000,
      "status": "recorder",
      "isRebuilt": false,
      "address": "1907 W 10TH PL, GARY IN",
      "city": "GARY",
      "state": "IN",
      "beds": null,
      "baths": null,
      "sqft": null,
      "lotSize": null,
      "lat": 41.592022,
      "lng": -87.359952
    },
    {
      "propertyId": null,
      "attomId": 34360120,
      "offerDate": "2025-01-30",
      "offerPrice": 55000,
      "status": "recorder",
      "isRebuilt": false,
      "address": "1438 S 7TH ST, LOUISVILLE KY",
      "city": "LOUISVILLE",
      "state": "KY",
      "beds": null,
      "baths": null,
      "sqft": null,
      "lotSize": null,
      "lat": 38.228422,
      "lng": -85.768488
    },
    {
      "propertyId": null,
      "attomId": 10042804,
      "offerDate": "2025-01-30",
      "offerPrice": 55000,
      "status": "recorder",
      "isRebuilt": false,
      "address": "1969 W 14TH AVE, GARY IN",
      "city": "GARY",
      "state": "IN",
      "beds": null,
      "baths": null,
      "sqft": null,
      "lotSize": null,
      "lat": 41.588521,
      "lng": -87.361441
    },
    {
      "propertyId": null,
      "attomId": 52274771,
      "offerDate": "2025-01-29",
      "offerPrice": 30000,
      "status": "recorder",
      "isRebuilt": false,
      "address": "5021 UNION BLVD, SAINT LOUIS MO",
      "city": "SAINT LOUIS",
      "state": "MO",
      "beds": null,
      "baths": null,
      "sqft": null,
      "lotSize": null,
      "lat": 38.690812,
      "lng": -90.247263
    },
    {
      "propertyId": null,
      "attomId": 145182186,
      "offerDate": "2025-01-29",
      "offerPrice": 55000,
      "status": "recorder",
      "isRebuilt": false,
      "address": "722 JACKSON AVE, EVANSVILLE IN",
      "city": "EVANSVILLE",
      "state": "IN",
      "beds": null,
      "baths": null,
      "sqft": null,
      "lotSize": null,
      "lat": 37.958597,
      "lng": -87.552987
    },
    {
      "propertyId": null,
      "attomId": 210381681,
      "offerDate": "2025-01-29",
      "offerPrice": 50000,
      "status": "recorder",
      "isRebuilt": false,
      "address": "1818 W 7TH ST # 1820, MUNCIE IN",
      "city": "MUNCIE",
      "state": "IN",
      "beds": null,
      "baths": null,
      "sqft": null,
      "lotSize": null,
      "lat": 40.182928,
      "lng": -85.406955
    },