{
  "investor": {
    "id": "01983268-a2e4-7e26-a31d-0fa0c23934d9",
    "name": "Hani Ali Khan",
    "email": "hani504@yahoo.com",
    "phone": "+1 (518) 229-8541",
    "totalWon": 1,
    "totalBids": 4,
    "ytdWon": 0,
    "ytdBids": 0,
    "entities": [
      "H & A RENTALS LLC"
    ]
  },
  "stats": {
    "totalTransactions2025": 16,
    "rebuiltTransactions": 0,
    "recorderTransactions": 23,
    "quarterlyStats": {
      "2025-Q1": {
        "rebuilt": 0,
        "total": 1
      },
      "2025-Q2": {
        "rebuilt": 0,
        "total": 6
      },
      "2025-Q3": {
        "rebuilt": 0,
        "total": 2
      },
      "2025-Q4": {
        "rebuilt": 0,
        "total": 7
      },
      "2026-Q1": {
        "rebuilt": 0,
        "total": 2
      }
    }
  },
  "properties": [
    {
      "propertyId": null,
      "attomId": 250010630,
      "offerDate": "2026-02-10",
      "offerPrice": 70000,
      "status": "recorder",
      "isRebuilt": false,
      "address": "902 S ADAMS ST, MT PLEASANT IA",
      "city": "MT PLEASANT",
      "state": "IA",
      "beds": null,
      "baths": null,
      "sqft": null,
      "lotSize": null,
      "lat": 40.956565,
      "lng": -91.552843
    },
    {
      "propertyId": null,
      "attomId": 147903528,
      "offerDate": "2026-01-12",
      "offerPrice": 12000,
      "status": "recorder",
      "isRebuilt": false,
      "address": "141 WEST ST, GLOVERSVILLE NY",
      "city": "GLOVERSVILLE",
      "state": "NY",
      "beds": null,
      "baths": null,
      "sqft": null,
      "lotSize": null,
      "lat": 43.056745,
      "lng": -74.3553
    },
    {
      "propertyId": null,
      "attomId": 10945617,
      "offerDate": "2025-12-30",
      "offerPrice": 61000,
      "status": "recorder",
      "isRebuilt": false,
      "address": "18 7TH AVE, GLOVERSVILLE NY",
      "city": "GLOVERSVILLE",
      "state": "NY",
      "beds": null,
      "baths": null,
      "sqft": null,
      "lotSize": null,
      "lat": 43.059335,
      "lng": -74.338216
    },
    {
      "propertyId": null,
      "attomId": 168160650,
      "offerDate": "2025-11-26",
      "offerPrice": 51000,
      "status": "recorder",
      "isRebuilt": false,
      "address": "102 PEARL ST, JOHNSTOWN NY",
      "city": "JOHNSTOWN",
      "state": "NY",
      "beds": null,
      "baths": null,
      "sqft": null,
      "lotSize": null,
      "lat": 43.010874,
      "lng": -74.380471
    },
    {
      "propertyId": null,
      "attomId": 37482604,
      "offerDate": "2025-11-24",
      "offerPrice": 48000,
      "status": "recorder",
      "isRebuilt": false,
      "address": "57 FOREST ST, GLOVERSVILLE NY",
      "city": "GLOVERSVILLE",
      "state": "NY",
      "beds": null,
      "baths": null,
      "sqft": null,
      "lotSize": null,
      "lat": 43.047947,
      "lng": -74.343493
    },
    {
      "propertyId": null,
      "attomId": 169309843,
      "offerDate": "2025-11-24",
      "offerPrice": 57000,
      "status": "recorder",
      "isRebuilt": false,
      "address": "7 CHERRY ST, GLOVERSVILLE NY",
      "city": "GLOVERSVILLE",
      "state": "NY",
      "beds": null,
      "baths": null,
      "sqft": null,
      "lotSize": null,
      "lat": 43.052241,
      "lng": -74.353596
    },
    {
      "propertyId": null,
      "attomId": 170662963,
      "offerDate": "2025-11-24",
      "offerPrice": 57000,
      "status": "recorder",
      "isRebuilt": false,
      "address": "20 GRAND ST, GLOVERSVILLE NY",
      "city": "GLOVERSVILLE",
      "state": "NY",
      "beds": null,
      "baths": null,
      "sqft": null,
      "lotSize": null,
      "lat": 43.055163,
      "lng": -74.344256
    },
    {
      "propertyId": null,
      "attomId": 45674721,
      "offerDate": "2025-11-24",
      "offerPrice": 59000,
      "status": "recorder",
      "isRebuilt": false,
      "address": "21 JAMES ST, GLOVERSVILLE NY",
      "city": "GLOVERSVILLE",
      "state": "NY",
      "beds": null,
      "baths": null,
      "sqft": null,
      "lotSize": null,
      "lat": 43.058018,
      "lng": -74.342663
    },
    {
      "propertyId": null,
      "attomId": 10532569,
      "offerDate": "2025-11-24",
      "offerPrice": 57000,
      "status": "recorder",
      "isRebuilt": false,
      "address": "14 WESTERN BLVD, GLOVERSVILLE NY",
      "city": "GLOVERSVILLE",
      "state": "NY",
      "beds": null,
      "baths": null,
      "sqft": null,
      "lotSize": null,
      "lat": 43.051831,
      "lng": -74.35399
    },
    {
      "propertyId": null,
      "attomId": 295728115,
      "offerDate": "2025-08-07",
      "offerPrice": 15000,
      "status": "recorder",
      "isRebuilt": false,
      "address": "524 IVY CRK, IVEL KY",
      "city": "IVEL",
      "state": "KY",
      "beds": null,
      "baths": null,
      "sqft": null,
      "lotSize": null,
      "lat": 37.601371,
      "lng": -82.65772
    },
    {
      "propertyId": null,
      "attomId": 250010621,
      "offerDate": "2025-07-25",
      "offerPrice": 75000,
      "status": "recorder",
      "isRebuilt": false,
      "address": "903 S ADAMS ST, MT PLEASANT IA",
      "city": "MT PLEASANT",
      "state": "IA",
      "beds": null,
      "baths": null,
      "sqft": null,
      "lotSize": null,
      "lat": 40.956573,
      "lng": -91.553539
    },
    {
      "propertyId": null,
      "attomId": 13310840,
      "offerDate": "2025-05-21",
      "offerPrice": 45000,
      "status": "recorder",
      "isRebuilt": false,
      "address": "10 TEMPLE ST, GLOVERSVILLE NY",
      "city": "GLOVERSVILLE",
      "state": "NY",
      "beds": null,
      "baths": null,
      "sqft": null,
      "lotSize": null,
      "lat": 43.055549,
      "lng": -74.344229
    },
    {
      "propertyId": null,
      "attomId": 309971244,
      "offerDate": "2025-04-30",
      "offerPrice": 90000,
      "status": "recorder",
      "isRebuilt": false,
      "address": "1040 CURRIE ST, MARINETTE WI",
      "city": "MARINETTE",
      "state": "WI",
      "beds": null,
      "baths": null,
      "sqft": null,
      "lotSize": null,
      "lat": 45.094133,
      "lng": -87.64344
    },
    {
      "propertyId": null,
      "attomId": 53938318,
      "offerDate": "2025-04-29",
      "offerPrice": 493400,
      "status": "recorder",
      "isRebuilt": false,
      "address": "4916 HEKILI RD APT B, KAPAA HI",
      "city": "KAPAA",
      "state": "HI",
      "beds": null,
      "baths": null,
      "sqft": null,
      "lotSize": null,
      "lat": 22.088908,
      "lng": -159.318728
    },
    {
      "propertyId": null,
      "attomId": 204059196,
      "offerDate": "2025-04-29",
      "offerPrice": 516400,
      "status": "recorder",
      "isRebuilt": false,
      "address": "4916 HEKILI RD APT C, KAPAA HI",
      "city": "KAPAA",
      "state": "HI",
      "beds": null,
      "baths": null,
      "sqft": null,
      "lotSize": null,
      "lat": null,
      "lng": null
    },
    {
      "propertyId": null,
      "attomId": 190782411,
      "offerDate": "2025-04-04",
      "offerPrice": 177100,
      "status": "recorder",
      "isRebuilt": false,
      "address": "410 ATKINSON DR # 2131, HONOLULU HI",
      "city": "HONOLULU",
      "state": "HI",
      "beds": null,
      "baths": null,
      "sqft": null,
      "lotSize": null,
      "lat": 21.289867,
      "lng": -157.839757
    },
    {
      "propertyId": null,
      "attomId": 193935601,
      "offerDate": "2025-04-04",
      "offerPrice": 222500,
      "status": "recorder",
      "isRebuilt": false,
      "address": "410 ATKINSON DR # 2219, HONOLULU HI",
      "city": "HONOLULU",
      "state": "HI",
      "beds": null,
      "baths": null,
      "sqft": null,
      "lotSize": null,
      "lat": 21.289867,
      "lng": -157.839757
    },
    {
      "propertyId": null,
      "attomId": 28569765,
      "offerDate": "2025-03-04",
      "offerPrice": 110000,
      "status": "recorder",
      "isRebuilt": false,
      "address": "1815 AGENCY ST, BURLINGTON IA",
      "city": "BURLINGTON",
      "state": "IA",
      "beds": null,
      "baths": null,
      "sqft": null,
      "lotSize": null,
      "lat": 40.81476,
      "lng": -91.126199
    },
    {
      "propertyId": null,
      "attomId": 44954653,
      "offerDate": "2024-12-31",
      "offerPrice": 115000,
      "status": "recorder",
      "isRebuilt": false,
      "address": "311 S GARFIELD AVE, BURLINGTON IA",
      "city": "BURLINGTON",
      "state": "IA",
      "beds": null,
      "baths": null,
      "sqft": null,
      "lotSize": null,
      "lat": 40.807153,
      "lng": -91.119296
    },
    {
      "propertyId": null,
      "attomId": 196825274,
      "offerDate": "2024-12-31",
      "offerPrice": 94500,
      "status": "recorder",
      "isRebuilt": false,
      "address": "305 WINTER ST, WEST BURLINGTON IA",
      "city": "WEST BURLINGTON",
      "state": "IA",
      "beds": null,
      "baths": null,
      "sqft": null,
      "lotSize": null,
      "lat": 40.82371,
      "lng": -91.153238
    },
    {
      "propertyId": null,
      "attomId": 200769647,
      "offerDate": "2024-12-31",
      "offerPrice": 94500,
      "status": "recorder",
      "isRebuilt": false,
      "address": "1809 HIGHLAND AVE, BURLINGTON IA",
      "city": "BURLINGTON",
      "state": "IA",
      "beds": null,
      "baths": null,
      "sqft": null,
      "lotSize": null,
      "lat": 40.826104,
      "lng": -91.111842
    },
    {
      "propertyId": null,
      "attomId": 309976279,
      "offerDate": "2024-10-16",
      "offerPrice": 300000,
      "status": "recorder",
      "isRebuilt": false,
      "address": "251 MEYER AVE, PESHTIGO WI",
      "city": "PESHTIGO",
      "state": "WI",
      "beds": null,
      "baths": null,
      "sqft": null,
      "lotSize": null,
      "lat": 45.051834,
      "lng": -87.764127
    },
    {
      "propertyId": null,
      "attomId": 250523246,
      "offerDate": "2024-06-06",
      "offerPrice": 40000,
      "status": "recorder",
      "isRebuilt": false,
      "address": "411 E WILSON ST, NEW LONDON IA",
      "city": "NEW LONDON",
      "state": "IA",
      "beds": null,
      "baths": null,
      "sqft": null,
      "lotSize": null,
      "lat": 40.924768,
      "lng": -91.396892
    }
  ]
}