{
  "investor": {
    "id": "019b4750-6061-789c-8614-7be8f603d3c4",
    "name": "Chenny Quan Gan",
    "email": "chenny@iname.com",
    "phone": "+1 (478) 508-0714",
    "totalWon": 1,
    "totalBids": 1,
    "ytdWon": 0,
    "ytdBids": 0,
    "entities": [
      "BANK OF AMERICA NA",
      "CLAUDINE FULLMAN"
    ]
  },
  "stats": {
    "totalTransactions2025": 132,
    "rebuiltTransactions": 1,
    "recorderTransactions": 339,
    "quarterlyStats": {
      "2024-Q1": {
        "rebuilt": 0,
        "total": 63
      },
      "2024-Q2": {
        "rebuilt": 0,
        "total": 44
      },
      "2024-Q3": {
        "rebuilt": 0,
        "total": 42
      },
      "2024-Q4": {
        "rebuilt": 0,
        "total": 37
      },
      "2025-Q1": {
        "rebuilt": 0,
        "total": 36
      },
      "2025-Q2": {
        "rebuilt": 0,
        "total": 37
      },
      "2025-Q3": {
        "rebuilt": 0,
        "total": 33
      },
      "2025-Q4": {
        "rebuilt": 1,
        "total": 26
      },
      "2026-Q1": {
        "rebuilt": 0,
        "total": 22
      }
    }
  },
  "properties": [
    {
      "propertyId": null,
      "attomId": 212271225,
      "offerDate": "2025-12-22",
      "offerPrice": 55500.0,
      "status": "won",
      "isRebuilt": true,
      "address": "1321 WESLEYAN DR, MACON ga",
      "city": "MACON",
      "state": "ga",
      "beds": null,
      "baths": null,
      "sqft": null,
      "lotSize": null,
      "lat": 32.908911,
      "lng": -83.715843
    },
    {
      "propertyId": null,
      "attomId": 52510468,
      "offerDate": "2026-03-17",
      "offerPrice": 73928,
      "status": "recorder",
      "isRebuilt": false,
      "address": "4912 N 22ND ST, MILWAUKEE WI",
      "city": "MILWAUKEE",
      "state": "WI",
      "beds": null,
      "baths": null,
      "sqft": null,
      "lotSize": null,
      "lat": 43.106914,
      "lng": -87.938925
    },
    {
      "propertyId": null,
      "attomId": 42593312,
      "offerDate": "2026-03-10",
      "offerPrice": 150000,
      "status": "recorder",
      "isRebuilt": false,
      "address": "6255 PARK PL, TOBYHANNA PA",
      "city": "TOBYHANNA",
      "state": "PA",
      "beds": null,
      "baths": null,
      "sqft": null,
      "lotSize": null,
      "lat": 41.194509,
      "lng": -75.372573
    },
    {
      "propertyId": null,
      "attomId": 22022710,
      "offerDate": "2026-02-26",
      "offerPrice": 26567,
      "status": "recorder",
      "isRebuilt": false,
      "address": "4410 RED BUD AVE, SAINT LOUIS MO",
      "city": "SAINT LOUIS",
      "state": "MO",
      "beds": null,
      "baths": null,
      "sqft": null,
      "lotSize": null,
      "lat": 38.675128,
      "lng": -90.225798
    },
    {
      "propertyId": null,
      "attomId": 4084532,
      "offerDate": "2026-02-24",
      "offerPrice": 180000,
      "status": "recorder",
      "isRebuilt": false,
      "address": "138 KELLYN OAKS DR, CONROE TX",
      "city": "CONROE",
      "state": "TX",
      "beds": null,
      "baths": null,
      "sqft": null,
      "lotSize": null,
      "lat": 30.329444,
      "lng": -95.315118
    },
    {
      "propertyId": null,
      "attomId": 185186402,
      "offerDate": "2026-02-13",
      "offerPrice": 839105,
      "status": "recorder",
      "isRebuilt": false,
      "address": "967 EDGECLIFF DR, LANGLEY WA",
      "city": "LANGLEY",
      "state": "WA",
      "beds": null,
      "baths": null,
      "sqft": null,
      "lotSize": null,
      "lat": null,
      "lng": null
    },
    {
      "propertyId": null,
      "attomId": 250111506,
      "offerDate": "2026-02-06",
      "offerPrice": 5797,
      "status": "recorder",
      "isRebuilt": false,
      "address": "21641 MACON ST, PARK HILL OK",
      "city": "PARK HILL",
      "state": "OK",
      "beds": null,
      "baths": null,
      "sqft": null,
      "lotSize": null,
      "lat": 35.86067,
      "lng": -94.95988
    },
    {
      "propertyId": null,
      "attomId": 298921463,
      "offerDate": "2026-02-05",
      "offerPrice": 32487,
      "status": "recorder",
      "isRebuilt": false,
      "address": "615 S 6TH ST, MCCOMB MS",
      "city": "MCCOMB",
      "state": "MS",
      "beds": null,
      "baths": null,
      "sqft": null,
      "lotSize": null,
      "lat": 31.239148,
      "lng": -90.461594
    },
    {
      "propertyId": null,
      "attomId": 171387869,
      "offerDate": "2026-02-03",
      "offerPrice": 1975000,
      "status": "recorder",
      "isRebuilt": false,
      "address": "1911 VAUGHN RD NW, KENNESAW GA",
      "city": "KENNESAW",
      "state": "GA",
      "beds": null,
      "baths": null,
      "sqft": null,
      "lotSize": null,
      "lat": 34.001738,
      "lng": -84.591063
    },
    {
      "propertyId": null,
      "attomId": 151296050,
      "offerDate": "2026-02-03",
      "offerPrice": 255484,
      "status": "recorder",
      "isRebuilt": false,
      "address": "2030 TOWNGATE DR, GARLAND TX",
      "city": "GARLAND",
      "state": "TX",
      "beds": null,
      "baths": null,
      "sqft": null,
      "lotSize": null,
      "lat": 32.869199,
      "lng": -96.65903
    },
    {
      "propertyId": null,
      "attomId": 198710731,
      "offerDate": "2026-02-03",
      "offerPrice": 46000,
      "status": "recorder",
      "isRebuilt": false,
      "address": "1100 CORBIN ST, ALBERTVILLE AL",
      "city": "ALBERTVILLE",
      "state": "AL",
      "beds": null,
      "baths": null,
      "sqft": null,
      "lotSize": null,
      "lat": 34.256122,
      "lng": -86.214874
    },
    {
      "propertyId": null,
      "attomId": 40872588,
      "offerDate": "2026-02-03",
      "offerPrice": 112000,
      "status": "recorder",
      "isRebuilt": false,
      "address": "1705 LAKE PARK CIR, CENTER POINT AL",
      "city": "CENTER POINT",
      "state": "AL",
      "beds": null,
      "baths": null,
      "sqft": null,
      "lotSize": null,
      "lat": 33.625447,
      "lng": -86.681934
    },
    {
      "propertyId": null,
      "attomId": 1560693,
      "offerDate": "2026-02-02",
      "offerPrice": 285000,
      "status": "recorder",
      "isRebuilt": false,
      "address": "209 TENNIS COURT LN NW, KENNESAW GA",
      "city": "KENNESAW",
      "state": "GA",
      "beds": null,
      "baths": null,
      "sqft": null,
      "lotSize": null,
      "lat": 34.034452,
      "lng": -84.660172
    },
    {
      "propertyId": null,
      "attomId": 215184491,
      "offerDate": "2026-01-29",
      "offerPrice": 138250,
      "status": "recorder",
      "isRebuilt": false,
      "address": "5292 CAMPBELL HWY, LYNCHBURG VA",
      "city": "LYNCHBURG",
      "state": "VA",
      "beds": null,
      "baths": null,
      "sqft": null,
      "lotSize": null,
      "lat": 37.34841,
      "lng": -79.106703
    },
    {
      "propertyId": null,
      "attomId": 188331095,
      "offerDate": "2026-01-29",
      "offerPrice": 55000,
      "status": "recorder",
      "isRebuilt": false,
      "address": "201 MCCLAIN ST, YORK SC",
      "city": "YORK",
      "state": "SC",
      "beds": null,
      "baths": null,
      "sqft": null,
      "lotSize": null,
      "lat": 35.000809,
      "lng": -81.231355
    },
    {
      "propertyId": null,
      "attomId": 24782824,
      "offerDate": "2026-01-23",
      "offerPrice": 250000,
      "status": "recorder",
      "isRebuilt": false,
      "address": "139 EASTMAN ST, MOUNT CLEMENS MI",
      "city": "MOUNT CLEMENS",
      "state": "MI",
      "beds": null,
      "baths": null,
      "sqft": null,
      "lotSize": null,
      "lat": 42.589471,
      "lng": -82.867571
    },
    {
      "propertyId": null,
      "attomId": 3948013,
      "offerDate": "2026-01-23",
      "offerPrice": 296910,
      "status": "recorder",
      "isRebuilt": false,
      "address": "704 BUCKINGHAM AVE W, OLDSMAR FL",
      "city": "OLDSMAR",
      "state": "FL",
      "beds": null,
      "baths": null,
      "sqft": null,
      "lotSize": null,
      "lat": 28.036191,
      "lng": -82.674698
    },
    {
      "propertyId": null,
      "attomId": 153238213,
      "offerDate": "2026-01-21",
      "offerPrice": 356400,
      "status": "recorder",
      "isRebuilt": false,
      "address": "12755 SHINNECOCK WAY, JACKSONVILLE FL",
      "city": "JACKSONVILLE",
      "state": "FL",
      "beds": null,
      "baths": null,
      "sqft": null,
      "lotSize": null,
      "lat": 30.371047,
      "lng": -81.492766
    },
    {
      "propertyId": null,
      "attomId": 151468639,
      "offerDate": "2026-01-14",
      "offerPrice": 249900,
      "status": "recorder",
      "isRebuilt": false,
      "address": "3877 PARK LN, SPRING PARK MN",
      "city": "SPRING PARK",
      "state": "MN",
      "beds": null,
      "baths": null,
      "sqft": null,
      "lotSize": null,
      "lat": 44.93772,
      "lng": -93.62179
    },
    {
      "propertyId": null,
      "attomId": 51881506,
      "offerDate": "2026-01-14",
      "offerPrice": 95000,
      "status": "recorder",
      "isRebuilt": false,
      "address": "624 LIBERTY RD, CHELSEA AL",
      "city": "CHELSEA",
      "state": "AL",
      "beds": null,
      "baths": null,
      "sqft": null,
      "lotSize": null,
      "lat": 33.337005615234375,
      "lng": -86.615917
    },
    {
      "propertyId": null,
      "attomId": 204306093,
      "offerDate": "2026-01-14",
      "offerPrice": 249900,
      "status": "recorder",
      "isRebuilt": false,
      "address": "3877 PARK LN, SPRING PARK MN",
      "city": "SPRING PARK",
      "state": "MN",
      "beds": null,
      "baths": null,
      "sqft": null,
      "lotSize": null,
      "lat": null,
      "lng": null
    },
    {
      "propertyId": null,
      "attomId": 169916281,
      "offerDate": "2026-01-13",
      "offerPrice": 54900,
      "status": "recorder",
      "isRebuilt": false,
      "address": "4 CLOSE ST, SCHENECTADY NY",
      "city": "SCHENECTADY",
      "state": "NY",
      "beds": null,
      "baths": null,
      "sqft": null,
      "lotSize": null,
      "lat": 42.809675,
      "lng": -73.936447
    },
    {
      "propertyId": null,
      "attomId": 221217287,
      "offerDate": "2026-01-12",
      "offerPrice": 2814,
      "status": "recorder",
      "isRebuilt": false,
      "address": "601 SCOTT ST, PENN PA",
      "city": "PENN",
      "state": "PA",
      "beds": null,
      "baths": null,
      "sqft": null,
      "lotSize": null,
      "lat": 40.330075,
      "lng": -79.641339
    },
    {
      "propertyId": null,
      "attomId": 156569466,
      "offerDate": "2025-12-29",
      "offerPrice": 1209186,
      "status": "recorder",
      "isRebuilt": false,
      "address": "1524 LYNDHURST AVE, CAMARILLO CA",
      "city": "CAMARILLO",
      "state": "CA",
      "beds": null,
      "baths": null,
      "sqft": null,
      "lotSize": null,
      "lat": 34.234179,
      "lng": -119.050222
    },
    {
      "propertyId": null,
      "attomId": 7718090,
      "offerDate": "2025-12-18",
      "offerPrice": 231000,
      "status": "recorder",
      "isRebuilt": false,
      "address": "5203 DEAL DR, OXON HILL MD",
      "city": "OXON HILL",
      "state": "MD",
      "beds": null,
      "baths": null,
      "sqft": null,
      "lotSize": null,
      "lat": 38.818849,
      "lng": -76.994
    },
    {
      "propertyId": null,
      "attomId": 1446259,
      "offerDate": "2025-12-17",
      "offerPrice": 122100,
      "status": "recorder",
      "isRebuilt": false,
      "address": "6606 CORNELL ST, TAYLOR MI",
      "city": "TAYLOR",
      "state": "MI",
      "beds": null,
      "baths": null,
      "sqft": null,
      "lotSize": null,
      "lat": 42.260125,
      "lng": -83.268326
    },
    {
      "propertyId": null,
      "attomId": 19850102,
      "offerDate": "2025-12-17",
      "offerPrice": 241600,
      "status": "recorder",
      "isRebuilt": false,
      "address": "1405 BRYAN RD, BRANDON FL",
      "city": "BRANDON",
      "state": "FL",
      "beds": null,
      "baths": null,
      "sqft": null,
      "lotSize": null,
      "lat": 27.919334,
      "lng": -82.277187
    },
    {
      "propertyId": null,
      "attomId": 190358393,
      "offerDate": "2025-12-17",
      "offerPrice": 136580,
      "status": "recorder",
      "isRebuilt": false,
      "address": "4200 CATHEDRAL AVE NW APT 603, WASHINGTON DC",
      "city": "WASHINGTON",
      "state": "DC",
      "beds": null,
      "baths": null,
      "sqft": null,
      "lotSize": null,
      "lat": 38.929672,
      "lng": -77.082906
    },
    {
      "propertyId": null,
      "attomId": 200833917,
      "offerDate": "2025-12-12",
      "offerPrice": 123000,
      "status": "recorder",
      "isRebuilt": false,
      "address": "4205 MORAVIA RD, BALTIMORE MD",
      "city": "BALTIMORE",
      "state": "MD",
      "beds": null,
      "baths": null,
      "sqft": null,
      "lotSize": null,
      "lat": 39.330449,
      "lng": -76.561505
    },
    {
      "propertyId": null,
      "attomId": 141933419,
      "offerDate": "2025-12-12",
      "offerPrice": 1000,
      "status": "recorder",
      "isRebuilt": false,
      "address": "221 S PITNEY RD, GALLOWAY NJ",
      "city": "GALLOWAY",
      "state": "NJ",
      "beds": null,
      "baths": null,
      "sqft": null,
      "lotSize": null,
      "lat": 39.469295,
      "lng": -74.493443
    },
    {
      "propertyId": null,
      "attomId": 24660612,
      "offerDate": "2025-11-21",
      "offerPrice": 164160,
      "status": "recorder",
      "isRebuilt": false,
      "address": "1266 CRESTRIDGE LN, RIVERDALE GA",
      "city": "RIVERDALE",
      "state": "GA",
      "beds": null,
      "baths": null,
      "sqft": null,
      "lotSize": null,
      "lat": 33.540884,
      "lng": -84.431717
    },
    {
      "propertyId": null,
      "attomId": 21356110,
      "offerDate": "2025-11-20",
      "offerPrice": 871448,
      "status": "recorder",
      "isRebuilt": false,
      "address": "309 RIDGE RD, HIGHLAND PARK IL",
      "city": "HIGHLAND PARK",
      "state": "IL",
      "beds": null,
      "baths": null,
      "sqft": null,
      "lotSize": null,
      "lat": 42.158348,
      "lng": -87.811654
    },
    {
      "propertyId": null,
      "attomId": 207803026,
      "offerDate": "2025-11-19",
      "offerPrice": 176186,
      "status": "recorder",
      "isRebuilt": false,
      "address": "1341 KAREN BLVD APT 106, CAPITOL HEIGHTS MD",
      "city": "CAPITOL HEIGHTS",
      "state": "MD",
      "beds": null,
      "baths": null,
      "sqft": null,
      "lotSize": null,
      "lat": 38.870659,
      "lng": -76.888988
    },
    {
      "propertyId": null,
      "attomId": 26835557,
      "offerDate": "2025-11-12",
      "offerPrice": 319680,
      "status": "recorder",
      "isRebuilt": false,
      "address": "2212 E WRIGHT AVE, TACOMA WA",
      "city": "TACOMA",
      "state": "WA",
      "beds": null,
      "baths": null,
      "sqft": null,
      "lotSize": null,
      "lat": 47.234495,
      "lng": -122.399536
    },
    {
      "propertyId": null,
      "attomId": 52852557,
      "offerDate": "2025-11-10",
      "offerPrice": 617500,
      "status": "recorder",
      "isRebuilt": false,
      "address": "1920 NUGGET DR, LAKE HAVASU CITY AZ",
      "city": "LAKE HAVASU CITY",
      "state": "AZ",
      "beds": null,
      "baths": null,
      "sqft": null,
      "lotSize": null,
      "lat": 34.512152,
      "lng": -114.351156
    },
    {
      "propertyId": null,
      "attomId": 336301111,
      "offerDate": "2025-11-05",
      "offerPrice": 565000,
      "status": "recorder",
      "isRebuilt": false,
      "address": "92 SLONAKER CIR, JONESBOROUGH TN",
      "city": "JONESBOROUGH",
      "state": "TN",
      "beds": null,
      "baths": null,
      "sqft": null,
      "lotSize": null,
      "lat": 36.304665,
      "lng": -82.454218
    },
    {
      "propertyId": null,
      "attomId": 4007380,
      "offerDate": "2025-11-03",
      "offerPrice": 69000,
      "status": "recorder",
      "isRebuilt": false,
      "address": "2912 S ROBINSON ST, PHILADELPHIA PA",
      "city": "PHILADELPHIA",
      "state": "PA",
      "beds": null,
      "baths": null,
      "sqft": null,
      "lotSize": null,
      "lat": 39.922341,
      "lng": -75.221901
    },
    {
      "propertyId": null,
      "attomId": 14377979,
      "offerDate": "2025-10-30",
      "offerPrice": 285770,
      "status": "recorder",
      "isRebuilt": false,
      "address": "6213 NEVIN RD, CHARLOTTE NC",
      "city": "CHARLOTTE",
      "state": "NC",
      "beds": null,
      "baths": null,
      "sqft": null,
      "lotSize": null,
      "lat": 35.304577,
      "lng": -80.796407
    },
    {
      "propertyId": null,
      "attomId": 310613464,
      "offerDate": "2025-10-30",
      "offerPrice": 170000,
      "status": "recorder",
      "isRebuilt": false,
      "address": "900 N 6TH ST, LANDER WY",
      "city": "LANDER",
      "state": "WY",
      "beds": null,
      "baths": null,
      "sqft": null,
      "lotSize": null,
      "lat": 42.842848,
      "lng": -108.733741
    },
    {
      "propertyId": null,
      "attomId": 169039601,
      "offerDate": "2025-10-27",
      "offerPrice": 960264,
      "status": "recorder",
      "isRebuilt": false,
      "address": "177 LONGVUE TER, YONKERS NY",
      "city": "YONKERS",
      "state": "NY",
      "beds": null,
      "baths": null,
      "sqft": null,
      "lotSize": null,
      "lat": 40.964949,
      "lng": -73.835029
    },
    {
      "propertyId": null,
      "attomId": 52751085,
      "offerDate": "2025-10-24",
      "offerPrice": 20100,
      "status": "recorder",
      "isRebuilt": false,
      "address": "20123 STILL WIND DR, TAMPA FL",
      "city": "TAMPA",
      "state": "FL",
      "beds": null,
      "baths": null,
      "sqft": null,
      "lotSize": null,
      "lat": 28.15587,
      "lng": -82.278272
    },
    {
      "propertyId": null,
      "attomId": 10655433,
      "offerDate": "2025-10-22",
      "offerPrice": 744750,
      "status": "recorder",
      "isRebuilt": false,
      "address": "14806 FACETA DR, LA MIRADA CA",
      "city": "LA MIRADA",
      "state": "CA",
      "beds": null,
      "baths": null,
      "sqft": null,
      "lotSize": null,
      "lat": 33.896704,
      "lng": -117.989589
    },
    {
      "propertyId": null,
      "attomId": 168532966,
      "offerDate": "2025-10-22",
      "offerPrice": 95000,
      "status": "recorder",
      "isRebuilt": false,
      "address": "37 PLEASANT ST, VOORHEESVILLE NY",
      "city": "VOORHEESVILLE",
      "state": "NY",
      "beds": null,
      "baths": null,
      "sqft": null,
      "lotSize": null,
      "lat": 42.654245,
      "lng": -73.930436
    },
    {
      "propertyId": null,
      "attomId": 201581876,
      "offerDate": "2025-10-16",
      "offerPrice": 1360918,
      "status": "recorder",
      "isRebuilt": false,
      "address": "2900 MARLIN DR, RIVA MD",
      "city": "RIVA",
      "state": "MD",
      "beds": null,
      "baths": null,
      "sqft": null,
      "lotSize": null,
      "lat": 38.955554,
      "lng": -76.584819
    },
    {
      "propertyId": null,
      "attomId": 24642329,
      "offerDate": "2025-10-14",
      "offerPrice": 181300,
      "status": "recorder",
      "isRebuilt": false,
      "address": "2313 LAWRENCE HALL ST, RUSKIN FL",
      "city": "RUSKIN",
      "state": "FL",
      "beds": null,
      "baths": null,
      "sqft": null,
      "lotSize": null,
      "lat": 27.691609,
      "lng": -82.427899
    },
    {
      "propertyId": null,
      "attomId": 144268710,
      "offerDate": "2025-10-10",
      "offerPrice": 909871,
      "status": "recorder",
      "isRebuilt": false,
      "address": "80 NORTHGATE CIR, MELVILLE NY",
      "city": "MELVILLE",
      "state": "NY",
      "beds": null,
      "baths": null,
      "sqft": null,
      "lotSize": null,
      "lat": 40.773629,
      "lng": -73.429187
    },
    {
      "propertyId": null,
      "attomId": 165588148,
      "offerDate": "2025-10-10",
      "offerPrice": 502693,
      "status": "recorder",
      "isRebuilt": false,
      "address": "3711 NEWHOUSE ST, HOUSTON TX",
      "city": "HOUSTON",
      "state": "TX",
      "beds": null,
      "baths": null,
      "sqft": null,
      "lotSize": null,
      "lat": 29.755664,
      "lng": -95.406925
    },
    {
      "propertyId": null,
      "attomId": 168762712,
      "offerDate": "2025-10-07",
      "offerPrice": 317699,
      "status": "recorder",
      "isRebuilt": false,
      "address": "1391 COUNTY ROUTE 7, ANCRAM NY",
      "city": "ANCRAM",
      "state": "NY",
      "beds": null,
      "baths": null,
      "sqft": null,
      "lotSize": null,
      "lat": 42.055685,
      "lng": -73.635359
    },
    {
      "propertyId": null,
      "attomId": 288510930,
      "offerDate": "2025-09-24",
      "offerPrice": 26055,
      "status": "recorder",
      "isRebuilt": false,
      "address": "612 N CRYSTAL AVE, BENTON HARBOR MI",
      "city": "BENTON HARBOR",
      "state": "MI",
      "beds": null,
      "baths": null,
      "sqft": null,
      "lotSize": null,
      "lat": 42.124857,
      "lng": -86.417825
    },
    {
      "propertyId": null,
      "attomId": 36365301,
      "offerDate": "2025-09-22",
      "offerPrice": 121000,
      "status": "recorder",
      "isRebuilt": false,
      "address": "6027 FRANKFORD AVE, PHILADELPHIA PA",
      "city": "PHILADELPHIA",
      "state": "PA",
      "beds": null,
      "baths": null,
      "sqft": null,
      "lotSize": null,
      "lat": 40.026555,
      "lng": -75.066877
    },
    {
      "propertyId": null,
      "attomId": 142731893,
      "offerDate": "2025-09-22",
      "offerPrice": 230100,
      "status": "recorder",
      "isRebuilt": false,
      "address": "8046 CHARMONT DR S, JACKSONVILLE FL",
      "city": "JACKSONVILLE",
      "state": "FL",
      "beds": null,
      "baths": null,
      "sqft": null,
      "lotSize": null,
      "lat": 30.36014,
      "lng": -81.562599
    },
    {
      "propertyId": null,
      "attomId": 333137241,
      "offerDate": "2025-09-17",
      "offerPrice": 264375,
      "status": "recorder",
      "isRebuilt": false,
      "address": "1225 BRIAR HILL DR, DENTON TX",
      "city": "DENTON",
      "state": "TX",
      "beds": null,
      "baths": null,
      "sqft": null,
      "lotSize": null,
      "lat": 33.265153,
      "lng": -97.120226
    },
    {
      "propertyId": null,
      "attomId": 12023978,
      "offerDate": "2025-09-08",
      "offerPrice": 192251,
      "status": "recorder",
      "isRebuilt": false,
      "address": "16306 SOMERSBY AVE, BATON ROUGE LA",
      "city": "BATON ROUGE",
      "state": "LA",
      "beds": null,
      "baths": null,
      "sqft": null,
      "lotSize": null,
      "lat": 30.380253,
      "lng": -91.003236
    },
    {
      "propertyId": null,
      "attomId": 151155255,
      "offerDate": "2025-09-03",
      "offerPrice": 162000,
      "status": "recorder",
      "isRebuilt": false,
      "address": "2001 LINKWOOD AVE, WILMINGTON DE",
      "city": "WILMINGTON",
      "state": "DE",
      "beds": null,
      "baths": null,
      "sqft": null,
      "lotSize": null,
      "lat": 39.734184,
      "lng": -75.608222
    },
    {
      "propertyId": null,
      "attomId": 169860038,
      "offerDate": "2025-08-27",
      "offerPrice": 82033,
      "status": "recorder",
      "isRebuilt": false,
      "address": "295 BLACK RIVER RD, STEPHENTOWN NY",
      "city": "STEPHENTOWN",
      "state": "NY",
      "beds": null,
      "baths": null,
      "sqft": null,
      "lotSize": null,
      "lat": 42.582446,
      "lng": -73.415001
    },
    {
      "propertyId": null,
      "attomId": 2754129,
      "offerDate": "2025-08-26",
      "offerPrice": 174150,
      "status": "recorder",
      "isRebuilt": false,
      "address": "4212 STUMBERG LN, BATON ROUGE LA",
      "city": "BATON ROUGE",
      "state": "LA",
      "beds": null,
      "baths": null,
      "sqft": null,
      "lotSize": null,
      "lat": 30.413654,
      "lng": -91.036402
    },
    {
      "propertyId": null,
      "attomId": 156994419,
      "offerDate": "2025-08-26",
      "offerPrice": 590000,
      "status": "recorder",
      "isRebuilt": false,
      "address": "26690 THUNDERBIRD DR, LAKE ARROWHEAD CA",
      "city": "LAKE ARROWHEAD",
      "state": "CA",
      "beds": null,
      "baths": null,
      "sqft": null,
      "lotSize": null,
      "lat": 34.250383,
      "lng": -117.226143
    },
    {
      "propertyId": null,
      "attomId": 153441107,
      "offerDate": "2025-08-25",
      "offerPrice": 76100,
      "status": "recorder",
      "isRebuilt": false,
      "address": "4633 WEYMOUTH ST, PHILADELPHIA PA",
      "city": "PHILADELPHIA",
      "state": "PA",
      "beds": null,
      "baths": null,
      "sqft": null,
      "lotSize": null,
      "lat": 40.019194,
      "lng": -75.111996
    },
    {
      "propertyId": null,
      "attomId": 7403246,
      "offerDate": "2025-08-25",
      "offerPrice": 105100,
      "status": "recorder",
      "isRebuilt": false,
      "address": "5700 N MARVINE ST, PHILADELPHIA PA",
      "city": "PHILADELPHIA",
      "state": "PA",
      "beds": null,
      "baths": null,
      "sqft": null,
      "lotSize": null,
      "lat": 40.039443,
      "lng": -75.140252
    },
    {
      "propertyId": null,
      "attomId": 4028741,
      "offerDate": "2025-08-25",
      "offerPrice": 35200,
      "status": "recorder",
      "isRebuilt": false,
      "address": "803 BRIDIER ST, JACKSONVILLE FL",
      "city": "JACKSONVILLE",
      "state": "FL",
      "beds": null,
      "baths": null,
      "sqft": null,
      "lotSize": null,
      "lat": 30.331479,
      "lng": -81.637579
    },
    {
      "propertyId": null,
      "attomId": 68253,
      "offerDate": "2025-08-25",
      "offerPrice": 511150,
      "status": "recorder",
      "isRebuilt": false,
      "address": "17 WILSON PL, ROOSEVELT NY",
      "city": "ROOSEVELT",
      "state": "NY",
      "beds": null,
      "baths": null,
      "sqft": null,
      "lotSize": null,
      "lat": 40.675293,
      "lng": -73.587513
    },
    {
      "propertyId": null,
      "attomId": 8483125,
      "offerDate": "2025-08-22",
      "offerPrice": 979716,
      "status": "recorder",
      "isRebuilt": false,
      "address": "906 THOMPSON DR, BAY SHORE NY",
      "city": "BAY SHORE",
      "state": "NY",
      "beds": null,
      "baths": null,
      "sqft": null,
      "lotSize": null,
      "lat": 40.705814,
      "lng": -73.282387
    },
    {
      "propertyId": null,
      "attomId": 42590017,
      "offerDate": "2025-08-21",
      "offerPrice": 110487,
      "status": "recorder",
      "isRebuilt": false,
      "address": "5602 ORIOLE ST, HOUSTON TX",
      "city": "HOUSTON",
      "state": "TX",
      "beds": null,
      "baths": null,
      "sqft": null,
      "lotSize": null,
      "lat": 29.687078,
      "lng": -95.236049
    },
    {
      "propertyId": null,
      "attomId": 178918245,
      "offerDate": "2025-08-21",
      "offerPrice": 56000,
      "status": "recorder",
      "isRebuilt": false,
      "address": "5811 CHESTER AVE, PHILADELPHIA PA",
      "city": "PHILADELPHIA",
      "state": "PA",
      "beds": null,
      "baths": null,
      "sqft": null,
      "lotSize": null,
      "lat": 39.935662,
      "lng": -75.229126
    },
    {
      "propertyId": null,
      "attomId": 144129647,
      "offerDate": "2025-08-20",
      "offerPrice": 345100,
      "status": "recorder",
      "isRebuilt": false,
      "address": "4071 HARBOR HILLS DR, LARGO FL",
      "city": "LARGO",
      "state": "FL",
      "beds": null,
      "baths": null,
      "sqft": null,
      "lotSize": null,
      "lat": 27.902126,
      "lng": -82.82915
    },
    {
      "propertyId": null,
      "attomId": 33118423,
      "offerDate": "2025-08-20",
      "offerPrice": 147800,
      "status": "recorder",
      "isRebuilt": false,
      "address": "23795 GREENWOOD RD, EUCLID OH",
      "city": "EUCLID",
      "state": "OH",
      "beds": null,
      "baths": null,
      "sqft": null,
      "lotSize": null,
      "lat": 41.574457,
      "lng": -81.518576
    },
    {
      "propertyId": null,
      "attomId": 211175066,
      "offerDate": "2025-08-19",
      "offerPrice": 113750,
      "status": "recorder",
      "isRebuilt": false,
      "address": "3202 MARSHALL WOLFE RD, SHELBY NC",
      "city": "SHELBY",
      "state": "NC",
      "beds": null,
      "baths": null,
      "sqft": null,
      "lotSize": null,
      "lat": 35.31173,
      "lng": -81.428759
    },
    {
      "propertyId": null,
      "attomId": 159041886,
      "offerDate": "2025-08-15",
      "offerPrice": 518000,
      "status": "recorder",
      "isRebuilt": false,
      "address": "1986 GOLF VIEW LN, PRESCOTT AZ",
      "city": "PRESCOTT",
      "state": "AZ",
      "beds": null,
      "baths": null,
      "sqft": null,
      "lotSize": null,
      "lat": 34.636158,
      "lng": -112.424918
    },
    {
      "propertyId": null,
      "attomId": 170693043,
      "offerDate": "2025-08-15",
      "offerPrice": 103702,
      "status": "recorder",
      "isRebuilt": false,
      "address": "68 PLEASANT AVE, LANCASTER NY",
      "city": "LANCASTER",
      "state": "NY",
      "beds": null,
      "baths": null,
      "sqft": null,
      "lotSize": null,
      "lat": 42.90361,
      "lng": -78.666374
    },
    {
      "propertyId": null,
      "attomId": 7659887,
      "offerDate": "2025-08-14",
      "offerPrice": 117000,
      "status": "recorder",
      "isRebuilt": false,
      "address": "1371 WESTBURY DR, PHILADELPHIA PA",
      "city": "PHILADELPHIA",
      "state": "PA",
      "beds": null,
      "baths": null,
      "sqft": null,
      "lotSize": null,
      "lat": 39.973785,
      "lng": -75.264353
    },
    {
      "propertyId": null,
      "attomId": 35412890,
      "offerDate": "2025-08-14",
      "offerPrice": 190000,
      "status": "recorder",
      "isRebuilt": false,
      "address": "1043 BOONES HOLLOW DR, CORDOVA TN",
      "city": "CORDOVA",
      "state": "TN",
      "beds": null,
      "baths": null,
      "sqft": null,
      "lotSize": null,
      "lat": 35.153683,
      "lng": -89.802132
    },
    {
      "propertyId": null,
      "attomId": 19475805,
      "offerDate": "2025-08-13",
      "offerPrice": 468000,
      "status": "recorder",
      "isRebuilt": false,
      "address": "84-908 HANA ST, WAIANAE HI",
      "city": "WAIANAE",
      "state": "HI",
      "beds": null,
      "baths": null,
      "sqft": null,
      "lotSize": null,
      "lat": 21.464693,
      "lng": -158.211538
    },
    {
      "propertyId": null,
      "attomId": 28552212,
      "offerDate": "2025-08-12",
      "offerPrice": 87125,
      "status": "recorder",
      "isRebuilt": false,
      "address": "118 FRANCIS ST, WATERTOWN NY",
      "city": "WATERTOWN",
      "state": "NY",
      "beds": null,
      "baths": null,
      "sqft": null,
      "lotSize": null,
      "lat": 43.983182,
      "lng": -75.904815
    },
    {
      "propertyId": null,
      "attomId": 43565349,
      "offerDate": "2025-07-21",
      "offerPrice": 250001,
      "status": "recorder",
      "isRebuilt": false,
      "address": "4185 S SHADE AVE, SARASOTA FL",
      "city": "SARASOTA",
      "state": "FL",
      "beds": null,
      "baths": null,
      "sqft": null,
      "lotSize": null,
      "lat": 27.293729,
      "lng": -82.521304
    },
    {
      "propertyId": null,
      "attomId": 46139424,
      "offerDate": "2025-07-14",
      "offerPrice": 186000,
      "status": "recorder",
      "isRebuilt": false,
      "address": "2309 LINCOLN AVE, CLAYMONT DE",
      "city": "CLAYMONT",
      "state": "DE",
      "beds": null,
      "baths": null,
      "sqft": null,
      "lotSize": null,
      "lat": 39.793079,
      "lng": -75.473757
    },
    {
      "propertyId": null,
      "attomId": 48825232,
      "offerDate": "2025-07-10",
      "offerPrice": 1000,
      "status": "recorder",
      "isRebuilt": false,
      "address": "6515 DONLEN DR, ELLICOTTVILLE NY",
      "city": "ELLICOTTVILLE",
      "state": "NY",
      "beds": null,
      "baths": null,
      "sqft": null,
      "lotSize": null,
      "lat": 42.26697,
      "lng": -78.663831
    },
    {
      "propertyId": null,
      "attomId": 154776055,
      "offerDate": "2025-07-10",
      "offerPrice": 1316740,
      "status": "recorder",
      "isRebuilt": false,
      "address": "6234 SCENIC AVE, LOS ANGELES CA",
      "city": "LOS ANGELES",
      "state": "CA",
      "beds": null,
      "baths": null,
      "sqft": null,
      "lotSize": null,
      "lat": 34.10979,
      "lng": -118.323936
    },
    {
      "propertyId": null,
      "attomId": 19750139,
      "offerDate": "2025-07-09",
      "offerPrice": 113000,
      "status": "recorder",
      "isRebuilt": false,
      "address": "118 NELLIE BROOK DR SW, MABLETON GA",
      "city": "MABLETON",
      "state": "GA",
      "beds": null,
      "baths": null,
      "sqft": null,
      "lotSize": null,
      "lat": 33.7994,
      "lng": -84.551033
    },
    {
      "propertyId": null,
      "attomId": 141031877,
      "offerDate": "2025-07-07",
      "offerPrice": 71500,
      "status": "recorder",
      "isRebuilt": false,
      "address": "2317 SPRING HILL AVE, INKSTER MI",
      "city": "INKSTER",
      "state": "MI",
      "beds": null,
      "baths": null,
      "sqft": null,
      "lotSize": null,
      "lat": 42.29263,
      "lng": -83.322854
    },
    {
      "propertyId": null,
      "attomId": 168042436,
      "offerDate": "2025-07-03",
      "offerPrice": 435423,
      "status": "recorder",
      "isRebuilt": false,
      "address": "1581 BOWEN RD, ELMA NY",
      "city": "ELMA",
      "state": "NY",
      "beds": null,
      "baths": null,
      "sqft": null,
      "lotSize": null,
      "lat": 42.814189,
      "lng": -78.634035
    },
    {
      "propertyId": null,
      "attomId": 168409504,
      "offerDate": "2025-07-02",
      "offerPrice": 535434,
      "status": "recorder",
      "isRebuilt": false,
      "address": "64 FELTERS RD, BINGHAMTON NY",
      "city": "BINGHAMTON",
      "state": "NY",
      "beds": null,
      "baths": null,
      "sqft": null,
      "lotSize": null,
      "lat": 42.094789,
      "lng": -75.874272
    },
    {
      "propertyId": null,
      "attomId": 42719413,
      "offerDate": "2025-06-27",
      "offerPrice": 385950,
      "status": "recorder",
      "isRebuilt": false,
      "address": "502 HARBOR VIEW CT, BEACON NY",
      "city": "BEACON",
      "state": "NY",
      "beds": null,
      "baths": null,
      "sqft": null,
      "lotSize": null,
      "lat": 41.501199,
      "lng": -73.979124
    },
    {
      "propertyId": null,
      "attomId": 170899975,
      "offerDate": "2025-06-27",
      "offerPrice": 80567,
      "status": "recorder",
      "isRebuilt": false,
      "address": "145 CRIMSON CIR, THOMASVILLE GA",
      "city": "THOMASVILLE",
      "state": "GA",
      "beds": null,
      "baths": null,
      "sqft": null,
      "lotSize": null,
      "lat": 30.820355,
      "lng": -83.993349
    },
    {
      "propertyId": null,
      "attomId": 4491914,
      "offerDate": "2025-06-24",
      "offerPrice": 122500,
      "status": "recorder",
      "isRebuilt": false,
      "address": "8860 APPOLINE ST, DETROIT MI",
      "city": "DETROIT",
      "state": "MI",
      "beds": null,
      "baths": null,
      "sqft": null,
      "lotSize": null,
      "lat": 42.359665,
      "lng": -83.168614
    },
    {
      "propertyId": null,
      "attomId": 23328377,
      "offerDate": "2025-06-24",
      "offerPrice": 161250,
      "status": "recorder",
      "isRebuilt": false,
      "address": "16842 GREENVIEW AVE, DETROIT MI",
      "city": "DETROIT",
      "state": "MI",
      "beds": null,
      "baths": null,
      "sqft": null,
      "lotSize": null,
      "lat": 42.41432,
      "lng": -83.223876
    },
    {
      "propertyId": null,
      "attomId": 190995378,
      "offerDate": "2025-06-20",
      "offerPrice": 149506,
      "status": "recorder",
      "isRebuilt": false,
      "address": "2925 SURFWOOD DR, GRETNA LA",
      "city": "GRETNA",
      "state": "LA",
      "beds": null,
      "baths": null,
      "sqft": null,
      "lotSize": null,
      "lat": 29.87723,
      "lng": -90.025776
    },
    {
      "propertyId": null,
      "attomId": 321067968,
      "offerDate": "2025-06-12",
      "offerPrice": 159641,
      "status": "recorder",
      "isRebuilt": false,
      "address": "7106 PITZER DR, CHARLOTTE NC",
      "city": "CHARLOTTE",
      "state": "NC",
      "beds": null,
      "baths": null,
      "sqft": null,
      "lotSize": null,
      "lat": 35.310567,
      "lng": -80.824428
    },
    {
      "propertyId": null,
      "attomId": 4448786,
      "offerDate": "2025-06-10",
      "offerPrice": 4515965,
      "status": "recorder",
      "isRebuilt": false,
      "address": "131 PECKSLAND RD, GREENWICH CT",
      "city": "GREENWICH",
      "state": "CT",
      "beds": null,
      "baths": null,
      "sqft": null,
      "lotSize": null,
      "lat": 41.046948,
      "lng": -73.659092
    },
    {
      "propertyId": null,
      "attomId": 176108472,
      "offerDate": "2025-06-09",
      "offerPrice": 40500,
      "status": "recorder",
      "isRebuilt": false,
      "address": "104 ALGONQUIN RD, MARQUETTE HEIGHTS IL",
      "city": "MARQUETTE HEIGHTS",
      "state": "IL",
      "beds": null,
      "baths": null,
      "sqft": null,
      "lotSize": null,
      "lat": 40.614823,
      "lng": -89.611593
    },
    {
      "propertyId": null,
      "attomId": 52562801,
      "offerDate": "2025-06-06",
      "offerPrice": 1055000,
      "status": "recorder",
      "isRebuilt": false,
      "address": "2525 N PACIFIC AVE, SANTA ANA CA",
      "city": "SANTA ANA",
      "state": "CA",
      "beds": null,
      "baths": null,
      "sqft": null,
      "lotSize": null,
      "lat": 33.771261,
      "lng": -117.886835
    },
    {
      "propertyId": null,
      "attomId": 185570491,
      "offerDate": "2025-06-06",
      "offerPrice": 278224,
      "status": "recorder",
      "isRebuilt": false,
      "address": "2700 4TH AVE APT 301, SEATTLE WA",
      "city": "SEATTLE",
      "state": "WA",
      "beds": null,
      "baths": null,
      "sqft": null,
      "lotSize": null,
      "lat": 47.61814,
      "lng": -122.348018
    },
    {
      "propertyId": null,
      "attomId": 147064452,
      "offerDate": "2025-06-04",
      "offerPrice": 105000,
      "status": "recorder",
      "isRebuilt": false,
      "address": "3889 CHRISWOOD LN, HARVEY LA",
      "city": "HARVEY",
      "state": "LA",
      "beds": null,
      "baths": null,
      "sqft": null,
      "lotSize": null,
      "lat": 29.854948,
      "lng": -90.077221
    },
    {
      "propertyId": null,
      "attomId": 291027621,
      "offerDate": "2025-05-27",
      "offerPrice": 9904,
      "status": "recorder",
      "isRebuilt": false,
      "address": "210 W 20TH ST, STUTTGART AR",
      "city": "STUTTGART",
      "state": "AR",
      "beds": null,
      "baths": null,
      "sqft": null,
      "lotSize": null,
      "lat": 34.483368,
      "lng": -91.555318
    },
    {
      "propertyId": null,
      "attomId": 149199854,
      "offerDate": "2025-05-23",
      "offerPrice": 59400,
      "status": "recorder",
      "isRebuilt": false,
      "address": "5895 HALL AVE, CORPUS CHRISTI TX",
      "city": "CORPUS CHRISTI",
      "state": "TX",
      "beds": null,
      "baths": null,
      "sqft": null,
      "lotSize": null,
      "lat": 27.798845,
      "lng": -97.477633
    },
    {
      "propertyId": null,
      "attomId": 9396160,
      "offerDate": "2025-05-20",
      "offerPrice": 34927,
      "status": "recorder",
      "isRebuilt": false,
      "address": "5201 CANTON ST, DETROIT MI",
      "city": "DETROIT",
      "state": "MI",
      "beds": null,
      "baths": null,
      "sqft": null,
      "lotSize": null,
      "lat": 42.374169,
      "lng": -83.022775
    },
    {
      "propertyId": null,
      "attomId": 203630166,
      "offerDate": "2025-05-20",
      "offerPrice": 102500,
      "status": "recorder",
      "isRebuilt": false,
      "address": "3232 ALPINE PL, TUSCALOOSA AL",
      "city": "TUSCALOOSA",
      "state": "AL",
      "beds": null,
      "baths": null,
      "sqft": null,
      "lotSize": null,
      "lat": 33.166399,
      "lng": -87.494584
    },
    {
      "propertyId": null,
      "attomId": 299245244,
      "offerDate": "2025-05-16",
      "offerPrice": 41385,
      "status": "recorder",
      "isRebuilt": false,
      "address": "26006 SARONG DR, EDWARDS MO",
      "city": "EDWARDS",
      "state": "MO",
      "beds": null,
      "baths": null,
      "sqft": null,
      "lotSize": null,
      "lat": 38.250389,
      "lng": -93.226171
    },
    {
      "propertyId": null,
      "attomId": 182499924,
      "offerDate": "2025-05-13",
      "offerPrice": 55471,
      "status": "recorder",
      "isRebuilt": false,
      "address": "1806 40TH ST NW, CANTON OH",
      "city": "CANTON",
      "state": "OH",
      "beds": null,
      "baths": null,
      "sqft": null,
      "lotSize": null,
      "lat": 40.842726,
      "lng": -81.390215
    },
    {
      "propertyId": null,
      "attomId": 151261514,
      "offerDate": "2025-05-12",
      "offerPrice": 63100,
      "status": "recorder",
      "isRebuilt": false,
      "address": "2435 S LAUREL AVE, SANFORD FL",
      "city": "SANFORD",
      "state": "FL",
      "beds": null,
      "baths": null,
      "sqft": null,
      "lotSize": null,
      "lat": 28.787425,
      "lng": -81.27171
    },
    {
      "propertyId": null,
      "attomId": 171033911,
      "offerDate": "2025-05-09",
      "offerPrice": 125902,
      "status": "recorder",
      "isRebuilt": false,
      "address": "106 TUCWAL ST, THOMASVILLE GA",
      "city": "THOMASVILLE",
      "state": "GA",
      "beds": null,
      "baths": null,
      "sqft": null,
      "lotSize": null,
      "lat": 30.855601,
      "lng": -83.97626
    },
    {
      "propertyId": null,
      "attomId": 38381889,
      "offerDate": "2025-05-09",
      "offerPrice": 105706,
      "status": "recorder",
      "isRebuilt": false,
      "address": "605 E LIBERTY ST, CHESANING MI",
      "city": "CHESANING",
      "state": "MI",
      "beds": null,
      "baths": null,
      "sqft": null,
      "lotSize": null,
      "lat": 43.181154,
      "lng": -84.109243
    },
    {
      "propertyId": null,
      "attomId": 26342801,
      "offerDate": "2025-05-09",
      "offerPrice": 23895,
      "status": "recorder",
      "isRebuilt": false,
      "address": "2533 LONGVIEW AVE, SAGINAW MI",
      "city": "SAGINAW",
      "state": "MI",
      "beds": null,
      "baths": null,
      "sqft": null,
      "lotSize": null,
      "lat": 43.39305,
      "lng": -83.905671
    },
    {
      "propertyId": null,
      "attomId": 144152277,
      "offerDate": "2025-05-07",
      "offerPrice": 351000,
      "status": "recorder",
      "isRebuilt": false,
      "address": "1915 SEAPORT DR, INDIANAPOLIS IN",
      "city": "INDIANAPOLIS",
      "state": "IN",
      "beds": null,
      "baths": null,
      "sqft": null,
      "lotSize": null,
      "lat": 39.897258,
      "lng": -86.128002
    },
    {
      "propertyId": null,
      "attomId": 168459657,
      "offerDate": "2025-05-06",
      "offerPrice": 2000,
      "status": "recorder",
      "isRebuilt": false,
      "address": "2701 APPLE TREE RD, BOLIVAR NY",
      "city": "BOLIVAR",
      "state": "NY",
      "beds": null,
      "baths": null,
      "sqft": null,
      "lotSize": null,
      "lat": 42.112741,
      "lng": -78.209605
    },
    {
      "propertyId": null,
      "attomId": 158255027,
      "offerDate": "2025-05-06",
      "offerPrice": 150000,
      "status": "recorder",
      "isRebuilt": false,
      "address": "33265 LAURA DR, THOUSAND PALMS CA",
      "city": "THOUSAND PALMS",
      "state": "CA",
      "beds": null,
      "baths": null,
      "sqft": null,
      "lotSize": null,
      "lat": 33.807038,
      "lng": -116.377351
    },
    {
      "propertyId": null,
      "attomId": 148389346,
      "offerDate": "2025-04-29",
      "offerPrice": 109200,
      "status": "recorder",
      "isRebuilt": false,
      "address": "12 MIDDLE JAM RD, GORHAM ME",
      "city": "GORHAM",
      "state": "ME",
      "beds": null,
      "baths": null,
      "sqft": null,
      "lotSize": null,
      "lat": 43.802846,
      "lng": -70.454866
    },
    {
      "propertyId": null,
      "attomId": 32925086,
      "offerDate": "2025-04-25",
      "offerPrice": 329000,
      "status": "recorder",
      "isRebuilt": false,
      "address": "15701 WILD CREEK DR, EDMOND OK",
      "city": "EDMOND",
      "state": "OK",
      "beds": null,
      "baths": null,
      "sqft": null,
      "lotSize": null,
      "lat": 35.629667,
      "lng": -97.607797
    },
    {
      "propertyId": null,
      "attomId": 142348794,
      "offerDate": "2025-04-23",
      "offerPrice": 184500,
      "status": "recorder",
      "isRebuilt": false,
      "address": "31493 JUDITH DR, SPRINGFIELD LA",
      "city": "SPRINGFIELD",
      "state": "LA",
      "beds": null,
      "baths": null,
      "sqft": null,
      "lotSize": null,
      "lat": 30.367498,
      "lng": -90.568592
    },
    {
      "propertyId": null,
      "attomId": 23534471,
      "offerDate": "2025-04-23",
      "offerPrice": 214328,
      "status": "recorder",
      "isRebuilt": false,
      "address": "5518 BRINWICK DR, REX GA",
      "city": "REX",
      "state": "GA",
      "beds": null,
      "baths": null,
      "sqft": null,
      "lotSize": null,
      "lat": 33.603702,
      "lng": -84.25752
    },
    {
      "propertyId": null,
      "attomId": 32713205,
      "offerDate": "2025-04-18",
      "offerPrice": 78594,
      "status": "recorder",
      "isRebuilt": false,
      "address": "1316 EAGLE ST, ARCADE NY",
      "city": "ARCADE",
      "state": "NY",
      "beds": null,
      "baths": null,
      "sqft": null,
      "lotSize": null,
      "lat": 42.496401,
      "lng": -78.377819
    },
    {
      "propertyId": null,
      "attomId": 146744188,
      "offerDate": "2025-04-18",
      "offerPrice": 339323,
      "status": "recorder",
      "isRebuilt": false,
      "address": "5405 13TH AVE, HYATTSVILLE MD",
      "city": "HYATTSVILLE",
      "state": "MD",
      "beds": null,
      "baths": null,
      "sqft": null,
      "lotSize": null,
      "lat": 38.955746,
      "lng": -76.988505
    },
    {
      "propertyId": null,
      "attomId": 29557115,
      "offerDate": "2025-04-18",
      "offerPrice": 230000,
      "status": "recorder",
      "isRebuilt": false,
      "address": "2801 ALLENDALE RD, BALTIMORE MD",
      "city": "BALTIMORE",
      "state": "MD",
      "beds": null,
      "baths": null,
      "sqft": null,
      "lotSize": null,
      "lat": 39.319302,
      "lng": -76.680357
    },
    {
      "propertyId": null,
      "attomId": 142169899,
      "offerDate": "2025-04-17",
      "offerPrice": 712974,
      "status": "recorder",
      "isRebuilt": false,
      "address": "14997 S EAGLE CREST DR, DRAPER UT",
      "city": "DRAPER",
      "state": "UT",
      "beds": null,
      "baths": null,
      "sqft": null,
      "lotSize": null,
      "lat": 40.479329,
      "lng": -111.826745
    },
    {
      "propertyId": null,
      "attomId": 211228333,
      "offerDate": "2025-04-09",
      "offerPrice": 300840,
      "status": "recorder",
      "isRebuilt": false,
      "address": "21117 SOUTHAMPTON PKWY, COURTLAND VA",
      "city": "COURTLAND",
      "state": "VA",
      "beds": null,
      "baths": null,
      "sqft": null,
      "lotSize": null,
      "lat": 36.708513,
      "lng": -77.148412
    },
    {
      "propertyId": null,
      "attomId": 53195490,
      "offerDate": "2025-04-04",
      "offerPrice": 66000,
      "status": "recorder",
      "isRebuilt": false,
      "address": "2318 FAIRVIEW AVE, ONEIDA NY",
      "city": "ONEIDA",
      "state": "NY",
      "beds": null,
      "baths": null,
      "sqft": null,
      "lotSize": null,
      "lat": 43.064138,
      "lng": -75.678704
    },
    {
      "propertyId": null,
      "attomId": 146124645,
      "offerDate": "2025-04-03",
      "offerPrice": 89253,
      "status": "recorder",
      "isRebuilt": false,
      "address": "6 DEWEY DR, CENTRAL SQUARE NY",
      "city": "CENTRAL SQUARE",
      "state": "NY",
      "beds": null,
      "baths": null,
      "sqft": null,
      "lotSize": null,
      "lat": 43.248221,
      "lng": -76.130791
    },
    {
      "propertyId": null,
      "attomId": 199386807,
      "offerDate": "2025-04-03",
      "offerPrice": 845793,
      "status": "recorder",
      "isRebuilt": false,
      "address": "2175 KAUHIKOA RD, HAIKU HI",
      "city": "HAIKU",
      "state": "HI",
      "beds": null,
      "baths": null,
      "sqft": null,
      "lotSize": null,
      "lat": 20.882313,
      "lng": -156.304708
    },
    {
      "propertyId": null,
      "attomId": 164438641,
      "offerDate": "2025-04-02",
      "offerPrice": 225200,
      "status": "recorder",
      "isRebuilt": false,
      "address": "1105 CONNECTICUT RD, TARPON SPRINGS FL",
      "city": "TARPON SPRINGS",
      "state": "FL",
      "beds": null,
      "baths": null,
      "sqft": null,
      "lotSize": null,
      "lat": 28.136171,
      "lng": -82.780143
    },
    {
      "propertyId": null,
      "attomId": 149852825,
      "offerDate": "2025-03-28",
      "offerPrice": 65100,
      "status": "recorder",
      "isRebuilt": false,
      "address": "18720 NE 238TH CT, FORT MC COY FL",
      "city": "FORT MC COY",
      "state": "FL",
      "beds": null,
      "baths": null,
      "sqft": null,
      "lotSize": null,
      "lat": 29.425562,
      "lng": -81.760949
    },
    {
      "propertyId": null,
      "attomId": 146153506,
      "offerDate": "2025-03-27",
      "offerPrice": 210000,
      "status": "recorder",
      "isRebuilt": false,
      "address": "31061 VACATION RD, MILLSBORO DE",
      "city": "MILLSBORO",
      "state": "DE",
      "beds": null,
      "baths": null,
      "sqft": null,
      "lotSize": null,
      "lat": 38.63468,
      "lng": -75.208507
    },
    {
      "propertyId": null,
      "attomId": 18671553,
      "offerDate": "2025-03-26",
      "offerPrice": 275000,
      "status": "recorder",
      "isRebuilt": false,
      "address": "17216 CEDAR WAY, CLEARLAKE OAKS CA",
      "city": "CLEARLAKE OAKS",
      "state": "CA",
      "beds": null,
      "baths": null,
      "sqft": null,
      "lotSize": null,
      "lat": 39.058817,
      "lng": -122.585086
    },
    {
      "propertyId": null,
      "attomId": 210719510,
      "offerDate": "2025-03-25",
      "offerPrice": 41000,
      "status": "recorder",
      "isRebuilt": false,
      "address": "7805 HIGHWAY 80, PRINCETON LA",
      "city": "PRINCETON",
      "state": "LA",
      "beds": null,
      "baths": null,
      "sqft": null,
      "lotSize": null,
      "lat": 32.570327,
      "lng": -93.472756
    },
    {
      "propertyId": null,
      "attomId": 52790399,
      "offerDate": "2025-03-24",
      "offerPrice": 451400,
      "status": "recorder",
      "isRebuilt": false,
      "address": "16620 SW 70TH ST, MIAMI FL",
      "city": "MIAMI",
      "state": "FL",
      "beds": null,
      "baths": null,
      "sqft": null,
      "lotSize": null,
      "lat": 25.700036,
      "lng": -80.461777
    },
    {
      "propertyId": null,
      "attomId": 178684661,
      "offerDate": "2025-03-21",
      "offerPrice": 257955,
      "status": "recorder",
      "isRebuilt": false,
      "address": "65 MILL POND DR, LANCASTER PA",
      "city": "LANCASTER",
      "state": "PA",
      "beds": null,
      "baths": null,
      "sqft": null,
      "lotSize": null,
      "lat": 40.015751,
      "lng": -76.331214
    },
    {
      "propertyId": null,
      "attomId": 48780012,
      "offerDate": "2025-03-20",
      "offerPrice": 13202,
      "status": "recorder",
      "isRebuilt": false,
      "address": "192 TITUSVILLE RD, POUGHKEEPSIE NY",
      "city": "POUGHKEEPSIE",
      "state": "NY",
      "beds": null,
      "baths": null,
      "sqft": null,
      "lotSize": null,
      "lat": 41.662776,
      "lng": -73.867754
    },
    {
      "propertyId": null,
      "attomId": 202569853,
      "offerDate": "2025-03-20",
      "offerPrice": 136000,
      "status": "recorder",
      "isRebuilt": false,
      "address": "1469 51ST AVE E, TUSCALOOSA AL",
      "city": "TUSCALOOSA",
      "state": "AL",
      "beds": null,
      "baths": null,
      "sqft": null,
      "lotSize": null,
      "lat": 33.197355,
      "lng": -87.468909
    },
    {
      "propertyId": null,
      "attomId": 143290694,
      "offerDate": "2025-03-18",
      "offerPrice": 100000,
      "status": "recorder",
      "isRebuilt": false,
      "address": "2848 LANDING DR, MARIETTA GA",
      "city": "MARIETTA",
      "state": "GA",
      "beds": null,
      "baths": null,
      "sqft": null,
      "lotSize": null,
      "lat": 34.052637,
      "lng": -84.467306
    },
    {
      "propertyId": null,
      "attomId": 51861948,
      "offerDate": "2025-03-17",
      "offerPrice": 372463,
      "status": "recorder",
      "isRebuilt": false,
      "address": "10628 OAK ST, GRASS VALLEY CA",
      "city": "GRASS VALLEY",
      "state": "CA",
      "beds": null,
      "baths": null,
      "sqft": null,
      "lotSize": null,
      "lat": 39.219448,
      "lng": -121.083692
    },
    {
      "propertyId": null,
      "attomId": 194426101,
      "offerDate": "2025-03-11",
      "offerPrice": 115000,
      "status": "recorder",
      "isRebuilt": false,
      "address": "5503 LYNVIEW AVE, BALTIMORE MD",
      "city": "BALTIMORE",
      "state": "MD",
      "beds": null,
      "baths": null,
      "sqft": null,
      "lotSize": null,
      "lat": 39.346523,
      "lng": -76.692412
    },
    {
      "propertyId": null,
      "attomId": 8613732,
      "offerDate": "2025-03-04",
      "offerPrice": 813158,
      "status": "recorder",
      "isRebuilt": false,
      "address": "8 MARC DR, RIDGE NY",
      "city": "RIDGE",
      "state": "NY",
      "beds": null,
      "baths": null,
      "sqft": null,
      "lotSize": null,
      "lat": 40.902629,
      "lng": -72.888738
    },
    {
      "propertyId": null,
      "attomId": 159894009,
      "offerDate": "2025-03-04",
      "offerPrice": 100100,
      "status": "recorder",
      "isRebuilt": false,
      "address": "1786 POWELL DR, NORTH FORT MYERS FL",
      "city": "NORTH FORT MYERS",
      "state": "FL",
      "beds": null,
      "baths": null,
      "sqft": null,
      "lotSize": null,
      "lat": 26.686082,
      "lng": -81.880125
    },
    {
      "propertyId": null,
      "attomId": 41294093,
      "offerDate": "2025-02-27",
      "offerPrice": 116933,
      "status": "recorder",
      "isRebuilt": false,
      "address": "3490 KIRBY TERRACE DR, MEMPHIS TN",
      "city": "MEMPHIS",
      "state": "TN",
      "beds": null,
      "baths": null,
      "sqft": null,
      "lotSize": null,
      "lat": 35.053457,
      "lng": -89.832905
    },
    {
      "propertyId": null,
      "attomId": 52291077,
      "offerDate": "2025-02-26",
      "offerPrice": 214200,
      "status": "recorder",
      "isRebuilt": false,
      "address": "243 DEVON RD, BATTLE CREEK MI",
      "city": "BATTLE CREEK",
      "state": "MI",
      "beds": null,
      "baths": null,
      "sqft": null,
      "lotSize": null,
      "lat": 42.274894,
      "lng": -85.19253
    },
    {
      "propertyId": null,
      "attomId": 24502158,
      "offerDate": "2025-02-26",
      "offerPrice": 306786,
      "status": "recorder",
      "isRebuilt": false,
      "address": "69 OFFALY ST, AMITYVILLE NY",
      "city": "AMITYVILLE",
      "state": "NY",
      "beds": null,
      "baths": null,
      "sqft": null,
      "lotSize": null,
      "lat": 40.702853,
      "lng": -73.420524
    },
    {
      "propertyId": null,
      "attomId": 13859518,
      "offerDate": "2025-02-25",
      "offerPrice": 200,
      "status": "recorder",
      "isRebuilt": false,
      "address": "3109 CHESSINGTON DR, LAND O LAKES FL",
      "city": "LAND O LAKES",
      "state": "FL",
      "beds": null,
      "baths": null,
      "sqft": null,
      "lotSize": null,
      "lat": 28.202031,
      "lng": -82.501495
    },
    {
      "propertyId": null,
      "attomId": 214576897,
      "offerDate": "2025-02-21",
      "offerPrice": 54000,
      "status": "recorder",
      "isRebuilt": false,
      "address": "300 MEYER DR, VAN BUREN AR",
      "city": "VAN BUREN",
      "state": "AR",
      "beds": null,
      "baths": null,
      "sqft": null,
      "lotSize": null,
      "lat": 35.433818,
      "lng": -94.34505
    },
    {
      "propertyId": null,
      "attomId": 20808694,
      "offerDate": "2025-02-14",
      "offerPrice": 280000,
      "status": "recorder",
      "isRebuilt": false,
      "address": "25 ROCKWOOD RD, HAMDEN CT",
      "city": "HAMDEN",
      "state": "CT",
      "beds": null,
      "baths": null,
      "sqft": null,
      "lotSize": null,
      "lat": 41.344743,
      "lng": -72.944879
    },
    {
      "propertyId": null,
      "attomId": 195747324,
      "offerDate": "2025-02-14",
      "offerPrice": 290000,
      "status": "recorder",
      "isRebuilt": false,
      "address": "1305 APPLEBY AVE, BALTIMORE MD",
      "city": "BALTIMORE",
      "state": "MD",
      "beds": null,
      "baths": null,
      "sqft": null,
      "lotSize": null,
      "lat": 39.371291,
      "lng": -76.650375
    },
    {
      "propertyId": null,
      "attomId": 11619415,
      "offerDate": "2025-02-12",
      "offerPrice": 251250,
      "status": "recorder",
      "isRebuilt": false,
      "address": "3824 BUENA VISTA RD S, JEFFERSON OR",
      "city": "JEFFERSON",
      "state": "OR",
      "beds": null,
      "baths": null,
      "sqft": null,
      "lotSize": null,
      "lat": 44.783313,
      "lng": -123.110282
    },
    {
      "propertyId": null,
      "attomId": 29281518,
      "offerDate": "2025-02-12",
      "offerPrice": 25000,
      "status": "recorder",
      "isRebuilt": false,
      "address": "2817 SAGE BRUSH DR, CORPUS CHRISTI TX",
      "city": "CORPUS CHRISTI",
      "state": "TX",
      "beds": null,
      "baths": null,
      "sqft": null,
      "lotSize": null,
      "lat": 27.835006,
      "lng": -97.580466
    },
    {
      "propertyId": null,
      "attomId": 170987674,
      "offerDate": "2025-02-12",
      "offerPrice": 1400000,
      "status": "recorder",
      "isRebuilt": false,
      "address": "4450 AUSTELL RD, AUSTELL GA",
      "city": "AUSTELL",
      "state": "GA",
      "beds": null,
      "baths": null,
      "sqft": null,
      "lotSize": null,
      "lat": 33.845529,
      "lng": -84.610816
    },
    {
      "propertyId": null,
      "attomId": 170987670,
      "offerDate": "2025-02-12",
      "offerPrice": 1400000,
      "status": "recorder",
      "isRebuilt": false,
      "address": "4444 AUSTELL RD, AUSTELL GA",
      "city": "AUSTELL",
      "state": "GA",
      "beds": null,
      "baths": null,
      "sqft": null,
      "lotSize": null,
      "lat": 33.845522,
      "lng": -84.609997
    },
    {
      "propertyId": null,
      "attomId": 146972980,
      "offerDate": "2025-02-10",
      "offerPrice": 179900,
      "status": "recorder",
      "isRebuilt": false,
      "address": "125 WELLINGTON ST, HOUSTON TX",
      "city": "HOUSTON",
      "state": "TX",
      "beds": null,
      "baths": null,
      "sqft": null,
      "lotSize": null,
      "lat": 29.858467,
      "lng": -95.378155
    },
    {
      "propertyId": null,
      "attomId": 162597185,
      "offerDate": "2025-01-28",
      "offerPrice": 116100,
      "status": "recorder",
      "isRebuilt": false,
      "address": "4713 NW 5TH ST, PLANTATION FL",
      "city": "PLANTATION",
      "state": "FL",
      "beds": null,
      "baths": null,
      "sqft": null,
      "lotSize": null,
      "lat": 26.128358,
      "lng": -80.212569
    },
    {
      "propertyId": null,
      "attomId": 218721562,
      "offerDate": "2025-01-23",
      "offerPrice": 260220,
      "status": "recorder",
      "isRebuilt": false,
      "address": "921 SENATE AVE, JEFFERSONVILLE IN",
      "city": "JEFFERSONVILLE",
      "state": "IN",
      "beds": null,
      "baths": null,
      "sqft": null,
      "lotSize": null,
      "lat": 38.322436,
      "lng": -85.697037
    },
    {
      "propertyId": null,
      "attomId": 215502520,
      "offerDate": "2025-01-22",
      "offerPrice": 40405,
      "status": "recorder",
      "isRebuilt": false,
      "address": "209 HOLLIDAY ST, MICHIGAN CITY IN",
      "city": "MICHIGAN CITY",
      "state": "IN",
      "beds": null,
      "baths": null,
      "sqft": null,
      "lotSize": null,
      "lat": 41.714804,
      "lng": -86.888766
    },
    {
      "propertyId": null,
      "attomId": 141504805,
      "offerDate": "2025-01-17",
      "offerPrice": 25190,
      "status": "recorder",
      "isRebuilt": false,
      "address": "194 COLLINS DR, COLUMBUS GA",
      "city": "COLUMBUS",
      "state": "GA",
      "beds": null,
      "baths": null,
      "sqft": null,
      "lotSize": null,
      "lat": 32.406876,
      "lng": -84.931294
    },
    {
      "propertyId": null,
      "attomId": 161049287,
      "offerDate": "2025-01-17",
      "offerPrice": 230400,
      "status": "recorder",
      "isRebuilt": false,
      "address": "21551 MADERA RD, FORT MYERS BEACH FL",
      "city": "FORT MYERS BEACH",
      "state": "FL",
      "beds": null,
      "baths": null,
      "sqft": null,
      "lotSize": null,
      "lat": 26.436792,
      "lng": -81.916744
    },
    {
      "propertyId": null,
      "attomId": 42245943,
      "offerDate": "2025-01-15",
      "offerPrice": 176800,
      "status": "recorder",
      "isRebuilt": false,
      "address": "15633 EASTHAVEN CT # 1005, BOWIE MD",
      "city": "BOWIE",
      "state": "MD",
      "beds": null,
      "baths": null,
      "sqft": null,
      "lotSize": null,
      "lat": 38.948703,
      "lng": -76.732839
    },
    {
      "propertyId": null,
      "attomId": 303386069,
      "offerDate": "2025-01-10",
      "offerPrice": 75454,
      "status": "recorder",
      "isRebuilt": false,
      "address": "410 COX AVE, HERTFORD NC",
      "city": "HERTFORD",
      "state": "NC",
      "beds": null,
      "baths": null,
      "sqft": null,
      "lotSize": null,
      "lat": 36.187708,
      "lng": -76.474833
    },
    {
      "propertyId": null,
      "attomId": 146294865,
      "offerDate": "2025-01-08",
      "offerPrice": 280000,
      "status": "recorder",
      "isRebuilt": false,
      "address": "4233 BORDEAUX DR, KENNER LA",
      "city": "KENNER",
      "state": "LA",
      "beds": null,
      "baths": null,
      "sqft": null,
      "lotSize": null,
      "lat": 30.03841,
      "lng": -90.25954
    },
    {
      "propertyId": null,
      "attomId": 25988672,
      "offerDate": "2025-01-07",
      "offerPrice": 640629,
      "status": "recorder",
      "isRebuilt": false,
      "address": "130 ST ANDREWS CT, MOUNT LAUREL NJ",
      "city": "MOUNT LAUREL",
      "state": "NJ",
      "beds": null,
      "baths": null,
      "sqft": null,
      "lotSize": null,
      "lat": 39.927663,
      "lng": -74.93973
    },
    {
      "propertyId": null,
      "attomId": 21037035,
      "offerDate": "2025-01-06",
      "offerPrice": 25100,
      "status": "recorder",
      "isRebuilt": false,
      "address": "133 NE 99TH ST, MIAMI SHORES FL",
      "city": "MIAMI SHORES",
      "state": "FL",
      "beds": null,
      "baths": null,
      "sqft": null,
      "lotSize": null,
      "lat": 25.86637,
      "lng": -80.194728
    },
    {
      "propertyId": null,
      "attomId": 172635932,
      "offerDate": "2025-01-02",
      "offerPrice": 16556,
      "status": "recorder",
      "isRebuilt": false,
      "address": "16533 GLENMORE, REDFORD MI",
      "city": "REDFORD",
      "state": "MI",
      "beds": null,
      "baths": null,
      "sqft": null,
      "lotSize": null,
      "lat": 42.409179,
      "lng": -83.29535
    },
    {
      "propertyId": null,
      "attomId": 26932551,
      "offerDate": "2024-12-31",
      "offerPrice": 425000,
      "status": "recorder",
      "isRebuilt": false,
      "address": "1260 CREEK SIDE CIR, ROCKLEDGE FL",
      "city": "ROCKLEDGE",
      "state": "FL",
      "beds": null,
      "baths": null,
      "sqft": null,
      "lotSize": null,
      "lat": 28.295964,
      "lng": -80.727023
    },
    {
      "propertyId": null,
      "attomId": 157462709,
      "offerDate": "2024-12-26",
      "offerPrice": 344450,
      "status": "recorder",
      "isRebuilt": false,
      "address": "47517 ROAD 200, O NEALS CA",
      "city": "O NEALS",
      "state": "CA",
      "beds": null,
      "baths": null,
      "sqft": null,
      "lotSize": null,
      "lat": 37.134793,
      "lng": -119.687338
    },
    {
      "propertyId": null,
      "attomId": 333726750,
      "offerDate": "2024-12-26",
      "offerPrice": 251100,
      "status": "recorder",
      "isRebuilt": false,
      "address": "7823 BURNSIDE LOOP, PENSACOLA FL",
      "city": "PENSACOLA",
      "state": "FL",
      "beds": null,
      "baths": null,
      "sqft": null,
      "lotSize": null,
      "lat": 30.54458,
      "lng": -87.413103
    },
    {
      "propertyId": null,
      "attomId": 204757380,
      "offerDate": "2024-12-19",
      "offerPrice": 113166,
      "status": "recorder",
      "isRebuilt": false,
      "address": "11651 CAMP ROCK RD, LUCERNE VALLEY CA",
      "city": "LUCERNE VALLEY",
      "state": "CA",
      "beds": null,
      "baths": null,
      "sqft": null,
      "lotSize": null,
      "lat": null,
      "lng": null
    },
    {
      "propertyId": null,
      "attomId": 52341005,
      "offerDate": "2024-12-19",
      "offerPrice": 113166,
      "status": "recorder",
      "isRebuilt": false,
      "address": "11651 CAMP ROCK RD, LUCERNE VALLEY CA",
      "city": "LUCERNE VALLEY",
      "state": "CA",
      "beds": null,
      "baths": null,
      "sqft": null,
      "lotSize": null,
      "lat": 34.465107,
      "lng": -116.856731
    },
    {
      "propertyId": null,
      "attomId": 16773493,
      "offerDate": "2024-12-19",
      "offerPrice": 300,
      "status": "recorder",
      "isRebuilt": false,
      "address": "33836 VENICE LN, SORRENTO FL",
      "city": "SORRENTO",
      "state": "FL",
      "beds": null,
      "baths": null,
      "sqft": null,
      "lotSize": null,
      "lat": 28.842251,
      "lng": -81.554192
    },
    {
      "propertyId": null,
      "attomId": 1000821091,
      "offerDate": "2024-12-19",
      "offerPrice": 790000,
      "status": "recorder",
      "isRebuilt": false,
      "address": "228 REGENCY RIDGE DR, HOLLY SPRINGS NC",
      "city": "HOLLY SPRINGS",
      "state": "NC",
      "beds": null,
      "baths": null,
      "sqft": null,
      "lotSize": null,
      "lat": 35.653978,
      "lng": -78.886939
    },
    {
      "propertyId": null,
      "attomId": 16132645,
      "offerDate": "2024-12-19",
      "offerPrice": 291600,
      "status": "recorder",
      "isRebuilt": false,
      "address": "191 EAGLE CREEK RD, MOYOCK NC",
      "city": "MOYOCK",
      "state": "NC",
      "beds": null,
      "baths": null,
      "sqft": null,
      "lotSize": null,
      "lat": 36.496691,
      "lng": -76.159477
    },
    {
      "propertyId": null,
      "attomId": 145446738,
      "offerDate": "2024-12-17",
      "offerPrice": 173984,
      "status": "recorder",
      "isRebuilt": false,
      "address": "1513 MAYFAIR DR, JANESVILLE WI",
      "city": "JANESVILLE",
      "state": "WI",
      "beds": null,
      "baths": null,
      "sqft": null,
      "lotSize": null,
      "lat": 42.703458,
      "lng": -89.013472
    },
    {
      "propertyId": null,
      "attomId": 19826930,
      "offerDate": "2024-12-10",
      "offerPrice": 818600,
      "status": "recorder",
      "isRebuilt": false,
      "address": "84 S RIVERWALK DR, PALM COAST FL",
      "city": "PALM COAST",
      "state": "FL",
      "beds": null,
      "baths": null,
      "sqft": null,
      "lotSize": null,
      "lat": 29.516539,
      "lng": -81.152526
    },
    {
      "propertyId": null,
      "attomId": 159104106,
      "offerDate": "2024-12-10",
      "offerPrice": 50640,
      "status": "recorder",
      "isRebuilt": false,
      "address": "54802 W BARNES RD, MARICOPA AZ",
      "city": "MARICOPA",
      "state": "AZ",
      "beds": null,
      "baths": null,
      "sqft": null,
      "lotSize": null,
      "lat": 32.928151,
      "lng": -112.156668
    },
    {
      "propertyId": null,
      "attomId": 21621193,
      "offerDate": "2024-12-09",
      "offerPrice": 49800,
      "status": "recorder",
      "isRebuilt": false,
      "address": "19751 ARDMORE ST, DETROIT MI",
      "city": "DETROIT",
      "state": "MI",
      "beds": null,
      "baths": null,
      "sqft": null,
      "lotSize": null,
      "lat": 42.437039,
      "lng": -83.18585
    },
    {
      "propertyId": null,
      "attomId": 217796532,
      "offerDate": "2024-12-09",
      "offerPrice": 65844,
      "status": "recorder",
      "isRebuilt": false,
      "address": "510 N MAIN ST, WICHITA KS",
      "city": "WICHITA",
      "state": "KS",
      "beds": null,
      "baths": null,
      "sqft": null,
      "lotSize": null,
      "lat": 37.694144,
      "lng": -97.337543
    },
    {
      "propertyId": null,
      "attomId": 149261830,
      "offerDate": "2024-12-06",
      "offerPrice": 446845,
      "status": "recorder",
      "isRebuilt": false,
      "address": "962 SIERRA VISTA LN, VALLEY COTTAGE NY",
      "city": "VALLEY COTTAGE",
      "state": "NY",
      "beds": null,
      "baths": null,
      "sqft": null,
      "lotSize": null,
      "lat": 41.101388,
      "lng": -73.931598
    },
    {
      "propertyId": null,
      "attomId": 11913139,
      "offerDate": "2024-12-06",
      "offerPrice": 380000,
      "status": "recorder",
      "isRebuilt": false,
      "address": "6803 PLUMLEAF CT, SPRING HILL FL",
      "city": "SPRING HILL",
      "state": "FL",
      "beds": null,
      "baths": null,
      "sqft": null,
      "lotSize": null,
      "lat": 28.475903,
      "lng": -82.604404
    },
    {
      "propertyId": null,
      "attomId": 23369463,
      "offerDate": "2024-12-02",
      "offerPrice": 25000,
      "status": "recorder",
      "isRebuilt": false,
      "address": "338 EAST ST, RENSSELAER NY",
      "city": "RENSSELAER",
      "state": "NY",
      "beds": null,
      "baths": null,
      "sqft": null,
      "lotSize": null,
      "lat": 42.638089,
      "lng": -73.740591
    },
    {
      "propertyId": null,
      "attomId": 179797325,
      "offerDate": "2024-11-27",
      "offerPrice": 52000,
      "status": "recorder",
      "isRebuilt": false,
      "address": "3830 ANDERSON AVE, MCKEESPORT PA",
      "city": "MCKEESPORT",
      "state": "PA",
      "beds": null,
      "baths": null,
      "sqft": null,
      "lotSize": null,
      "lat": 40.351441,
      "lng": -79.83302
    },
    {
      "propertyId": null,
      "attomId": 46970610,
      "offerDate": "2024-11-22",
      "offerPrice": 204754,
      "status": "recorder",
      "isRebuilt": false,
      "address": "231 LEVICK ST, PHILADELPHIA PA",
      "city": "PHILADELPHIA",
      "state": "PA",
      "beds": null,
      "baths": null,
      "sqft": null,
      "lotSize": null,
      "lat": 40.051873,
      "lng": -75.099173
    },
    {
      "propertyId": null,
      "attomId": 202161412,
      "offerDate": "2024-11-22",
      "offerPrice": 59040,
      "status": "recorder",
      "isRebuilt": false,
      "address": "2320 CENTRAL AVE, ANDERSON IN",
      "city": "ANDERSON",
      "state": "IN",
      "beds": null,
      "baths": null,
      "sqft": null,
      "lotSize": null,
      "lat": 40.09291,
      "lng": -85.676465
    },
    {
      "propertyId": null,
      "attomId": 233808957,
      "offerDate": "2024-11-21",
      "offerPrice": 1074500,
      "status": "recorder",
      "isRebuilt": false,
      "address": "114 SEA HOLLY CT, NAGS HEAD NC",
      "city": "NAGS HEAD",
      "state": "NC",
      "beds": null,
      "baths": null,
      "sqft": null,
      "lotSize": null,
      "lat": 35.92651,
      "lng": -75.605832
    },
    {
      "propertyId": null,
      "attomId": 39650213,
      "offerDate": "2024-11-20",
      "offerPrice": 409654,
      "status": "recorder",
      "isRebuilt": false,
      "address": "1016 W FOUNDS ST, TOWNSEND DE",
      "city": "TOWNSEND",
      "state": "DE",
      "beds": null,
      "baths": null,
      "sqft": null,
      "lotSize": null,
      "lat": 39.401011,
      "lng": -75.701281
    },
    {
      "propertyId": null,
      "attomId": 157713453,
      "offerDate": "2024-11-19",
      "offerPrice": 1291993,
      "status": "recorder",
      "isRebuilt": false,
      "address": "11602 NORMA LN, GARDEN GROVE CA",
      "city": "GARDEN GROVE",
      "state": "CA",
      "beds": null,
      "baths": null,
      "sqft": null,
      "lotSize": null,
      "lat": 33.794448,
      "lng": -117.929361
    },
    {
      "propertyId": null,
      "attomId": 168731038,
      "offerDate": "2024-11-19",
      "offerPrice": 107791,
      "status": "recorder",
      "isRebuilt": false,
      "address": "3 OLD PLATTSBURGH RD, MOOERS NY",
      "city": "MOOERS",
      "state": "NY",
      "beds": null,
      "baths": null,
      "sqft": null,
      "lotSize": null,
      "lat": 44.956999,
      "lng": -73.57989
    },
    {
      "propertyId": null,
      "attomId": 331741934,
      "offerDate": "2024-11-18",
      "offerPrice": 396346,
      "status": "recorder",
      "isRebuilt": false,
      "address": "62 69TH ST APT 206, GUTTENBERG NJ",
      "city": "GUTTENBERG",
      "state": "NJ",
      "beds": null,
      "baths": null,
      "sqft": null,
      "lotSize": null,
      "lat": 40.79157257080078,
      "lng": -74.002396
    },
    {
      "propertyId": null,
      "attomId": 331741933,
      "offerDate": "2024-11-18",
      "offerPrice": 396346,
      "status": "recorder",
      "isRebuilt": false,
      "address": "62 69TH ST, GUTTENBERG NJ",
      "city": "GUTTENBERG",
      "state": "NJ",
      "beds": null,
      "baths": null,
      "sqft": null,
      "lotSize": null,
      "lat": 40.791752,
      "lng": -74.002582
    },
    {
      "propertyId": null,
      "attomId": 165746032,
      "offerDate": "2024-11-13",
      "offerPrice": 121290,
      "status": "recorder",
      "isRebuilt": false,
      "address": "11366 LAKE LOY DR, EL PASO TX",
      "city": "EL PASO",
      "state": "TX",
      "beds": null,
      "baths": null,
      "sqft": null,
      "lotSize": null,
      "lat": 31.770199,
      "lng": -106.298165
    },
    {
      "propertyId": null,
      "attomId": 158793910,
      "offerDate": "2024-10-31",
      "offerPrice": 766312,
      "status": "recorder",
      "isRebuilt": false,
      "address": "16409 E KINGSTREE BLVD, FOUNTAIN HILLS AZ",
      "city": "FOUNTAIN HILLS",
      "state": "AZ",
      "beds": null,
      "baths": null,
      "sqft": null,
      "lotSize": null,
      "lat": 33.5863,
      "lng": -111.72653
    },
    {
      "propertyId": null,
      "attomId": 159396889,
      "offerDate": "2024-10-30",
      "offerPrice": 191400,
      "status": "recorder",
      "isRebuilt": false,
      "address": "12501 SW 14TH ST APT 313R, PEMBROKE PINES FL",
      "city": "PEMBROKE PINES",
      "state": "FL",
      "beds": null,
      "baths": null,
      "sqft": null,
      "lotSize": null,
      "lat": 25.997271,
      "lng": -80.314357
    },
    {
      "propertyId": null,
      "attomId": 179535084,
      "offerDate": "2024-10-30",
      "offerPrice": 4243,
      "status": "recorder",
      "isRebuilt": false,
      "address": "250 N 2ND ST, LEHIGHTON PA",
      "city": "LEHIGHTON",
      "state": "PA",
      "beds": null,
      "baths": null,
      "sqft": null,
      "lotSize": null,
      "lat": 40.836648,
      "lng": -75.711257
    },
    {
      "propertyId": null,
      "attomId": 195509985,
      "offerDate": "2024-10-28",
      "offerPrice": 150950,
      "status": "recorder",
      "isRebuilt": false,
      "address": "11 18TH AVE S, HOPKINS MN",
      "city": "HOPKINS",
      "state": "MN",
      "beds": null,
      "baths": null,
      "sqft": null,
      "lotSize": null,
      "lat": 44.923655,
      "lng": -93.422571
    },
    {
      "propertyId": null,
      "attomId": 296197363,
      "offerDate": "2024-10-21",
      "offerPrice": 125000,
      "status": "recorder",
      "isRebuilt": false,
      "address": "3 M UP MASON, SALYERSVILLE KY",
      "city": "SALYERSVILLE",
      "state": "KY",
      "beds": null,
      "baths": null,
      "sqft": null,
      "lotSize": null,
      "lat": 37.70153045654297,
      "lng": -83.027656
    },
    {
      "propertyId": null,
      "attomId": 195355231,
      "offerDate": "2024-10-15",
      "offerPrice": 70500,
      "status": "recorder",
      "isRebuilt": false,
      "address": "2301 EDENBORN AVE APT 102, METAIRIE LA",
      "city": "METAIRIE",
      "state": "LA",
      "beds": null,
      "baths": null,
      "sqft": null,
      "lotSize": null,
      "lat": 29.994284,
      "lng": -90.162329
    },
    {
      "propertyId": null,
      "attomId": 220848675,
      "offerDate": "2024-10-11",
      "offerPrice": 51411,
      "status": "recorder",
      "isRebuilt": false,
      "address": "96 FRUITLAND PARK RD, WIGGINS MS",
      "city": "WIGGINS",
      "state": "MS",
      "beds": null,
      "baths": null,
      "sqft": null,
      "lotSize": null,
      "lat": 30.913846,
      "lng": -89.166879
    },
    {
      "propertyId": null,
      "attomId": 23543031,
      "offerDate": "2024-10-09",
      "offerPrice": 160000,
      "status": "recorder",
      "isRebuilt": false,
      "address": "2359 PRENTISS AVE, NEW ORLEANS LA",
      "city": "NEW ORLEANS",
      "state": "LA",
      "beds": null,
      "baths": null,
      "sqft": null,
      "lotSize": null,
      "lat": 30.017396,
      "lng": -90.05682
    },
    {
      "propertyId": null,
      "attomId": 182333139,
      "offerDate": "2024-10-03",
      "offerPrice": 94100,
      "status": "recorder",
      "isRebuilt": false,
      "address": "2344 GRASMERE AVE, COLUMBUS OH",
      "city": "COLUMBUS",
      "state": "OH",
      "beds": null,
      "baths": null,
      "sqft": null,
      "lotSize": null,
      "lat": 40.013181,
      "lng": -82.983344
    },
    {
      "propertyId": null,
      "attomId": 163135076,
      "offerDate": "2024-10-01",
      "offerPrice": 65100,
      "status": "recorder",
      "isRebuilt": false,
      "address": "2930 MAPLE LN, MARIANNA FL",
      "city": "MARIANNA",
      "state": "FL",
      "beds": null,
      "baths": null,
      "sqft": null,
      "lotSize": null,
      "lat": 30.779328,
      "lng": -85.334657
    },
    {
      "propertyId": null,
      "attomId": 140872800,
      "offerDate": "2024-10-01",
      "offerPrice": 105600,
      "status": "recorder",
      "isRebuilt": false,
      "address": "3105 DOC LINDSEY RD, FORT MEADE FL",
      "city": "FORT MEADE",
      "state": "FL",
      "beds": null,
      "baths": null,
      "sqft": null,
      "lotSize": null,
      "lat": 27.795289,
      "lng": -81.680285
    },
    {
      "propertyId": null,
      "attomId": 41098620,
      "offerDate": "2024-09-26",
      "offerPrice": 114000,
      "status": "recorder",
      "isRebuilt": false,
      "address": "641 WOOD ST, STATESVILLE NC",
      "city": "STATESVILLE",
      "state": "NC",
      "beds": null,
      "baths": null,
      "sqft": null,
      "lotSize": null,
      "lat": 35.787386,
      "lng": -80.876897
    },
    {
      "propertyId": null,
      "attomId": 162291957,
      "offerDate": "2024-09-24",
      "offerPrice": 4000000,
      "status": "recorder",
      "isRebuilt": false,
      "address": "219 ECHO DR, JUPITER FL",
      "city": "JUPITER",
      "state": "FL",
      "beds": null,
      "baths": null,
      "sqft": null,
      "lotSize": null,
      "lat": 26.924841,
      "lng": -80.121889
    },
    {
      "propertyId": null,
      "attomId": 45172726,
      "offerDate": "2024-09-23",
      "offerPrice": 1545313,
      "status": "recorder",
      "isRebuilt": false,
      "address": "2455 SHANNON DR, SOUTH SAN FRANCISCO CA",
      "city": "SOUTH SAN FRANCISCO",
      "state": "CA",
      "beds": null,
      "baths": null,
      "sqft": null,
      "lotSize": null,
      "lat": 37.63839,
      "lng": -122.452677
    },
    {
      "propertyId": null,
      "attomId": 52344472,
      "offerDate": "2024-09-19",
      "offerPrice": 375000,
      "status": "recorder",
      "isRebuilt": false,
      "address": "1912 JULIUS ST, MADERA CA",
      "city": "MADERA",
      "state": "CA",
      "beds": null,
      "baths": null,
      "sqft": null,
      "lotSize": null,
      "lat": 36.957078,
      "lng": -120.082404
    },
    {
      "propertyId": null,
      "attomId": 179283283,
      "offerDate": "2024-09-19",
      "offerPrice": 1861,
      "status": "recorder",
      "isRebuilt": false,
      "address": "339 BEADE ST, PLYMOUTH PA",
      "city": "PLYMOUTH",
      "state": "PA",
      "beds": null,
      "baths": null,
      "sqft": null,
      "lotSize": null,
      "lat": 41.24194,
      "lng": -75.936466
    },
    {
      "propertyId": null,
      "attomId": 308753319,
      "offerDate": "2024-09-16",
      "offerPrice": 871000,
      "status": "recorder",
      "isRebuilt": false,
      "address": "14145 RIVER RD, SOUTH BOSTON VA",
      "city": "SOUTH BOSTON",
      "state": "VA",
      "beds": null,
      "baths": null,
      "sqft": null,
      "lotSize": null,
      "lat": null,
      "lng": null
    },
    {
      "propertyId": null,
      "attomId": 13822913,
      "offerDate": "2024-09-13",
      "offerPrice": 319456,
      "status": "recorder",
      "isRebuilt": false,
      "address": "925 E APPLETON ST APT 4, LONG BEACH CA",
      "city": "LONG BEACH",
      "state": "CA",
      "beds": null,
      "baths": null,
      "sqft": null,
      "lotSize": null,
      "lat": 33.769894,
      "lng": -118.181267
    },
    {
      "propertyId": null,
      "attomId": 194262581,
      "offerDate": "2024-09-12",
      "offerPrice": 198900,
      "status": "recorder",
      "isRebuilt": false,
      "address": "540 GRANBY RD # 28, SOUTH HADLEY MA",
      "city": "SOUTH HADLEY",
      "state": "MA",
      "beds": null,
      "baths": null,
      "sqft": null,
      "lotSize": null,
      "lat": 42.236838,
      "lng": -72.557355
    },
    {
      "propertyId": null,
      "attomId": 172077820,
      "offerDate": "2024-09-10",
      "offerPrice": 38717,
      "status": "recorder",
      "isRebuilt": false,
      "address": "8575 N ROLLIN HWY, ADDISON MI",
      "city": "ADDISON",
      "state": "MI",
      "beds": null,
      "baths": null,
      "sqft": null,
      "lotSize": null,
      "lat": 42.009179,
      "lng": -84.31425
    },
    {
      "propertyId": null,
      "attomId": 140885202,
      "offerDate": "2024-09-09",
      "offerPrice": 21361,
      "status": "recorder",
      "isRebuilt": false,
      "address": "6506 BELLTREE LN, FLINT MI",
      "city": "FLINT",
      "state": "MI",
      "beds": null,
      "baths": null,
      "sqft": null,
      "lotSize": null,
      "lat": 43.070305,
      "lng": -83.724361
    },
    {
      "propertyId": null,
      "attomId": 3012129,
      "offerDate": "2024-09-06",
      "offerPrice": 39000,
      "status": "recorder",
      "isRebuilt": false,
      "address": "722 PLAISANCE AVE, ROCKFORD IL",
      "city": "ROCKFORD",
      "state": "IL",
      "beds": null,
      "baths": null,
      "sqft": null,
      "lotSize": null,
      "lat": 42.26974,
      "lng": -89.132871
    },
    {
      "propertyId": null,
      "attomId": 140083783,
      "offerDate": "2024-09-05",
      "offerPrice": 232400,
      "status": "recorder",
      "isRebuilt": false,
      "address": "17021 N BAY RD APT 814, SUNNY ISLES BEACH FL",
      "city": "SUNNY ISLES BEACH",
      "state": "FL",
      "beds": null,
      "baths": null,
      "sqft": null,
      "lotSize": null,
      "lat": 25.932719,
      "lng": -80.125102
    },
    {
      "propertyId": null,
      "attomId": 22458814,
      "offerDate": "2024-08-30",
      "offerPrice": 115000,
      "status": "recorder",
      "isRebuilt": false,
      "address": "3272 WEBB ST, PHILADELPHIA PA",
      "city": "PHILADELPHIA",
      "state": "PA",
      "beds": null,
      "baths": null,
      "sqft": null,
      "lotSize": null,
      "lat": 39.985608,
      "lng": -75.100631
    },
    {
      "propertyId": null,
      "attomId": 17160994,
      "offerDate": "2024-08-29",
      "offerPrice": 115000,
      "status": "recorder",
      "isRebuilt": false,
      "address": "333 MOUNTAIN ST, ALBANY NY",
      "city": "ALBANY",
      "state": "NY",
      "beds": null,
      "baths": null,
      "sqft": null,
      "lotSize": null,
      "lat": 42.635974,
      "lng": -73.78157
    },
    {
      "propertyId": null,
      "attomId": 44375432,
      "offerDate": "2024-08-27",
      "offerPrice": 315000,
      "status": "recorder",
      "isRebuilt": false,
      "address": "949 KINGWOOD ST, FLORENCE OR",
      "city": "FLORENCE",
      "state": "OR",
      "beds": null,
      "baths": null,
      "sqft": null,
      "lotSize": null,
      "lat": 43.975085,
      "lng": -124.109098
    },
    {
      "propertyId": null,
      "attomId": 49318480,
      "offerDate": "2024-08-26",
      "offerPrice": 112100,
      "status": "recorder",
      "isRebuilt": false,
      "address": "1442 NE 20TH AVE, GAINESVILLE FL",
      "city": "GAINESVILLE",
      "state": "FL",
      "beds": null,
      "baths": null,
      "sqft": null,
      "lotSize": null,
      "lat": 29.670901,
      "lng": -82.306153
    },
    {
      "propertyId": null,
      "attomId": 170043077,
      "offerDate": "2024-08-26",
      "offerPrice": 248763,
      "status": "recorder",
      "isRebuilt": false,
      "address": "15 DEANS WAY, NEVERSINK NY",
      "city": "NEVERSINK",
      "state": "NY",
      "beds": null,
      "baths": null,
      "sqft": null,
      "lotSize": null,
      "lat": 41.8544,
      "lng": -74.478593
    },
    {
      "propertyId": null,
      "attomId": 23517365,
      "offerDate": "2024-08-26",
      "offerPrice": 175001,
      "status": "recorder",
      "isRebuilt": false,
      "address": "112 OSPREY POINT DR, OSPREY FL",
      "city": "OSPREY",
      "state": "FL",
      "beds": null,
      "baths": null,
      "sqft": null,
      "lotSize": null,
      "lat": 27.207898,
      "lng": -82.498823
    },
    {
      "propertyId": null,
      "attomId": 147578963,
      "offerDate": "2024-08-20",
      "offerPrice": 121083,
      "status": "recorder",
      "isRebuilt": false,
      "address": "610 NORTH RD, BINGHAMTON NY",
      "city": "BINGHAMTON",
      "state": "NY",
      "beds": null,
      "baths": null,
      "sqft": null,
      "lotSize": null,
      "lat": 42.134344,
      "lng": -75.747837
    },
    {
      "propertyId": null,
      "attomId": 183582268,
      "offerDate": "2024-08-16",
      "offerPrice": 64200,
      "status": "recorder",
      "isRebuilt": false,
      "address": "1844 COTTON CT, MONTGOMERY AL",
      "city": "MONTGOMERY",
      "state": "AL",
      "beds": null,
      "baths": null,
      "sqft": null,
      "lotSize": null,
      "lat": 32.405075,
      "lng": -86.283098
    },
    {
      "propertyId": null,
      "attomId": 148373394,
      "offerDate": "2024-08-15",
      "offerPrice": 331800,
      "status": "recorder",
      "isRebuilt": false,
      "address": "3040 SHEPPARDS CROOK CT, HOLIDAY FL",
      "city": "HOLIDAY",
      "state": "FL",
      "beds": null,
      "baths": null,
      "sqft": null,
      "lotSize": null,
      "lat": 28.203574,
      "lng": -82.767201
    },
    {
      "propertyId": null,
      "attomId": 52434100,
      "offerDate": "2024-08-12",
      "offerPrice": 51354,
      "status": "recorder",
      "isRebuilt": false,
      "address": "1139 W KALAMAZOO ST, LANSING MI",
      "city": "LANSING",
      "state": "MI",
      "beds": null,
      "baths": null,
      "sqft": null,
      "lotSize": null,
      "lat": 42.729671,
      "lng": -84.569054
    },
    {
      "propertyId": null,
      "attomId": 165014547,
      "offerDate": "2024-08-12",
      "offerPrice": 175000,
      "status": "recorder",
      "isRebuilt": false,
      "address": "13707 EARLYWOOD ST, SAN ANTONIO TX",
      "city": "SAN ANTONIO",
      "state": "TX",
      "beds": null,
      "baths": null,
      "sqft": null,
      "lotSize": null,
      "lat": 29.565096,
      "lng": -98.378269
    },
    {
      "propertyId": null,
      "attomId": 179879177,
      "offerDate": "2024-08-06",
      "offerPrice": 1737,
      "status": "recorder",
      "isRebuilt": false,
      "address": "67 STATE ST, MOUNT PLEASANT PA",
      "city": "MOUNT PLEASANT",
      "state": "PA",
      "beds": null,
      "baths": null,
      "sqft": null,
      "lotSize": null,
      "lat": 40.165124,
      "lng": -79.53324
    },
    {
      "propertyId": null,
      "attomId": 150106022,
      "offerDate": "2024-08-02",
      "offerPrice": 865864,
      "status": "recorder",
      "isRebuilt": false,
      "address": "1215 N EDISON ST, STOCKTON CA",
      "city": "STOCKTON",
      "state": "CA",
      "beds": null,
      "baths": null,
      "sqft": null,
      "lotSize": null,
      "lat": 37.963009,
      "lng": -121.303907
    },
    {
      "propertyId": null,
      "attomId": 242721988,
      "offerDate": "2024-08-02",
      "offerPrice": 70000,
      "status": "recorder",
      "isRebuilt": false,
      "address": "8348 MANCHESTER AVE NW, CANAL FULTON OH",
      "city": "CANAL FULTON",
      "state": "OH",
      "beds": null,
      "baths": null,
      "sqft": null,
      "lotSize": null,
      "lat": null,
      "lng": null
    },
    {
      "propertyId": null,
      "attomId": 183542450,
      "offerDate": "2024-08-02",
      "offerPrice": 70000,
      "status": "recorder",
      "isRebuilt": false,
      "address": "8348 MANCHESTER AVE NW, CANAL FULTON OH",
      "city": "CANAL FULTON",
      "state": "OH",
      "beds": null,
      "baths": null,
      "sqft": null,
      "lotSize": null,
      "lat": 40.902742,
      "lng": -81.576712
    },
    {
      "propertyId": null,
      "attomId": 313683551,
      "offerDate": "2024-07-30",
      "offerPrice": 411100,
      "status": "recorder",
      "isRebuilt": false,
      "address": "20301 ARDORE LN, ESTERO FL",
      "city": "ESTERO",
      "state": "FL",
      "beds": null,
      "baths": null,
      "sqft": null,
      "lotSize": null,
      "lat": 26.444411,
      "lng": -81.725349
    },
    {
      "propertyId": null,
      "attomId": 303195202,
      "offerDate": "2024-07-30",
      "offerPrice": 120000,
      "status": "recorder",
      "isRebuilt": false,
      "address": "9744 NC HIGHWAY 4, LITTLETON NC",
      "city": "LITTLETON",
      "state": "NC",
      "beds": null,
      "baths": null,
      "sqft": null,
      "lotSize": null,
      "lat": 36.290046,
      "lng": -77.899104
    },
    {
      "propertyId": null,
      "attomId": 218591637,
      "offerDate": "2024-07-26",
      "offerPrice": 24435,
      "status": "recorder",
      "isRebuilt": false,
      "address": "605 MONROE ST, MARSHALL MI",
      "city": "MARSHALL",
      "state": "MI",
      "beds": null,
      "baths": null,
      "sqft": null,
      "lotSize": null,
      "lat": 42.266016,
      "lng": -84.95793
    },
    {
      "propertyId": null,
      "attomId": 171352454,
      "offerDate": "2024-07-26",
      "offerPrice": 3253500,
      "status": "recorder",
      "isRebuilt": false,
      "address": "4540 MABRY RD NE, ROSWELL GA",
      "city": "ROSWELL",
      "state": "GA",
      "beds": null,
      "baths": null,
      "sqft": null,
      "lotSize": null,
      "lat": 34.060534,
      "lng": -84.420337
    },
    {
      "propertyId": null,
      "attomId": 168175890,
      "offerDate": "2024-07-25",
      "offerPrice": 207547,
      "status": "recorder",
      "isRebuilt": false,
      "address": "961 ROUTE 23A, CATSKILL NY",
      "city": "CATSKILL",
      "state": "NY",
      "beds": null,
      "baths": null,
      "sqft": null,
      "lotSize": null,
      "lat": 42.199262,
      "lng": -73.958739
    },
    {
      "propertyId": null,
      "attomId": 296138186,
      "offerDate": "2024-07-23",
      "offerPrice": 66748,
      "status": "recorder",
      "isRebuilt": false,
      "address": "2224 OLD GREENVILLE RD, RUSSELLVILLE KY",
      "city": "RUSSELLVILLE",
      "state": "KY",
      "beds": null,
      "baths": null,
      "sqft": null,
      "lotSize": null,
      "lat": 36.989419,
      "lng": -86.733153
    },
    {
      "propertyId": null,
      "attomId": 4888079,
      "offerDate": "2024-07-18",
      "offerPrice": 73363,
      "status": "recorder",
      "isRebuilt": false,
      "address": "1038 CAMBRIDGE DR, YUKON OK",
      "city": "YUKON",
      "state": "OK",
      "beds": null,
      "baths": null,
      "sqft": null,
      "lotSize": null,
      "lat": 35.495351,
      "lng": -97.724974
    },
    {
      "propertyId": null,
      "attomId": 169521602,
      "offerDate": "2024-07-18",
      "offerPrice": 52000,
      "status": "recorder",
      "isRebuilt": false,
      "address": "3331 CHURCH AVE, NIAGARA FALLS NY",
      "city": "NIAGARA FALLS",
      "state": "NY",
      "beds": null,
      "baths": null,
      "sqft": null,
      "lotSize": null,
      "lat": 43.087573,
      "lng": -79.019564
    },
    {
      "propertyId": null,
      "attomId": 182529242,
      "offerDate": "2024-07-17",
      "offerPrice": 130121,
      "status": "recorder",
      "isRebuilt": false,
      "address": "6459 EDGEHURST DR, BROOK PARK OH",
      "city": "BROOK PARK",
      "state": "OH",
      "beds": null,
      "baths": null,
      "sqft": null,
      "lotSize": null,
      "lat": 41.390924,
      "lng": -81.805658
    },
    {
      "propertyId": null,
      "attomId": 183178946,
      "offerDate": "2024-07-12",
      "offerPrice": 193000,
      "status": "recorder",
      "isRebuilt": false,
      "address": "147 SAINT LAWRENCE BLVD, EASTLAKE OH",
      "city": "EASTLAKE",
      "state": "OH",
      "beds": null,
      "baths": null,
      "sqft": null,
      "lotSize": null,
      "lat": 41.68363,
      "lng": -81.418243
    },
    {
      "propertyId": null,
      "attomId": 46797078,
      "offerDate": "2024-07-12",
      "offerPrice": 561041,
      "status": "recorder",
      "isRebuilt": false,
      "address": "1123 CONNETQUOT AVE, CENTRAL ISLIP NY",
      "city": "CENTRAL ISLIP",
      "state": "NY",
      "beds": null,
      "baths": null,
      "sqft": null,
      "lotSize": null,
      "lat": 40.784373,
      "lng": -73.177811
    },
    {
      "propertyId": null,
      "attomId": 22388810,
      "offerDate": "2024-07-12",
      "offerPrice": 208170,
      "status": "recorder",
      "isRebuilt": false,
      "address": "305 TIMBERLAKE TER, COVINGTON GA",
      "city": "COVINGTON",
      "state": "GA",
      "beds": null,
      "baths": null,
      "sqft": null,
      "lotSize": null,
      "lat": 33.572594,
      "lng": -83.9809
    },
    {
      "propertyId": null,
      "attomId": 47836655,
      "offerDate": "2024-07-11",
      "offerPrice": 304111,
      "status": "recorder",
      "isRebuilt": false,
      "address": "15116 ALDERWOOD TURN, CHESTER VA",
      "city": "CHESTER",
      "state": "VA",
      "beds": null,
      "baths": null,
      "sqft": null,
      "lotSize": null,
      "lat": 37.317184,
      "lng": -77.431355
    },
    {
      "propertyId": null,
      "attomId": 201887577,
      "offerDate": "2024-07-10",
      "offerPrice": 517607,
      "status": "recorder",
      "isRebuilt": false,
      "address": "12706 CRESTWOOD AVE S, BRANDYWINE MD",
      "city": "BRANDYWINE",
      "state": "MD",
      "beds": null,
      "baths": null,
      "sqft": null,
      "lotSize": null,
      "lat": 38.715435,
      "lng": -76.876864
    },
    {
      "propertyId": null,
      "attomId": 194965082,
      "offerDate": "2024-07-08",
      "offerPrice": 240000,
      "status": "recorder",
      "isRebuilt": false,
      "address": "16 CHERRY LN, WEST HAVEN CT",
      "city": "WEST HAVEN",
      "state": "CT",
      "beds": null,
      "baths": null,
      "sqft": null,
      "lotSize": null,
      "lat": 41.257689,
      "lng": -72.962378
    },
    {
      "propertyId": null,
      "attomId": 48798120,
      "offerDate": "2024-06-26",
      "offerPrice": 136500,
      "status": "recorder",
      "isRebuilt": false,
      "address": "614 E BROADWAY, FULTON NY",
      "city": "FULTON",
      "state": "NY",
      "beds": null,
      "baths": null,
      "sqft": null,
      "lotSize": null,
      "lat": 43.320662,
      "lng": -76.40673
    },
    {
      "propertyId": null,
      "attomId": 32132021,
      "offerDate": "2024-06-25",
      "offerPrice": 200100,
      "status": "recorder",
      "isRebuilt": false,
      "address": "2158 FALLS CIR, VERO BEACH FL",
      "city": "VERO BEACH",
      "state": "FL",
      "beds": null,
      "baths": null,
      "sqft": null,
      "lotSize": null,
      "lat": 27.679455,
      "lng": -80.405304
    },
    {
      "propertyId": null,
      "attomId": 21246824,
      "offerDate": "2024-06-21",
      "offerPrice": 1569,
      "status": "recorder",
      "isRebuilt": false,
      "address": "6 SHORT ST, CARBONDALE PA",
      "city": "CARBONDALE",
      "state": "PA",
      "beds": null,
      "baths": null,
      "sqft": null,
      "lotSize": null,
      "lat": 41.581828,
      "lng": -75.508941
    },
    {
      "propertyId": null,
      "attomId": 200336777,
      "offerDate": "2024-06-13",
      "offerPrice": 25599,
      "status": "recorder",
      "isRebuilt": false,
      "address": "733 N 18TH ST, WEST MEMPHIS AR",
      "city": "WEST MEMPHIS",
      "state": "AR",
      "beds": null,
      "baths": null,
      "sqft": null,
      "lotSize": null,
      "lat": 35.15528,
      "lng": -90.162319
    },
    {
      "propertyId": null,
      "attomId": 140174045,
      "offerDate": "2024-06-10",
      "offerPrice": 561000,
      "status": "recorder",
      "isRebuilt": false,
      "address": "5760 QUARTZ DR, EL DORADO CA",
      "city": "EL DORADO",
      "state": "CA",
      "beds": null,
      "baths": null,
      "sqft": null,
      "lotSize": null,
      "lat": 38.647902,
      "lng": -120.862186
    },
    {
      "propertyId": null,
      "attomId": 300204896,
      "offerDate": "2024-06-10",
      "offerPrice": 44080,
      "status": "recorder",
      "isRebuilt": false,
      "address": "508 S NEW MADRID ST, SIKESTON MO",
      "city": "SIKESTON",
      "state": "MO",
      "beds": null,
      "baths": null,
      "sqft": null,
      "lotSize": null,
      "lat": 36.871741,
      "lng": -89.587943
    },