{
  "investor": {
    "id": "041b8fb9-9bc9-4c19-bf58-b3bde3c05ee7",
    "name": "Kylan Bolton",
    "email": "reconnectinvestments@gmail.com",
    "phone": "+1 (805) 978-2012",
    "totalWon": 1,
    "totalBids": 7,
    "ytdWon": 0,
    "ytdBids": 0,
    "entities": [
      "BRITCHER PROPERTIES LLC",
      "INTERNATIONAL IMMOBILIARE LLC",
      "SAN CHICO LLC"
    ]
  },
  "stats": {
    "totalTransactions2025": 29,
    "rebuiltTransactions": 0,
    "recorderTransactions": 99,
    "quarterlyStats": {
      "2025-Q1": {
        "rebuilt": 0,
        "total": 17
      },
      "2025-Q2": {
        "rebuilt": 0,
        "total": 12
      },
      "2025-Q3": {
        "rebuilt": 0,
        "total": 0
      },
      "2025-Q4": {
        "rebuilt": 0,
        "total": 0
      },
      "2026-Q1": {
        "rebuilt": 0,
        "total": 0
      }
    }
  },
  "properties": [
    {
      "propertyId": null,
      "attomId": 140715432,
      "offerDate": "2025-06-09",
      "offerPrice": 94000,
      "status": "recorder",
      "isRebuilt": false,
      "address": "3317 W 10TH ST, LITTLE ROCK AR",
      "city": "LITTLE ROCK",
      "state": "AR",
      "beds": null,
      "baths": null,
      "sqft": null,
      "lotSize": null,
      "lat": 34.741761,
      "lng": -92.310942
    },
    {
      "propertyId": null,
      "attomId": 198342629,
      "offerDate": "2025-05-23",
      "offerPrice": 15000,
      "status": "recorder",
      "isRebuilt": false,
      "address": "1752 ELDRIDGE AVE, MEMPHIS TN",
      "city": "MEMPHIS",
      "state": "TN",
      "beds": null,
      "baths": null,
      "sqft": null,
      "lotSize": null,
      "lat": 35.171169,
      "lng": -89.999004
    },
    {
      "propertyId": null,
      "attomId": 54513276,
      "offerDate": "2025-05-22",
      "offerPrice": 33610,
      "status": "recorder",
      "isRebuilt": false,
      "address": "1244 CUMMINGS ST, MEMPHIS TN",
      "city": "MEMPHIS",
      "state": "TN",
      "beds": null,
      "baths": null,
      "sqft": null,
      "lotSize": null,
      "lat": 35.112779,
      "lng": -90.027284
    },
    {
      "propertyId": null,
      "attomId": 20398807,
      "offerDate": "2025-05-19",
      "offerPrice": 67000,
      "status": "recorder",
      "isRebuilt": false,
      "address": "1847 DRIFTWOOD AVE, MEMPHIS TN",
      "city": "MEMPHIS",
      "state": "TN",
      "beds": null,
      "baths": null,
      "sqft": null,
      "lotSize": null,
      "lat": 35.209931,
      "lng": -90.002271
    },
    {
      "propertyId": null,
      "attomId": 146376539,
      "offerDate": "2025-05-19",
      "offerPrice": 138500,
      "status": "recorder",
      "isRebuilt": false,
      "address": "1541 NETHERWOOD AVE, MEMPHIS TN",
      "city": "MEMPHIS",
      "state": "TN",
      "beds": null,
      "baths": null,
      "sqft": null,
      "lotSize": null,
      "lat": 35.113334,
      "lng": -90.011063
    },
    {
      "propertyId": null,
      "attomId": 19319476,
      "offerDate": "2025-05-09",
      "offerPrice": 13000,
      "status": "recorder",
      "isRebuilt": false,
      "address": "2061 FLORIDA ST, MEMPHIS TN",
      "city": "MEMPHIS",
      "state": "TN",
      "beds": null,
      "baths": null,
      "sqft": null,
      "lotSize": null,
      "lat": 35.09107,
      "lng": -90.063302
    },
    {
      "propertyId": null,
      "attomId": 2112654,
      "offerDate": "2025-05-09",
      "offerPrice": 20000,
      "status": "recorder",
      "isRebuilt": false,
      "address": "2529 BRIAN CV, MEMPHIS TN",
      "city": "MEMPHIS",
      "state": "TN",
      "beds": null,
      "baths": null,
      "sqft": null,
      "lotSize": null,
      "lat": 35.086866,
      "lng": -89.978328
    },
    {
      "propertyId": null,
      "attomId": 197537980,
      "offerDate": "2025-05-07",
      "offerPrice": 80000,
      "status": "recorder",
      "isRebuilt": false,
      "address": "1191 TUTWILER AVE, MEMPHIS TN",
      "city": "MEMPHIS",
      "state": "TN",
      "beds": null,
      "baths": null,
      "sqft": null,
      "lotSize": null,
      "lat": 35.156342,
      "lng": -90.018955
    },
    {
      "propertyId": null,
      "attomId": 23454440,
      "offerDate": "2025-05-05",
      "offerPrice": 14500,
      "status": "recorder",
      "isRebuilt": false,
      "address": "2312 DEXTER AVE, MEMPHIS TN",
      "city": "MEMPHIS",
      "state": "TN",
      "beds": null,
      "baths": null,
      "sqft": null,
      "lotSize": null,
      "lat": 35.16842,
      "lng": -89.980242
    },
    {
      "propertyId": null,
      "attomId": 2156020,
      "offerDate": "2025-04-25",
      "offerPrice": 10000,
      "status": "recorder",
      "isRebuilt": false,
      "address": "524 BURLINGTON CIR, MEMPHIS TN",
      "city": "MEMPHIS",
      "state": "TN",
      "beds": null,
      "baths": null,
      "sqft": null,
      "lotSize": null,
      "lat": 35.21095,
      "lng": -90.046384
    },
    {
      "propertyId": null,
      "attomId": 147155934,
      "offerDate": "2025-04-14",
      "offerPrice": 19500,
      "status": "recorder",
      "isRebuilt": false,
      "address": "1088 KNEY ST, MEMPHIS TN",
      "city": "MEMPHIS",
      "state": "TN",
      "beds": null,
      "baths": null,
      "sqft": null,
      "lotSize": null,
      "lat": 35.169644,
      "lng": -90.022688
    },
    {
      "propertyId": null,
      "attomId": 47260952,
      "offerDate": "2025-04-03",
      "offerPrice": 27000,
      "status": "recorder",
      "isRebuilt": false,
      "address": "1223 ELLISTON RD, MEMPHIS TN",
      "city": "MEMPHIS",
      "state": "TN",
      "beds": null,
      "baths": null,
      "sqft": null,
      "lotSize": null,
      "lat": 35.08728,
      "lng": -90.022274
    },
    {
      "propertyId": null,
      "attomId": 141899484,
      "offerDate": "2025-03-31",
      "offerPrice": 15000,
      "status": "recorder",
      "isRebuilt": false,
      "address": "318 SIMPSON AVE, MEMPHIS TN",
      "city": "MEMPHIS",
      "state": "TN",
      "beds": null,
      "baths": null,
      "sqft": null,
      "lotSize": null,
      "lat": 35.115265,
      "lng": -90.051684
    },
    {
      "propertyId": null,
      "attomId": 197229731,
      "offerDate": "2025-03-28",
      "offerPrice": 40000,
      "status": "recorder",
      "isRebuilt": false,
      "address": "3345 CHARLOTTE RD, MEMPHIS TN",
      "city": "MEMPHIS",
      "state": "TN",
      "beds": null,
      "baths": null,
      "sqft": null,
      "lotSize": null,
      "lat": 35.057411,
      "lng": -90.068681
    },
    {
      "propertyId": null,
      "attomId": 203043310,
      "offerDate": "2025-03-21",
      "offerPrice": 21000,
      "status": "recorder",
      "isRebuilt": false,
      "address": "1644 GILL AVE, MEMPHIS TN",
      "city": "MEMPHIS",
      "state": "TN",
      "beds": null,
      "baths": null,
      "sqft": null,
      "lotSize": null,
      "lat": 35.107551,
      "lng": -90.0076
    },
    {
      "propertyId": null,
      "attomId": 19884838,
      "offerDate": "2025-03-11",
      "offerPrice": 6000,
      "status": "recorder",
      "isRebuilt": false,
      "address": "2133 ELDRIDGE AVE, MEMPHIS TN",
      "city": "MEMPHIS",
      "state": "TN",
      "beds": null,
      "baths": null,
      "sqft": null,
      "lotSize": null,
      "lat": 35.170699,
      "lng": -89.986059
    },
    {
      "propertyId": null,
      "attomId": 1555773,
      "offerDate": "2025-03-07",
      "offerPrice": 10000,
      "status": "recorder",
      "isRebuilt": false,
      "address": "1445 FAIRFAX ST, MEMPHIS TN",
      "city": "MEMPHIS",
      "state": "TN",
      "beds": null,
      "baths": null,
      "sqft": null,
      "lotSize": null,
      "lat": 35.175484,
      "lng": -89.971066
    },
    {
      "propertyId": null,
      "attomId": 188508924,
      "offerDate": "2025-03-06",
      "offerPrice": 5000,
      "status": "recorder",
      "isRebuilt": false,
      "address": "1479 E MALLORY AVE, MEMPHIS TN",
      "city": "MEMPHIS",
      "state": "TN",
      "beds": null,
      "baths": null,
      "sqft": null,
      "lotSize": null,
      "lat": 35.085003,
      "lng": -90.013634
    },
    {
      "propertyId": null,
      "attomId": 202407546,
      "offerDate": "2025-02-24",
      "offerPrice": 18000,
      "status": "recorder",
      "isRebuilt": false,
      "address": "2295 DEXTER AVE, MEMPHIS TN",
      "city": "MEMPHIS",
      "state": "TN",
      "beds": null,
      "baths": null,
      "sqft": null,
      "lotSize": null,
      "lat": 35.16801,
      "lng": -89.980816
    },
    {
      "propertyId": null,
      "attomId": 190300227,
      "offerDate": "2025-02-21",
      "offerPrice": 20500,
      "status": "recorder",
      "isRebuilt": false,
      "address": "1786 ELDRIDGE AVE, MEMPHIS TN",
      "city": "MEMPHIS",
      "state": "TN",
      "beds": null,
      "baths": null,
      "sqft": null,
      "lotSize": null,
      "lat": 35.171134,
      "lng": -89.997826
    },
    {
      "propertyId": null,
      "attomId": 36145099,
      "offerDate": "2025-02-18",
      "offerPrice": 123000,
      "status": "recorder",
      "isRebuilt": false,
      "address": "2983 FOREST AVE, MEMPHIS TN",
      "city": "MEMPHIS",
      "state": "TN",
      "beds": null,
      "baths": null,
      "sqft": null,
      "lotSize": null,
      "lat": 35.148275,
      "lng": -89.961661
    },
    {
      "propertyId": null,
      "attomId": 36144704,
      "offerDate": "2025-02-18",
      "offerPrice": 123000,
      "status": "recorder",
      "isRebuilt": false,
      "address": "2965 FOREST AVE, MEMPHIS TN",
      "city": "MEMPHIS",
      "state": "TN",
      "beds": null,
      "baths": null,
      "sqft": null,
      "lotSize": null,
      "lat": 35.148285,
      "lng": -89.96221
    },
    {
      "propertyId": null,
      "attomId": 201872437,
      "offerDate": "2025-02-10",
      "offerPrice": 15000,
      "status": "recorder",
      "isRebuilt": false,
      "address": "538 E MALLORY AVE, MEMPHIS TN",
      "city": "MEMPHIS",
      "state": "TN",
      "beds": null,
      "baths": null,
      "sqft": null,
      "lotSize": null,
      "lat": 35.086617,
      "lng": -90.045124
    },
    {
      "propertyId": null,
      "attomId": 15062020,
      "offerDate": "2025-02-07",
      "offerPrice": 3500,
      "status": "recorder",
      "isRebuilt": false,
      "address": "892 STAFFORD AVE, MEMPHIS TN",
      "city": "MEMPHIS",
      "state": "TN",
      "beds": null,
      "baths": null,
      "sqft": null,
      "lotSize": null,
      "lat": 35.114226,
      "lng": -90.032354
    },
    {
      "propertyId": null,
      "attomId": 243486284,
      "offerDate": "2025-01-23",
      "offerPrice": 13500,
      "status": "recorder",
      "isRebuilt": false,
      "address": "57 W FRANK AVE, MEMPHIS TN",
      "city": "MEMPHIS",
      "state": "TN",
      "beds": null,
      "baths": null,
      "sqft": null,
      "lotSize": null,
      "lat": 35.09040832519531,
      "lng": -90.064921
    },
    {
      "propertyId": null,
      "attomId": 4256644,
      "offerDate": "2025-01-13",
      "offerPrice": 5500,
      "status": "recorder",
      "isRebuilt": false,
      "address": "2372 HUNTER AVE, MEMPHIS TN",
      "city": "MEMPHIS",
      "state": "TN",
      "beds": null,
      "baths": null,
      "sqft": null,
      "lotSize": null,
      "lat": 35.169798,
      "lng": -89.978179
    },
    {
      "propertyId": null,
      "attomId": 18260475,
      "offerDate": "2025-01-13",
      "offerPrice": 60000,
      "status": "recorder",
      "isRebuilt": false,
      "address": "851 LEON PL, MEMPHIS TN",
      "city": "MEMPHIS",
      "state": "TN",
      "beds": null,
      "baths": null,
      "sqft": null,
      "lotSize": null,
      "lat": 35.163543,
      "lng": -90.029635
    },
    {
      "propertyId": null,
      "attomId": 18724723,
      "offerDate": "2025-01-06",
      "offerPrice": 40000,
      "status": "recorder",
      "isRebuilt": false,
      "address": "318 RED OAK ST, MEMPHIS TN",
      "city": "MEMPHIS",
      "state": "TN",
      "beds": null,
      "baths": null,
      "sqft": null,
      "lotSize": null,
      "lat": 35.141035,
      "lng": -89.96472
    },
    {
      "propertyId": null,
      "attomId": 4410868,
      "offerDate": "2025-01-06",
      "offerPrice": 18270,
      "status": "recorder",
      "isRebuilt": false,
      "address": "667 MARECHALNEIL ST, MEMPHIS TN",
      "city": "MEMPHIS",
      "state": "TN",
      "beds": null,
      "baths": null,
      "sqft": null,
      "lotSize": null,
      "lat": 35.114067,
      "lng": -89.979709
    },
    {
      "propertyId": null,
      "attomId": 190324035,
      "offerDate": "2024-12-23",
      "offerPrice": 42500,
      "status": "recorder",
      "isRebuilt": false,
      "address": "543 E GAGE AVE, MEMPHIS TN",
      "city": "MEMPHIS",
      "state": "TN",
      "beds": null,
      "baths": null,
      "sqft": null,
      "lotSize": null,
      "lat": 35.087044,
      "lng": -90.044926
    },
    {
      "propertyId": null,
      "attomId": 26046491,
      "offerDate": "2024-12-17",
      "offerPrice": 12000,
      "status": "recorder",
      "isRebuilt": false,
      "address": "2375 HUBBARD AVE, MEMPHIS TN",
      "city": "MEMPHIS",
      "state": "TN",
      "beds": null,
      "baths": null,
      "sqft": null,
      "lotSize": null,
      "lat": 35.173535,
      "lng": -89.978009
    },
    {
      "propertyId": null,
      "attomId": 22330988,
      "offerDate": "2024-12-17",
      "offerPrice": 70000,
      "status": "recorder",
      "isRebuilt": false,
      "address": "1323 BROWER ST, MEMPHIS TN",
      "city": "MEMPHIS",
      "state": "TN",
      "beds": null,
      "baths": null,
      "sqft": null,
      "lotSize": null,
      "lat": 35.095569,
      "lng": -89.95338
    },
    {
      "propertyId": null,
      "attomId": 16710317,
      "offerDate": "2024-12-02",
      "offerPrice": 25000,
      "status": "recorder",
      "isRebuilt": false,
      "address": "945 NORA RD, MEMPHIS TN",
      "city": "MEMPHIS",
      "state": "TN",
      "beds": null,
      "baths": null,
      "sqft": null,
      "lotSize": null,
      "lat": 35.053218,
      "lng": -90.095374
    },
    {
      "propertyId": null,
      "attomId": 143684117,
      "offerDate": "2024-11-27",
      "offerPrice": 20000,
      "status": "recorder",
      "isRebuilt": false,
      "address": "1760 S WELLINGTON ST, MEMPHIS TN",
      "city": "MEMPHIS",
      "state": "TN",
      "beds": null,
      "baths": null,
      "sqft": null,
      "lotSize": null,
      "lat": 35.099078,
      "lng": -90.046609
    },
    {
      "propertyId": null,
      "attomId": 198267225,
      "offerDate": "2024-11-25",
      "offerPrice": 8000,
      "status": "recorder",
      "isRebuilt": false,
      "address": "417 LIPFORD ST, MEMPHIS TN",
      "city": "MEMPHIS",
      "state": "TN",
      "beds": null,
      "baths": null,
      "sqft": null,
      "lotSize": null,
      "lat": 35.143804,
      "lng": -89.963715
    },
    {
      "propertyId": null,
      "attomId": 202614523,
      "offerDate": "2024-11-21",
      "offerPrice": 27500,
      "status": "recorder",
      "isRebuilt": false,
      "address": "818 CROCKETT ST, MEMPHIS TN",
      "city": "MEMPHIS",
      "state": "TN",
      "beds": null,
      "baths": null,
      "sqft": null,
      "lotSize": null,
      "lat": 35.16187,
      "lng": -90.021048
    },
    {
      "propertyId": null,
      "attomId": 1672792,
      "offerDate": "2024-11-20",
      "offerPrice": 360000,
      "status": "recorder",
      "isRebuilt": false,
      "address": "1075 KNEY ST, MEMPHIS TN",
      "city": "MEMPHIS",
      "state": "TN",
      "beds": null,
      "baths": null,
      "sqft": null,
      "lotSize": null,
      "lat": 35.169359,
      "lng": -90.023181
    },
    {
      "propertyId": null,
      "attomId": 29432987,
      "offerDate": "2024-11-20",
      "offerPrice": 45000,
      "status": "recorder",
      "isRebuilt": false,
      "address": "1794 N HOLLYWOOD ST, MEMPHIS TN",
      "city": "MEMPHIS",
      "state": "TN",
      "beds": null,
      "baths": null,
      "sqft": null,
      "lotSize": null,
      "lat": 35.185377,
      "lng": -89.975207
    },
    {
      "propertyId": null,
      "attomId": 54403506,
      "offerDate": "2024-11-18",
      "offerPrice": 25250,
      "status": "recorder",
      "isRebuilt": false,
      "address": "692 E ALSTON AVE, MEMPHIS TN",
      "city": "MEMPHIS",
      "state": "TN",
      "beds": null,
      "baths": null,
      "sqft": null,
      "lotSize": null,
      "lat": 35.123379,
      "lng": -90.038724
    },
    {
      "propertyId": null,
      "attomId": 188513652,
      "offerDate": "2024-11-15",
      "offerPrice": 13000,
      "status": "recorder",
      "isRebuilt": false,
      "address": "2028 AMITY AVE, MEMPHIS TN",
      "city": "MEMPHIS",
      "state": "TN",
      "beds": null,
      "baths": null,
      "sqft": null,
      "lotSize": null,
      "lat": 35.178627,
      "lng": -89.989366
    },
    {
      "propertyId": null,
      "attomId": 8166700,
      "offerDate": "2024-11-15",
      "offerPrice": 15700,
      "status": "recorder",
      "isRebuilt": false,
      "address": "3603 SUNRISE ST, MEMPHIS TN",
      "city": "MEMPHIS",
      "state": "TN",
      "beds": null,
      "baths": null,
      "sqft": null,
      "lotSize": null,
      "lat": 35.22409,
      "lng": -90.03952
    },
    {
      "propertyId": null,
      "attomId": 203043369,
      "offerDate": "2024-11-04",
      "offerPrice": 109231,
      "status": "recorder",
      "isRebuilt": false,
      "address": "1184 WRIGHT RD, MEMPHIS TN",
      "city": "MEMPHIS",
      "state": "TN",
      "beds": null,
      "baths": null,
      "sqft": null,
      "lotSize": null,
      "lat": 35.16389,
      "lng": -89.922897
    },
    {
      "propertyId": null,
      "attomId": 27329673,
      "offerDate": "2024-11-01",
      "offerPrice": 38000,
      "status": "recorder",
      "isRebuilt": false,
      "address": "711 E GAGE AVE, MEMPHIS TN",
      "city": "MEMPHIS",
      "state": "TN",
      "beds": null,
      "baths": null,
      "sqft": null,
      "lotSize": null,
      "lat": 35.086944,
      "lng": -90.039284
    },
    {
      "propertyId": null,
      "attomId": 15897060,
      "offerDate": "2024-10-31",
      "offerPrice": 90000,
      "status": "recorder",
      "isRebuilt": false,
      "address": "48 S BRISTOL RD, MARION AR",
      "city": "MARION",
      "state": "AR",
      "beds": null,
      "baths": null,
      "sqft": null,
      "lotSize": null,
      "lat": 35.233158,
      "lng": -90.208531
    },
    {
      "propertyId": null,
      "attomId": 198346289,
      "offerDate": "2024-10-25",
      "offerPrice": 17000,
      "status": "recorder",
      "isRebuilt": false,
      "address": "860 DECATUR ST, MEMPHIS TN",
      "city": "MEMPHIS",
      "state": "TN",
      "beds": null,
      "baths": null,
      "sqft": null,
      "lotSize": null,
      "lat": 35.163539,
      "lng": -90.024218
    },
    {
      "propertyId": null,
      "attomId": 1258219,
      "offerDate": "2024-10-04",
      "offerPrice": 17000,
      "status": "recorder",
      "isRebuilt": false,
      "address": "778 S PARKWAY E, MEMPHIS TN",
      "city": "MEMPHIS",
      "state": "TN",
      "beds": null,
      "baths": null,
      "sqft": null,
      "lotSize": null,
      "lat": 35.108674,
      "lng": -90.036415
    },
    {
      "propertyId": null,
      "attomId": 27471148,
      "offerDate": "2024-10-04",
      "offerPrice": 23000,
      "status": "recorder",
      "isRebuilt": false,
      "address": "790 S PARKWAY E, MEMPHIS TN",
      "city": "MEMPHIS",
      "state": "TN",
      "beds": null,
      "baths": null,
      "sqft": null,
      "lotSize": null,
      "lat": 35.108668,
      "lng": -90.036244
    },
    {
      "propertyId": null,
      "attomId": 27328307,
      "offerDate": "2024-10-02",
      "offerPrice": 22000,
      "status": "recorder",
      "isRebuilt": false,
      "address": "858 ALASKA ST, MEMPHIS TN",
      "city": "MEMPHIS",
      "state": "TN",
      "beds": null,
      "baths": null,
      "sqft": null,
      "lotSize": null,
      "lat": 35.16217,
      "lng": -90.01345
    },
    {
      "propertyId": null,
      "attomId": 17049342,
      "offerDate": "2024-10-01",
      "offerPrice": 25000,
      "status": "recorder",
      "isRebuilt": false,
      "address": "2978 BIRCHDALE DR, MEMPHIS TN",
      "city": "MEMPHIS",
      "state": "TN",
      "beds": null,
      "baths": null,
      "sqft": null,
      "lotSize": null,
      "lat": 35.207155,
      "lng": -90.001161
    },
    {
      "propertyId": null,
      "attomId": 9947630,
      "offerDate": "2024-09-12",
      "offerPrice": 30000,
      "status": "recorder",
      "isRebuilt": false,
      "address": "2798 AMSDEN AVE, MEMPHIS TN",
      "city": "MEMPHIS",
      "state": "TN",
      "beds": null,
      "baths": null,
      "sqft": null,
      "lotSize": null,
      "lat": 35.141673,
      "lng": -89.968145
    },
    {
      "propertyId": null,
      "attomId": 11095804,
      "offerDate": "2024-09-11",
      "offerPrice": 6500,
      "status": "recorder",
      "isRebuilt": false,
      "address": "8 E BROOKS RD, MEMPHIS TN",
      "city": "MEMPHIS",
      "state": "TN",
      "beds": null,
      "baths": null,
      "sqft": null,
      "lotSize": null,
      "lat": 35.063635,
      "lng": -90.063693
    },
    {
      "propertyId": null,
      "attomId": 144767801,
      "offerDate": "2024-09-09",
      "offerPrice": 15000,
      "status": "recorder",
      "isRebuilt": false,
      "address": "1596 BARTON ST, MEMPHIS TN",
      "city": "MEMPHIS",
      "state": "TN",
      "beds": null,
      "baths": null,
      "sqft": null,
      "lotSize": null,
      "lat": 35.10375,
      "lng": -90.056159
    },
    {
      "propertyId": null,
      "attomId": 35004900,
      "offerDate": "2024-08-23",
      "offerPrice": 100000,
      "status": "recorder",
      "isRebuilt": false,
      "address": "880 N WATKINS ST, MEMPHIS TN",
      "city": "MEMPHIS",
      "state": "TN",
      "beds": null,
      "baths": null,
      "sqft": null,
      "lotSize": null,
      "lat": 35.162988,
      "lng": -90.010297
    },
    {
      "propertyId": null,
      "attomId": 187410323,
      "offerDate": "2024-08-21",
      "offerPrice": 24000,
      "status": "recorder",
      "isRebuilt": false,
      "address": "3447 COOK RD, MEMPHIS TN",
      "city": "MEMPHIS",
      "state": "TN",
      "beds": null,
      "baths": null,
      "sqft": null,
      "lotSize": null,
      "lat": 35.054512,
      "lng": -90.110863
    },
    {
      "propertyId": null,
      "attomId": 194616282,
      "offerDate": "2024-08-21",
      "offerPrice": 15000,
      "status": "recorder",
      "isRebuilt": false,
      "address": "1552 GRIMES ST, MEMPHIS TN",
      "city": "MEMPHIS",
      "state": "TN",
      "beds": null,
      "baths": null,
      "sqft": null,
      "lotSize": null,
      "lat": 35.104878,
      "lng": -90.052303
    },
    {
      "propertyId": null,
      "attomId": 22377000,
      "offerDate": "2024-08-08",
      "offerPrice": 7000,
      "status": "recorder",
      "isRebuilt": false,
      "address": "3604 SUNRISE ST, MEMPHIS TN",
      "city": "MEMPHIS",
      "state": "TN",
      "beds": null,
      "baths": null,
      "sqft": null,
      "lotSize": null,
      "lat": 35.224139,
      "lng": -90.038739
    },
    {
      "propertyId": null,
      "attomId": 148826340,
      "offerDate": "2024-07-17",
      "offerPrice": 30000,
      "status": "recorder",
      "isRebuilt": false,
      "address": "3021 GREEN RD, MEMPHIS TN",
      "city": "MEMPHIS",
      "state": "TN",
      "beds": null,
      "baths": null,
      "sqft": null,
      "lotSize": null,
      "lat": 35.066319,
      "lng": -90.085592
    },
    {
      "propertyId": null,
      "attomId": 1396614,
      "offerDate": "2024-07-12",
      "offerPrice": 41000,
      "status": "recorder",
      "isRebuilt": false,
      "address": "1417 PILLOW ST, MEMPHIS TN",
      "city": "MEMPHIS",
      "state": "TN",
      "beds": null,
      "baths": null,
      "sqft": null,
      "lotSize": null,
      "lat": 35.107628,
      "lng": -90.015196
    },
    {
      "propertyId": null,
      "attomId": 4566922,
      "offerDate": "2024-07-01",
      "offerPrice": 6500,
      "status": "recorder",
      "isRebuilt": false,
      "address": "765 GRAND ST, MEMPHIS TN",
      "city": "MEMPHIS",
      "state": "TN",
      "beds": null,
      "baths": null,
      "sqft": null,
      "lotSize": null,
      "lat": 35.111413,
      "lng": -89.982285
    },
    {
      "propertyId": null,
      "attomId": 13444522,
      "offerDate": "2024-06-27",
      "offerPrice": 10000,
      "status": "recorder",
      "isRebuilt": false,
      "address": "1192 MERCHANT ST, MEMPHIS TN",
      "city": "MEMPHIS",
      "state": "TN",
      "beds": null,
      "baths": null,
      "sqft": null,
      "lotSize": null,
      "lat": 35.170694,
      "lng": -90.00085
    },
    {
      "propertyId": null,
      "attomId": 21301804,
      "offerDate": "2024-06-25",
      "offerPrice": 78000,
      "status": "recorder",
      "isRebuilt": false,
      "address": "207 APPLEVILLE CV, MEMPHIS TN",
      "city": "MEMPHIS",
      "state": "TN",
      "beds": null,
      "baths": null,
      "sqft": null,
      "lotSize": null,
      "lat": 35.016464,
      "lng": -90.056916
    },
    {
      "propertyId": null,
      "attomId": 28289020,
      "offerDate": "2024-06-24",
      "offerPrice": 18000,
      "status": "recorder",
      "isRebuilt": false,
      "address": "2692 SELECT AVE, MEMPHIS TN",
      "city": "MEMPHIS",
      "state": "TN",
      "beds": null,
      "baths": null,
      "sqft": null,
      "lotSize": null,
      "lat": 35.106535,
      "lng": -89.972661
    },
    {
      "propertyId": null,
      "attomId": 195501676,
      "offerDate": "2024-06-20",
      "offerPrice": 52500,
      "status": "recorder",
      "isRebuilt": false,
      "address": "905 S WILLETT ST, MEMPHIS TN",
      "city": "MEMPHIS",
      "state": "TN",
      "beds": null,
      "baths": null,
      "sqft": null,
      "lotSize": null,
      "lat": 35.121429,
      "lng": -90.010749
    },
    {
      "propertyId": null,
      "attomId": 21303733,
      "offerDate": "2024-06-13",
      "offerPrice": 90000,
      "status": "recorder",
      "isRebuilt": false,
      "address": "5106 LEONARD RD, MEMPHIS TN",
      "city": "MEMPHIS",
      "state": "TN",
      "beds": null,
      "baths": null,
      "sqft": null,
      "lotSize": null,
      "lat": 35.009212,
      "lng": -90.048396
    },
    {
      "propertyId": null,
      "attomId": 1751976,
      "offerDate": "2024-06-10",
      "offerPrice": 14000,
      "status": "recorder",
      "isRebuilt": false,
      "address": "1374 QUINN AVE, MEMPHIS TN",
      "city": "MEMPHIS",
      "state": "TN",
      "beds": null,
      "baths": null,
      "sqft": null,
      "lotSize": null,
      "lat": 35.108619,
      "lng": -90.016573
    },
    {
      "propertyId": null,
      "attomId": 1958133,
      "offerDate": "2024-06-10",
      "offerPrice": 18200,
      "status": "recorder",
      "isRebuilt": false,
      "address": "1176 COPPOCK ST, MEMPHIS TN",
      "city": "MEMPHIS",
      "state": "TN",
      "beds": null,
      "baths": null,
      "sqft": null,
      "lotSize": null,
      "lat": 35.171825,
      "lng": -90.022184
    },
    {
      "propertyId": null,
      "attomId": 45511860,
      "offerDate": "2024-06-04",
      "offerPrice": 35000,
      "status": "recorder",
      "isRebuilt": false,
      "address": "1165 RAYNER ST, MEMPHIS TN",
      "city": "MEMPHIS",
      "state": "TN",
      "beds": null,
      "baths": null,
      "sqft": null,
      "lotSize": null,
      "lat": 35.114447,
      "lng": -90.012448
    },
    {
      "propertyId": null,
      "attomId": 605804,
      "offerDate": "2024-05-30",
      "offerPrice": 30000,
      "status": "recorder",
      "isRebuilt": false,
      "address": "852 IOKA AVE, MEMPHIS TN",
      "city": "MEMPHIS",
      "state": "TN",
      "beds": null,
      "baths": null,
      "sqft": null,
      "lotSize": null,
      "lat": 35.127189,
      "lng": -90.033341
    },
    {
      "propertyId": null,
      "attomId": 2175690,
      "offerDate": "2024-05-21",
      "offerPrice": 13000,
      "status": "recorder",
      "isRebuilt": false,
      "address": "1439 MENAGER RD, MEMPHIS TN",
      "city": "MEMPHIS",
      "state": "TN",
      "beds": null,
      "baths": null,
      "sqft": null,
      "lotSize": null,
      "lat": 35.097237,
      "lng": -90.014945
    },
    {
      "propertyId": null,
      "attomId": 10608829,
      "offerDate": "2024-05-10",
      "offerPrice": 30000,
      "status": "recorder",
      "isRebuilt": false,
      "address": "663 LUCY AVE, MEMPHIS TN",
      "city": "MEMPHIS",
      "state": "TN",
      "beds": null,
      "baths": null,
      "sqft": null,
      "lotSize": null,
      "lat": 35.112951,
      "lng": -90.040107
    },
    {
      "propertyId": null,
      "attomId": 143504347,
      "offerDate": "2024-05-03",
      "offerPrice": 18000,
      "status": "recorder",
      "isRebuilt": false,
      "address": "2128 SHANNON AVE, MEMPHIS TN",
      "city": "MEMPHIS",
      "state": "TN",
      "beds": null,
      "baths": null,
      "sqft": null,
      "lotSize": null,
      "lat": 35.181091,
      "lng": -89.985955
    },
    {
      "propertyId": null,
      "attomId": 1958137,
      "offerDate": "2024-04-30",
      "offerPrice": 5000,
      "status": "recorder",
      "isRebuilt": false,
      "address": "1117 BREEDLOVE ST, MEMPHIS TN",
      "city": "MEMPHIS",
      "state": "TN",
      "beds": null,
      "baths": null,
      "sqft": null,
      "lotSize": null,
      "lat": 35.170296,
      "lng": -90.02189
    },
    {
      "propertyId": null,
      "attomId": 195839486,
      "offerDate": "2024-04-22",
      "offerPrice": 5500,
      "status": "recorder",
      "isRebuilt": false,
      "address": "385 WALKER AVE, MEMPHIS TN",
      "city": "MEMPHIS",
      "state": "TN",
      "beds": null,
      "baths": null,
      "sqft": null,
      "lotSize": null,
      "lat": 35.11944,
      "lng": -90.049184
    },
    {
      "propertyId": null,
      "attomId": 193800105,
      "offerDate": "2024-04-15",
      "offerPrice": 20000,
      "status": "recorder",
      "isRebuilt": false,
      "address": "1391 DECATUR ST, MEMPHIS TN",
      "city": "MEMPHIS",
      "state": "TN",
      "beds": null,
      "baths": null,
      "sqft": null,
      "lotSize": null,
      "lat": 35.178141,
      "lng": -90.023419
    },
    {
      "propertyId": null,
      "attomId": 661156,
      "offerDate": "2024-04-15",
      "offerPrice": 13500,
      "status": "recorder",
      "isRebuilt": false,
      "address": "1371 E TRIGG AVE, MEMPHIS TN",
      "city": "MEMPHIS",
      "state": "TN",
      "beds": null,
      "baths": null,
      "sqft": null,
      "lotSize": null,
      "lat": 35.111273,
      "lng": -90.016613
    },
    {
      "propertyId": null,
      "attomId": 23197527,
      "offerDate": "2024-04-11",
      "offerPrice": 15000,
      "status": "recorder",
      "isRebuilt": false,
      "address": "3062 JAMES RD, MEMPHIS TN",
      "city": "MEMPHIS",
      "state": "TN",
      "beds": null,
      "baths": null,
      "sqft": null,
      "lotSize": null,
      "lat": 35.200784,
      "lng": -89.961449
    },
    {
      "propertyId": null,
      "attomId": 22289870,
      "offerDate": "2024-04-03",
      "offerPrice": 19000,
      "status": "recorder",
      "isRebuilt": false,
      "address": "741 E TRIGG AVE, MEMPHIS TN",
      "city": "MEMPHIS",
      "state": "TN",
      "beds": null,
      "baths": null,
      "sqft": null,
      "lotSize": null,
      "lat": 35.111804,
      "lng": -90.03774
    },
    {
      "propertyId": null,
      "attomId": 190946724,
      "offerDate": "2024-04-03",
      "offerPrice": 17000,
      "status": "recorder",
      "isRebuilt": false,
      "address": "279 W NORWOOD AVE, MEMPHIS TN",
      "city": "MEMPHIS",
      "state": "TN",
      "beds": null,
      "baths": null,
      "sqft": null,
      "lotSize": null,
      "lat": 35.091623,
      "lng": -90.072205
    },
    {
      "propertyId": null,
      "attomId": 21530241,
      "offerDate": "2024-03-27",
      "offerPrice": 14000,
      "status": "recorder",
      "isRebuilt": false,
      "address": "1660 BARTON ST, MEMPHIS TN",
      "city": "MEMPHIS",
      "state": "TN",
      "beds": null,
      "baths": null,
      "sqft": null,
      "lotSize": null,
      "lat": 35.101993560791016,
      "lng": -90.05622
    },
    {
      "propertyId": null,
      "attomId": 243487620,
      "offerDate": "2024-03-25",
      "offerPrice": 50000,
      "status": "recorder",
      "isRebuilt": false,
      "address": "3120 SUNRISE ST, MEMPHIS TN",
      "city": "MEMPHIS",
      "state": "TN",
      "beds": null,
      "baths": null,
      "sqft": null,
      "lotSize": null,
      "lat": 35.210880279541016,
      "lng": -90.039665
    },
    {
      "propertyId": null,
      "attomId": 195592155,
      "offerDate": "2024-03-14",
      "offerPrice": 110000,
      "status": "recorder",
      "isRebuilt": false,
      "address": "2014 EVELYN AVE, MEMPHIS TN",
      "city": "MEMPHIS",
      "state": "TN",
      "beds": null,
      "baths": null,
      "sqft": null,
      "lotSize": null,
      "lat": 35.123148,
      "lng": -89.995044
    },
    {
      "propertyId": null,
      "attomId": 23449014,
      "offerDate": "2024-03-08",
      "offerPrice": 53000,
      "status": "recorder",
      "isRebuilt": false,
      "address": "889 S WILLETT ST, MEMPHIS TN",
      "city": "MEMPHIS",
      "state": "TN",
      "beds": null,
      "baths": null,
      "sqft": null,
      "lotSize": null,
      "lat": 35.121865,
      "lng": -90.010732
    },
    {
      "propertyId": null,
      "attomId": 5308443,
      "offerDate": "2024-02-27",
      "offerPrice": 85000,
      "status": "recorder",
      "isRebuilt": false,
      "address": "3240 LAKEVIEW RD, MEMPHIS TN",
      "city": "MEMPHIS",
      "state": "TN",
      "beds": null,
      "baths": null,
      "sqft": null,
      "lotSize": null,
      "lat": 35.060277,
      "lng": -90.034893
    },
    {
      "propertyId": null,
      "attomId": 141520786,
      "offerDate": "2024-02-22",
      "offerPrice": 68000,
      "status": "recorder",
      "isRebuilt": false,
      "address": "1029 BROWNLEE RD, MEMPHIS TN",
      "city": "MEMPHIS",
      "state": "TN",
      "beds": null,
      "baths": null,
      "sqft": null,
      "lotSize": null,
      "lat": 35.032351,
      "lng": -90.02966
    },
    {
      "propertyId": null,
      "attomId": 198339658,
      "offerDate": "2024-02-16",
      "offerPrice": 30000,
      "status": "recorder",
      "isRebuilt": false,
      "address": "284 GASTON AVE, MEMPHIS TN",
      "city": "MEMPHIS",
      "state": "TN",
      "beds": null,
      "baths": null,
      "sqft": null,
      "lotSize": null,
      "lat": 35.118091,
      "lng": -90.052677
    },
    {
      "propertyId": null,
      "attomId": 11691951,
      "offerDate": "2024-02-14",
      "offerPrice": 85000,
      "status": "recorder",
      "isRebuilt": false,
      "address": "4620 SUNNYBROOK ST, MEMPHIS TN",
      "city": "MEMPHIS",
      "state": "TN",
      "beds": null,
      "baths": null,
      "sqft": null,
      "lotSize": null,
      "lat": 35.251846,
      "lng": -89.976054
    },
    {
      "propertyId": null,
      "attomId": 27552629,
      "offerDate": "2024-02-14",
      "offerPrice": 85000,
      "status": "recorder",
      "isRebuilt": false,
      "address": "761 WHITNEY AVE, MEMPHIS TN",
      "city": "MEMPHIS",
      "state": "TN",
      "beds": null,
      "baths": null,
      "sqft": null,
      "lotSize": null,
      "lat": 35.207111,
      "lng": -90.038423
    },
    {
      "propertyId": null,
      "attomId": 54148713,
      "offerDate": "2024-02-14",
      "offerPrice": 85000,
      "status": "recorder",
      "isRebuilt": false,
      "address": "765 WHITNEY AVE, MEMPHIS TN",
      "city": "MEMPHIS",
      "state": "TN",
      "beds": null,
      "baths": null,
      "sqft": null,
      "lotSize": null,
      "lat": 35.207169,
      "lng": -90.038271
    },
    {
      "propertyId": null,
      "attomId": 189033547,
      "offerDate": "2024-02-14",
      "offerPrice": 85000,
      "status": "recorder",
      "isRebuilt": false,
      "address": "3528 BRANTLEY RD, MEMPHIS TN",
      "city": "MEMPHIS",
      "state": "TN",
      "beds": null,
      "baths": null,
      "sqft": null,
      "lotSize": null,
      "lat": 35.052556,
      "lng": -90.071752
    },
    {
      "propertyId": null,
      "attomId": 17694981,
      "offerDate": "2024-02-08",
      "offerPrice": 25000,
      "status": "recorder",
      "isRebuilt": false,
      "address": "831 ALICE AVE, MEMPHIS TN",
      "city": "MEMPHIS",
      "state": "TN",
      "beds": null,
      "baths": null,
      "sqft": null,
      "lotSize": null,
      "lat": 35.09387,
      "lng": -90.035177
    },
    {
      "propertyId": null,
      "attomId": 193906203,
      "offerDate": "2024-02-08",
      "offerPrice": 10000,
      "status": "recorder",
      "isRebuilt": false,
      "address": "799 CHEROKEE AVE, MEMPHIS TN",
      "city": "MEMPHIS",
      "state": "TN",
      "beds": null,
      "baths": null,
      "sqft": null,
      "lotSize": null,
      "lat": 35.101825,
      "lng": -90.035917
    },
    {
      "propertyId": null,
      "attomId": 25678167,
      "offerDate": "2024-02-06",
      "offerPrice": 22000,
      "status": "recorder",
      "isRebuilt": false,
      "address": "728 N HOLMES ST, MEMPHIS TN",
      "city": "MEMPHIS",
      "state": "TN",
      "beds": null,
      "baths": null,
      "sqft": null,
      "lotSize": null,
      "lat": 35.152012,
      "lng": -89.951058
    },
    {
      "propertyId": null,
      "attomId": 147477442,
      "offerDate": "2024-02-06",
      "offerPrice": 5000,
      "status": "recorder",
      "isRebuilt": false,
      "address": "744 N MONTGOMERY ST, MEMPHIS TN",
      "city": "MEMPHIS",
      "state": "TN",
      "beds": null,
      "baths": null,
      "sqft": null,
      "lotSize": null,
      "lat": 35.159402,
      "lng": -90.017094
    },
    {
      "propertyId": null,
      "attomId": 7597866,
      "offerDate": "2024-01-26",
      "offerPrice": 32000,
      "status": "recorder",
      "isRebuilt": false,
      "address": "3453 MAYFLOWER AVE, MEMPHIS TN",
      "city": "MEMPHIS",
      "state": "TN",
      "beds": null,
      "baths": null,
      "sqft": null,
      "lotSize": null,
      "lat": 35.167885,
      "lng": -89.945415
    },
    {
      "propertyId": null,
      "attomId": 16803722,
      "offerDate": "2024-01-22",
      "offerPrice": 25000,
      "status": "recorder",
      "isRebuilt": false,
      "address": "2323 SHASTA AVE, MEMPHIS TN",
      "city": "MEMPHIS",
      "state": "TN",
      "beds": null,
      "baths": null,
      "sqft": null,
      "lotSize": null,
      "lat": 35.168713,
      "lng": -89.979841
    },
    {
      "propertyId": null,
      "attomId": 14019010,
      "offerDate": "2024-01-11",
      "offerPrice": 32000,
      "status": "recorder",
      "isRebuilt": false,
      "address": "766 MARECHALNEIL ST, MEMPHIS TN",
      "city": "MEMPHIS",
      "state": "TN",
      "beds": null,
      "baths": null,
      "sqft": null,
      "lotSize": null,
      "lat": 35.111351,
      "lng": -89.979269
    },
    {
      "propertyId": null,
      "attomId": 16780874,
      "offerDate": "2024-01-08",
      "offerPrice": 24500,
      "status": "recorder",
      "isRebuilt": false,
      "address": "629 E TRIGG AVE, MEMPHIS TN",
      "city": "MEMPHIS",
      "state": "TN",
      "beds": null,
      "baths": null,
      "sqft": null,
      "lotSize": null,
      "lat": 35.111848,
      "lng": -90.041384
    },
    {
      "propertyId": null,
      "attomId": 18815654,
      "offerDate": "2024-01-03",
      "offerPrice": 74550,
      "status": "recorder",
      "isRebuilt": false,
      "address": "2323 CHELSEA AVE, MEMPHIS TN",
      "city": "MEMPHIS",
      "state": "TN",
      "beds": null,
      "baths": null,
      "sqft": null,
      "lotSize": null,
      "lat": 35.174372,
      "lng": -89.979657
    },
    {
      "propertyId": null,
      "attomId": 195835126,
      "offerDate": "2024-01-02",
      "offerPrice": 27000,
      "status": "recorder",
      "isRebuilt": false,
      "address": "1650 S WELLINGTON ST, MEMPHIS TN",
      "city": "MEMPHIS",
      "state": "TN",
      "beds": null,
      "baths": null,
      "sqft": null,
      "lotSize": null,
      "lat": 35.102075,
      "lng": -90.04649
    }
  ]
}