{
  "investor": {
    "id": "0cb753a9-0a58-44ef-ae2c-aba05af7a194",
    "name": "gelver gonzalez",
    "email": "256webuyhouses@gmail.com",
    "phone": "+1 (256) 293-2920",
    "totalWon": 1,
    "totalBids": 9,
    "ytdWon": 0,
    "ytdBids": 2,
    "entities": [
      "CASAS PROPERTIES LLC"
    ]
  },
  "stats": {
    "totalTransactions2025": 12,
    "rebuiltTransactions": 1,
    "recorderTransactions": 27,
    "quarterlyStats": {
      "2024-Q1": {
        "rebuilt": 0,
        "total": 4
      },
      "2024-Q2": {
        "rebuilt": 0,
        "total": 4
      },
      "2024-Q3": {
        "rebuilt": 0,
        "total": 5
      },
      "2024-Q4": {
        "rebuilt": 0,
        "total": 2
      },
      "2025-Q1": {
        "rebuilt": 0,
        "total": 3
      },
      "2025-Q2": {
        "rebuilt": 1,
        "total": 3
      },
      "2025-Q3": {
        "rebuilt": 0,
        "total": 3
      },
      "2025-Q4": {
        "rebuilt": 0,
        "total": 3
      },
      "2026-Q1": {
        "rebuilt": 0,
        "total": 1
      }
    }
  },
  "properties": [
    {
      "propertyId": null,
      "attomId": 186384874,
      "offerDate": "2025-06-19",
      "offerPrice": 72500.0,
      "status": "won",
      "isRebuilt": true,
      "address": "309 MILTON ST, ALBERTVILLE al",
      "city": "ALBERTVILLE",
      "state": "al",
      "beds": null,
      "baths": null,
      "sqft": null,
      "lotSize": null,
      "lat": 34.263878,
      "lng": -86.213627
    },
    {
      "propertyId": null,
      "attomId": 202062128,
      "offerDate": "2025-11-05",
      "offerPrice": 134000,
      "status": "recorder",
      "isRebuilt": false,
      "address": "4966 ROSE RD, ALBERTVILLE AL",
      "city": "ALBERTVILLE",
      "state": "AL",
      "beds": null,
      "baths": null,
      "sqft": null,
      "lotSize": null,
      "lat": 34.341074,
      "lng": -86.227617
    },
    {
      "propertyId": null,
      "attomId": 240403618,
      "offerDate": "2025-10-21",
      "offerPrice": 65000,
      "status": "recorder",
      "isRebuilt": false,
      "address": "812 WILLIAMS ST, BOAZ AL",
      "city": "BOAZ",
      "state": "AL",
      "beds": null,
      "baths": null,
      "sqft": null,
      "lotSize": null,
      "lat": 34.208763,
      "lng": -86.156265
    },
    {
      "propertyId": null,
      "attomId": 190362198,
      "offerDate": "2025-08-28",
      "offerPrice": 115000,
      "status": "recorder",
      "isRebuilt": false,
      "address": "721 DARNELL ST, BOAZ AL",
      "city": "BOAZ",
      "state": "AL",
      "beds": null,
      "baths": null,
      "sqft": null,
      "lotSize": null,
      "lat": 34.208999,
      "lng": -86.162296
    },
    {
      "propertyId": null,
      "attomId": 200074749,
      "offerDate": "2025-07-24",
      "offerPrice": 90000,
      "status": "recorder",
      "isRebuilt": false,
      "address": "306 COLLEGE ST, ALBERTVILLE AL",
      "city": "ALBERTVILLE",
      "state": "AL",
      "beds": null,
      "baths": null,
      "sqft": null,
      "lotSize": null,
      "lat": 34.256939,
      "lng": -86.20913
    },
    {
      "propertyId": null,
      "attomId": 197851945,
      "offerDate": "2025-07-02",
      "offerPrice": 600000,
      "status": "recorder",
      "isRebuilt": false,
      "address": "5852 US HIGHWAY 431, ALBERTVILLE AL",
      "city": "ALBERTVILLE",
      "state": "AL",
      "beds": null,
      "baths": null,
      "sqft": null,
      "lotSize": null,
      "lat": 34.262862,
      "lng": -86.188701
    },
    {
      "propertyId": null,
      "attomId": 197471221,
      "offerDate": "2025-04-29",
      "offerPrice": 81000,
      "status": "recorder",
      "isRebuilt": false,
      "address": "110 CELIA AVE, ALBERTVILLE AL",
      "city": "ALBERTVILLE",
      "state": "AL",
      "beds": null,
      "baths": null,
      "sqft": null,
      "lotSize": null,
      "lat": 34.234288,
      "lng": -86.160183
    },
    {
      "propertyId": null,
      "attomId": 197030023,
      "offerDate": "2025-04-17",
      "offerPrice": 38500,
      "status": "recorder",
      "isRebuilt": false,
      "address": "1019 MOUNT VERNON RD, BOAZ AL",
      "city": "BOAZ",
      "state": "AL",
      "beds": null,
      "baths": null,
      "sqft": null,
      "lotSize": null,
      "lat": 34.210812,
      "lng": -86.180833
    },
    {
      "propertyId": null,
      "attomId": 187996982,
      "offerDate": "2025-02-03",
      "offerPrice": 100000,
      "status": "recorder",
      "isRebuilt": false,
      "address": "2065 ROSE RD, ALBERTVILLE AL",
      "city": "ALBERTVILLE",
      "state": "AL",
      "beds": null,
      "baths": null,
      "sqft": null,
      "lotSize": null,
      "lat": 34.299705,
      "lng": -86.228746
    },
    {
      "propertyId": null,
      "attomId": 187225849,
      "offerDate": "2024-12-16",
      "offerPrice": 35000,
      "status": "recorder",
      "isRebuilt": false,
      "address": "2778 HOBBS ISLAND RD SE, HUNTSVILLE AL",
      "city": "HUNTSVILLE",
      "state": "AL",
      "beds": null,
      "baths": null,
      "sqft": null,
      "lotSize": null,
      "lat": 34.527449,
      "lng": -86.504485
    },
    {
      "propertyId": null,
      "attomId": 144680584,
      "offerDate": "2024-12-16",
      "offerPrice": 60000,
      "status": "recorder",
      "isRebuilt": false,
      "address": "111 FAULKNER ST, ALBERTVILLE AL",
      "city": "ALBERTVILLE",
      "state": "AL",
      "beds": null,
      "baths": null,
      "sqft": null,
      "lotSize": null,
      "lat": 34.236592,
      "lng": -86.176926
    },
    {
      "propertyId": null,
      "attomId": 205007435,
      "offerDate": "2024-08-08",
      "offerPrice": 42000,
      "status": "recorder",
      "isRebuilt": false,
      "address": "3030 MARTLING GAP RD, ALBERTVILLE AL",
      "city": "ALBERTVILLE",
      "state": "AL",
      "beds": null,
      "baths": null,
      "sqft": null,
      "lotSize": null,
      "lat": 34.366857,
      "lng": -86.161302
    },
    {
      "propertyId": null,
      "attomId": 188254312,
      "offerDate": "2024-08-02",
      "offerPrice": 180000,
      "status": "recorder",
      "isRebuilt": false,
      "address": "1019 9TH ST NW, ARAB AL",
      "city": "ARAB",
      "state": "AL",
      "beds": null,
      "baths": null,
      "sqft": null,
      "lotSize": null,
      "lat": 34.334659,
      "lng": -86.509394
    },
    {
      "propertyId": null,
      "attomId": 190351323,
      "offerDate": "2024-08-02",
      "offerPrice": 135000,
      "status": "recorder",
      "isRebuilt": false,
      "address": "704 5TH AVE NE, ARAB AL",
      "city": "ARAB",
      "state": "AL",
      "beds": null,
      "baths": null,
      "sqft": null,
      "lotSize": null,
      "lat": 34.322205,
      "lng": -86.486651
    },
    {
      "propertyId": null,
      "attomId": 52844447,
      "offerDate": "2024-07-22",
      "offerPrice": 72500,
      "status": "recorder",
      "isRebuilt": false,
      "address": "223 3RD AVE NW, ARAB AL",
      "city": "ARAB",
      "state": "AL",
      "beds": null,
      "baths": null,
      "sqft": null,
      "lotSize": null,
      "lat": 34.319915,
      "lng": -86.498066
    },
    {
      "propertyId": null,
      "attomId": 155437012,
      "offerDate": "2024-07-18",
      "offerPrice": 90000,
      "status": "recorder",
      "isRebuilt": false,
      "address": "1179 BETHSAIDA RD, BOAZ AL",
      "city": "BOAZ",
      "state": "AL",
      "beds": null,
      "baths": null,
      "sqft": null,
      "lotSize": null,
      "lat": 34.1983,
      "lng": -86.14693
    },
    {
      "propertyId": null,
      "attomId": 153455614,
      "offerDate": "2024-04-30",
      "offerPrice": 16000,
      "status": "recorder",
      "isRebuilt": false,
      "address": "819 MAGGIE DR, BOAZ AL",
      "city": "BOAZ",
      "state": "AL",
      "beds": null,
      "baths": null,
      "sqft": null,
      "lotSize": null,
      "lat": 34.214454,
      "lng": -86.171279
    },
    {
      "propertyId": null,
      "attomId": 146021796,
      "offerDate": "2024-04-10",
      "offerPrice": 32500,
      "status": "recorder",
      "isRebuilt": false,
      "address": "301 HILLSMAN ST, ALBERTVILLE AL",
      "city": "ALBERTVILLE",
      "state": "AL",
      "beds": null,
      "baths": null,
      "sqft": null,
      "lotSize": null,
      "lat": 34.256139,
      "lng": -86.212876
    },
    {
      "propertyId": null,
      "attomId": 199800885,
      "offerDate": "2024-04-02",
      "offerPrice": 43500,
      "status": "recorder",
      "isRebuilt": false,
      "address": "200 FORD LN, ALBERTVILLE AL",
      "city": "ALBERTVILLE",
      "state": "AL",
      "beds": null,
      "baths": null,
      "sqft": null,
      "lotSize": null,
      "lat": 34.372408,
      "lng": -86.179321
    },
    {
      "propertyId": null,
      "attomId": 14548541,
      "offerDate": "2024-02-15",
      "offerPrice": 74000,
      "status": "recorder",
      "isRebuilt": false,
      "address": "210 MAPLE AVE, BOAZ AL",
      "city": "BOAZ",
      "state": "AL",
      "beds": null,
      "baths": null,
      "sqft": null,
      "lotSize": null,
      "lat": 34.203906,
      "lng": -86.163093
    },
    {
      "propertyId": null,
      "attomId": 54407923,
      "offerDate": "2024-01-22",
      "offerPrice": 80000,
      "status": "recorder",
      "isRebuilt": false,
      "address": "608 MOUNT SINAI RD, HORTON AL",
      "city": "HORTON",
      "state": "AL",
      "beds": null,
      "baths": null,
      "sqft": null,
      "lotSize": null,
      "lat": 34.219515,
      "lng": -86.342271
    },
    {
      "propertyId": null,
      "attomId": 153797011,
      "offerDate": "2024-01-22",
      "offerPrice": 50000,
      "status": "recorder",
      "isRebuilt": false,
      "address": "3101 NORTH ST, GUNTERSVILLE AL",
      "city": "GUNTERSVILLE",
      "state": "AL",
      "beds": null,
      "baths": null,
      "sqft": null,
      "lotSize": null,
      "lat": 34.316063,
      "lng": -86.313623
    },
    {
      "propertyId": null,
      "attomId": 318148861,
      "offerDate": "2026-03-10",
      "offerPrice": 385000,
      "status": "recorder",
      "isRebuilt": false,
      "address": "334 OCHRE ST, LEHIGHTON PA",
      "city": "LEHIGHTON",
      "state": "PA",
      "beds": null,
      "baths": null,
      "sqft": null,
      "lotSize": null,
      "lat": 40.83897399902344,
      "lng": -75.713824
    },
    {
      "propertyId": null,
      "attomId": 185681740,
      "offerDate": "2025-11-18",
      "offerPrice": 400000,
      "status": "recorder",
      "isRebuilt": false,
      "address": "4422 16TH AVE SE, LACEY WA",
      "city": "LACEY",
      "state": "WA",
      "beds": null,
      "baths": null,
      "sqft": null,
      "lotSize": null,
      "lat": 47.032241,
      "lng": -122.827744
    },
    {
      "propertyId": null,
      "attomId": 155335500,
      "offerDate": "2025-03-10",
      "offerPrice": 3000,
      "status": "recorder",
      "isRebuilt": false,
      "address": "6340 N DENVER AVE, TULSA OK",
      "city": "TULSA",
      "state": "OK",
      "beds": null,
      "baths": null,
      "sqft": null,
      "lotSize": null,
      "lat": 36.246589,
      "lng": -95.999426
    },
    {
      "propertyId": null,
      "attomId": 1001231258,
      "offerDate": "2025-02-06",
      "offerPrice": 515500,
      "status": "recorder",
      "isRebuilt": false,
      "address": "4547 STRATUS LN, CLEMMONS NC",
      "city": "CLEMMONS",
      "state": "NC",
      "beds": null,
      "baths": null,
      "sqft": null,
      "lotSize": null,
      "lat": 36.016004,
      "lng": -80.363012
    },
    {
      "propertyId": null,
      "attomId": 5073529,
      "offerDate": "2024-04-10",
      "offerPrice": 560000,
      "status": "recorder",
      "isRebuilt": false,
      "address": "12159 TRAVERTINE TRL, JACKSONVILLE FL",
      "city": "JACKSONVILLE",
      "state": "FL",
      "beds": null,
      "baths": null,
      "sqft": null,
      "lotSize": null,
      "lat": 30.147702,
      "lng": -81.620343
    },
    {
      "propertyId": null,
      "attomId": 8941464,
      "offerDate": "2024-01-29",
      "offerPrice": 295000,
      "status": "recorder",
      "isRebuilt": false,
      "address": "119 MOSS RD, COVINGTON GA",
      "city": "COVINGTON",
      "state": "GA",
      "beds": null,
      "baths": null,
      "sqft": null,
      "lotSize": null,
      "lat": 33.528103,
      "lng": -83.866608
    }
  ]
}