{
  "investor": {
    "id": "16519db0-1d1a-4f30-a36f-91fae6320cf4",
    "name": "Rickey Joseph",
    "email": "Rjoseph2@cinci.rr.com",
    "phone": "+1 (513) 225-9570",
    "totalWon": 1,
    "totalBids": 3,
    "ytdWon": 0,
    "ytdBids": 0,
    "entities": [
      "DESTINY DEVELOPMENT X LLC"
    ]
  },
  "stats": {
    "totalTransactions2025": 11,
    "rebuiltTransactions": 0,
    "recorderTransactions": 17,
    "quarterlyStats": {
      "2025-Q1": {
        "rebuilt": 0,
        "total": 5
      },
      "2025-Q2": {
        "rebuilt": 0,
        "total": 1
      },
      "2025-Q3": {
        "rebuilt": 0,
        "total": 3
      },
      "2025-Q4": {
        "rebuilt": 0,
        "total": 2
      },
      "2026-Q1": {
        "rebuilt": 0,
        "total": 0
      }
    }
  },
  "properties": [
    {
      "propertyId": null,
      "attomId": 50223967,
      "offerDate": "2025-12-23",
      "offerPrice": 160000,
      "status": "recorder",
      "isRebuilt": false,
      "address": "2400 MIDDLETOWN EATON RD, MIDDLETOWN OH",
      "city": "MIDDLETOWN",
      "state": "OH",
      "beds": null,
      "baths": null,
      "sqft": null,
      "lotSize": null,
      "lat": 39.542222,
      "lng": -84.478091
    },
    {
      "propertyId": null,
      "attomId": 164079458,
      "offerDate": "2025-10-02",
      "offerPrice": 365000,
      "status": "recorder",
      "isRebuilt": false,
      "address": "880 MANDALAY AVE APT C1013, CLEARWATER FL",
      "city": "CLEARWATER",
      "state": "FL",
      "beds": null,
      "baths": null,
      "sqft": null,
      "lotSize": null,
      "lat": 27.997621,
      "lng": -82.827352
    },
    {
      "propertyId": null,
      "attomId": 44156450,
      "offerDate": "2025-09-11",
      "offerPrice": 352430,
      "status": "recorder",
      "isRebuilt": false,
      "address": "745 COMPTON RD, CINCINNATI OH",
      "city": "CINCINNATI",
      "state": "OH",
      "beds": null,
      "baths": null,
      "sqft": null,
      "lotSize": null,
      "lat": 39.229105,
      "lng": -84.508814
    },
    {
      "propertyId": null,
      "attomId": 26078304,
      "offerDate": "2025-08-14",
      "offerPrice": 200000,
      "status": "recorder",
      "isRebuilt": false,
      "address": "1690 MIDDLETOWN EATON RD, MIDDLETOWN OH",
      "city": "MIDDLETOWN",
      "state": "OH",
      "beds": null,
      "baths": null,
      "sqft": null,
      "lotSize": null,
      "lat": 39.535086,
      "lng": -84.455863
    },
    {
      "propertyId": null,
      "attomId": 183110896,
      "offerDate": "2025-07-02",
      "offerPrice": 252500,
      "status": "recorder",
      "isRebuilt": false,
      "address": "8741 BECKYS RIDGE DR, CINCINNATI OH",
      "city": "CINCINNATI",
      "state": "OH",
      "beds": null,
      "baths": null,
      "sqft": null,
      "lotSize": null,
      "lat": 39.229764,
      "lng": -84.579106
    },
    {
      "propertyId": null,
      "attomId": 183074994,
      "offerDate": "2025-03-26",
      "offerPrice": 200000,
      "status": "recorder",
      "isRebuilt": false,
      "address": "3640 HERSCHEL AVE, CINCINNATI OH",
      "city": "CINCINNATI",
      "state": "OH",
      "beds": null,
      "baths": null,
      "sqft": null,
      "lotSize": null,
      "lat": 39.142489,
      "lng": -84.419977
    },
    {
      "propertyId": null,
      "attomId": 146367199,
      "offerDate": "2025-01-29",
      "offerPrice": 169000,
      "status": "recorder",
      "isRebuilt": false,
      "address": "349 HALIDONHILL LN, CINCINNATI OH",
      "city": "CINCINNATI",
      "state": "OH",
      "beds": null,
      "baths": null,
      "sqft": null,
      "lotSize": null,
      "lat": 39.091424,
      "lng": -84.612016
    },
    {
      "propertyId": null,
      "attomId": 182050125,
      "offerDate": "2024-08-20",
      "offerPrice": 200000,
      "status": "recorder",
      "isRebuilt": false,
      "address": "994 NILLES RD, FAIRFIELD OH",
      "city": "FAIRFIELD",
      "state": "OH",
      "beds": null,
      "baths": null,
      "sqft": null,
      "lotSize": null,
      "lat": 39.33809,
      "lng": -84.547778
    },
    {
      "propertyId": null,
      "attomId": 182050124,
      "offerDate": "2024-08-19",
      "offerPrice": 200000,
      "status": "recorder",
      "isRebuilt": false,
      "address": "1004 NILLES RD, FAIRFIELD OH",
      "city": "FAIRFIELD",
      "state": "OH",
      "beds": null,
      "baths": null,
      "sqft": null,
      "lotSize": null,
      "lat": 39.337962,
      "lng": -84.547508
    },
    {
      "propertyId": null,
      "attomId": 183121333,
      "offerDate": "2024-07-31",
      "offerPrice": 62500,
      "status": "recorder",
      "isRebuilt": false,
      "address": "7375 WESSELMAN RD, CLEVES OH",
      "city": "CLEVES",
      "state": "OH",
      "beds": null,
      "baths": null,
      "sqft": null,
      "lotSize": null,
      "lat": 39.193229,
      "lng": -84.683536
    },
    {
      "propertyId": null,
      "attomId": 17709454,
      "offerDate": "2024-06-24",
      "offerPrice": 140000,
      "status": "recorder",
      "isRebuilt": false,
      "address": "2906 GRAND AVE, MIDDLETOWN OH",
      "city": "MIDDLETOWN",
      "state": "OH",
      "beds": null,
      "baths": null,
      "sqft": null,
      "lotSize": null,
      "lat": 39.504097,
      "lng": -84.376272
    },
    {
      "propertyId": null,
      "attomId": 194624848,
      "offerDate": "2025-05-23",
      "offerPrice": 899000,
      "status": "recorder",
      "isRebuilt": false,
      "address": "225 NUTLEY ST, ASHLAND OR",
      "city": "ASHLAND",
      "state": "OR",
      "beds": null,
      "baths": null,
      "sqft": null,
      "lotSize": null,
      "lat": 42.195028,
      "lng": -122.722589
    },
    {
      "propertyId": null,
      "attomId": 14063981,
      "offerDate": "2025-02-25",
      "offerPrice": 230000,
      "status": "recorder",
      "isRebuilt": false,
      "address": "310 W WHISPERING OAKS LN # 3-1, ROUND LAKE IL",
      "city": "ROUND LAKE",
      "state": "IL",
      "beds": null,
      "baths": null,
      "sqft": null,
      "lotSize": null,
      "lat": 42.34977,
      "lng": -88.089258
    },
    {
      "propertyId": null,
      "attomId": 2553882,
      "offerDate": "2025-02-14",
      "offerPrice": 425000,
      "status": "recorder",
      "isRebuilt": false,
      "address": "556 55TH ST S, BIRMINGHAM AL",
      "city": "BIRMINGHAM",
      "state": "AL",
      "beds": null,
      "baths": null,
      "sqft": null,
      "lotSize": null,
      "lat": 33.535517,
      "lng": -86.7506
    },
    {
      "propertyId": null,
      "attomId": 198566646,
      "offerDate": "2025-01-07",
      "offerPrice": 275000,
      "status": "recorder",
      "isRebuilt": false,
      "address": "1506 OLD PARDUE RD, LANCASTER SC",
      "city": "LANCASTER",
      "state": "SC",
      "beds": null,
      "baths": null,
      "sqft": null,
      "lotSize": null,
      "lat": 34.775257,
      "lng": -80.744979
    },
    {
      "propertyId": null,
      "attomId": 171889663,
      "offerDate": "2024-07-11",
      "offerPrice": 450000,
      "status": "recorder",
      "isRebuilt": false,
      "address": "406 DEVON BROOK CT, LAWRENCEVILLE GA",
      "city": "LAWRENCEVILLE",
      "state": "GA",
      "beds": null,
      "baths": null,
      "sqft": null,
      "lotSize": null,
      "lat": 34.004466,
      "lng": -83.981543
    },
    {
      "propertyId": null,
      "attomId": 40683346,
      "offerDate": "2024-06-04",
      "offerPrice": 1940000,
      "status": "recorder",
      "isRebuilt": false,
      "address": "159 LAKE VALLEY RD, HENDERSONVILLE TN",
      "city": "HENDERSONVILLE",
      "state": "TN",
      "beds": null,
      "baths": null,
      "sqft": null,
      "lotSize": null,
      "lat": 36.28822,
      "lng": -86.572814
    }
  ]
}