{
  "investor": {
    "id": "330c2f52-34cc-481c-949d-98dca51aba8c",
    "name": "Jason Heaton",
    "email": "household@epbfi.com",
    "phone": "+1 (423) 596-4763",
    "totalWon": 1,
    "totalBids": 1,
    "ytdWon": 0,
    "ytdBids": 0,
    "entities": [
      "BENJAMIN MOORE",
      "JASON HEATON"
    ]
  },
  "stats": {
    "totalTransactions2025": 13,
    "rebuiltTransactions": 1,
    "recorderTransactions": 24,
    "quarterlyStats": {
      "2024-Q1": {
        "rebuilt": 1,
        "total": 4
      },
      "2024-Q2": {
        "rebuilt": 0,
        "total": 2
      },
      "2024-Q3": {
        "rebuilt": 0,
        "total": 1
      },
      "2024-Q4": {
        "rebuilt": 0,
        "total": 3
      },
      "2025-Q1": {
        "rebuilt": 0,
        "total": 4
      },
      "2025-Q2": {
        "rebuilt": 0,
        "total": 1
      },
      "2025-Q3": {
        "rebuilt": 0,
        "total": 6
      },
      "2025-Q4": {
        "rebuilt": 0,
        "total": 2
      },
      "2026-Q1": {
        "rebuilt": 0,
        "total": 2
      }
    }
  },
  "properties": [
    {
      "propertyId": null,
      "attomId": 149483003,
      "offerDate": "2024-01-11",
      "offerPrice": 92000.0,
      "status": "won",
      "isRebuilt": true,
      "address": "62 CENTER DR, CHICKAMAUGA ga",
      "city": "CHICKAMAUGA",
      "state": "ga",
      "beds": null,
      "baths": null,
      "sqft": null,
      "lotSize": null,
      "lat": 34.84,
      "lng": -85.32
    },
    {
      "propertyId": null,
      "attomId": 54457334,
      "offerDate": "2026-01-16",
      "offerPrice": 850000,
      "status": "recorder",
      "isRebuilt": false,
      "address": "10512 MOON VIEW WAY, ESCONDIDO CA",
      "city": "ESCONDIDO",
      "state": "CA",
      "beds": null,
      "baths": null,
      "sqft": null,
      "lotSize": null,
      "lat": 33.218823,
      "lng": -117.105479
    },
    {
      "propertyId": null,
      "attomId": 335734066,
      "offerDate": "2025-11-03",
      "offerPrice": 514000,
      "status": "recorder",
      "isRebuilt": false,
      "address": "6809 HALEX GRV, COLORADO SPRINGS CO",
      "city": "COLORADO SPRINGS",
      "state": "CO",
      "beds": null,
      "baths": null,
      "sqft": null,
      "lotSize": null,
      "lat": 38.733823,
      "lng": -104.437006
    },
    {
      "propertyId": null,
      "attomId": 46894671,
      "offerDate": "2025-10-16",
      "offerPrice": 25000,
      "status": "recorder",
      "isRebuilt": false,
      "address": "557 SOUTH AVE, TOLEDO OH",
      "city": "TOLEDO",
      "state": "OH",
      "beds": null,
      "baths": null,
      "sqft": null,
      "lotSize": null,
      "lat": 41.630491,
      "lng": -83.552463
    },
    {
      "propertyId": null,
      "attomId": 32966575,
      "offerDate": "2025-09-09",
      "offerPrice": 329500,
      "status": "recorder",
      "isRebuilt": false,
      "address": "220 LINKS DR, MARYSVILLE OH",
      "city": "MARYSVILLE",
      "state": "OH",
      "beds": null,
      "baths": null,
      "sqft": null,
      "lotSize": null,
      "lat": 40.214747,
      "lng": -83.373447
    },
    {
      "propertyId": null,
      "attomId": 232577970,
      "offerDate": "2025-08-19",
      "offerPrice": 244000,
      "status": "recorder",
      "isRebuilt": false,
      "address": "210 S JOHNSON ST, BURGAW NC",
      "city": "BURGAW",
      "state": "NC",
      "beds": null,
      "baths": null,
      "sqft": null,
      "lotSize": null,
      "lat": null,
      "lng": null
    },
    {
      "propertyId": null,
      "attomId": 178248497,
      "offerDate": "2025-07-10",
      "offerPrice": 690000,
      "status": "recorder",
      "isRebuilt": false,
      "address": "225 BIDDLE DR, EXTON PA",
      "city": "EXTON",
      "state": "PA",
      "beds": null,
      "baths": null,
      "sqft": null,
      "lotSize": null,
      "lat": 40.040824,
      "lng": -75.651598
    },
    {
      "propertyId": null,
      "attomId": 1001047864,
      "offerDate": "2025-07-07",
      "offerPrice": 379990,
      "status": "recorder",
      "isRebuilt": false,
      "address": "40 FINDLEY TRL, PORT WENTWORTH GA",
      "city": "PORT WENTWORTH",
      "state": "GA",
      "beds": null,
      "baths": null,
      "sqft": null,
      "lotSize": null,
      "lat": null,
      "lng": null
    },
    {
      "propertyId": null,
      "attomId": 335023340,
      "offerDate": "2025-07-07",
      "offerPrice": 560490,
      "status": "recorder",
      "isRebuilt": false,
      "address": "19307 W MARISSA DR, LITCHFIELD PARK AZ",
      "city": "LITCHFIELD PARK",
      "state": "AZ",
      "beds": null,
      "baths": null,
      "sqft": null,
      "lotSize": null,
      "lat": 33.521607,
      "lng": -112.474651
    },
    {
      "propertyId": null,
      "attomId": 41659960,
      "offerDate": "2025-06-26",
      "offerPrice": 394000,
      "status": "recorder",
      "isRebuilt": false,
      "address": "2668 N ELIZABETH HARBOR DR, CHESAPEAKE VA",
      "city": "CHESAPEAKE",
      "state": "VA",
      "beds": null,
      "baths": null,
      "sqft": null,
      "lotSize": null,
      "lat": 36.835043,
      "lng": -76.415008
    },
    {
      "propertyId": null,
      "attomId": 48057298,
      "offerDate": "2025-02-18",
      "offerPrice": 650000,
      "status": "recorder",
      "isRebuilt": false,
      "address": "7104 S OAK RD, SPOKANE WA",
      "city": "SPOKANE",
      "state": "WA",
      "beds": null,
      "baths": null,
      "sqft": null,
      "lotSize": null,
      "lat": 47.588902,
      "lng": -117.441837
    },
    {
      "propertyId": null,
      "attomId": 22438245,
      "offerDate": "2025-02-13",
      "offerPrice": 112000,
      "status": "recorder",
      "isRebuilt": false,
      "address": "2645 GRESHAM RD SE, ATLANTA GA",
      "city": "ATLANTA",
      "state": "GA",
      "beds": null,
      "baths": null,
      "sqft": null,
      "lotSize": null,
      "lat": 33.71086,
      "lng": -84.309604
    },
    {
      "propertyId": null,
      "attomId": 218745892,
      "offerDate": "2025-02-07",
      "offerPrice": 281000,
      "status": "recorder",
      "isRebuilt": false,
      "address": "1405 E BLACKMORE RD, MAYVILLE MI",
      "city": "MAYVILLE",
      "state": "MI",
      "beds": null,
      "baths": null,
      "sqft": null,
      "lotSize": null,
      "lat": 43.372039,
      "lng": -83.366354
    },
    {
      "propertyId": null,
      "attomId": 1001634554,
      "offerDate": "2024-12-16",
      "offerPrice": 75000,
      "status": "recorder",
      "isRebuilt": false,
      "address": "101 RAINEY LAKE RD, BUCHANAN GA",
      "city": "BUCHANAN",
      "state": "GA",
      "beds": null,
      "baths": null,
      "sqft": null,
      "lotSize": null,
      "lat": 33.896769,
      "lng": -85.213638
    },
    {
      "propertyId": null,
      "attomId": 295760471,
      "offerDate": "2024-09-10",
      "offerPrice": 165000,
      "status": "recorder",
      "isRebuilt": false,
      "address": "155 MYRTLE AVE, FRANKFORT KY",
      "city": "FRANKFORT",
      "state": "KY",
      "beds": null,
      "baths": null,
      "sqft": null,
      "lotSize": null,
      "lat": 38.200986,
      "lng": -84.841128
    },
    {
      "propertyId": null,
      "attomId": 162309415,
      "offerDate": "2024-06-14",
      "offerPrice": 270000,
      "status": "recorder",
      "isRebuilt": false,
      "address": "1000 WEST AVE APT 805, MIAMI BEACH FL",
      "city": "MIAMI BEACH",
      "state": "FL",
      "beds": null,
      "baths": null,
      "sqft": null,
      "lotSize": null,
      "lat": 25.781042,
      "lng": -80.142713
    },
    {
      "propertyId": null,
      "attomId": 199454120,
      "offerDate": "2024-02-20",
      "offerPrice": 137900,
      "status": "recorder",
      "isRebuilt": false,
      "address": "1110 CHURCH ST, NORTH ADAMS MA",
      "city": "NORTH ADAMS",
      "state": "MA",
      "beds": null,
      "baths": null,
      "sqft": null,
      "lotSize": null,
      "lat": 42.671966,
      "lng": -73.097934
    },
    {
      "propertyId": null,
      "attomId": 28893116,
      "offerDate": "2024-01-09",
      "offerPrice": 1510000,
      "status": "recorder",
      "isRebuilt": false,
      "address": "18042 HOMESTEAD MANOR DR, WILDWOOD MO",
      "city": "WILDWOOD",
      "state": "MO",
      "beds": null,
      "baths": null,
      "sqft": null,
      "lotSize": null,
      "lat": 38.602021,
      "lng": -90.677537
    },
    {
      "propertyId": null,
      "attomId": 200592619,
      "offerDate": "2026-02-06",
      "offerPrice": 180211,
      "status": "recorder",
      "isRebuilt": false,
      "address": "1082 GIVENS RD, CHATTANOOGA TN",
      "city": "CHATTANOOGA",
      "state": "TN",
      "beds": null,
      "baths": null,
      "sqft": null,
      "lotSize": null,
      "lat": 35.001729,
      "lng": -85.141448
    },
    {
      "propertyId": null,
      "attomId": 149270342,
      "offerDate": "2025-07-07",
      "offerPrice": 175000,
      "status": "recorder",
      "isRebuilt": false,
      "address": "4573 TRICIA DR, CHATTANOOGA TN",
      "city": "CHATTANOOGA",
      "state": "TN",
      "beds": null,
      "baths": null,
      "sqft": null,
      "lotSize": null,
      "lat": 35.08405,
      "lng": -85.181113
    },
    {
      "propertyId": null,
      "attomId": 31111509,
      "offerDate": "2025-01-16",
      "offerPrice": 183000,
      "status": "recorder",
      "isRebuilt": false,
      "address": "27 ELAINE CIR, FORT OGLETHORPE GA",
      "city": "FORT OGLETHORPE",
      "state": "GA",
      "beds": null,
      "baths": null,
      "sqft": null,
      "lotSize": null,
      "lat": 34.946144,
      "lng": -85.245971
    },
    {
      "propertyId": null,
      "attomId": 193927493,
      "offerDate": "2024-10-31",
      "offerPrice": 156000,
      "status": "recorder",
      "isRebuilt": false,
      "address": "7730 VILLAGE WAY DR, HIXSON TN",
      "city": "HIXSON",
      "state": "TN",
      "beds": null,
      "baths": null,
      "sqft": null,
      "lotSize": null,
      "lat": 35.195445,
      "lng": -85.204463
    },
    {
      "propertyId": null,
      "attomId": 22925495,
      "offerDate": "2024-10-30",
      "offerPrice": 137700,
      "status": "recorder",
      "isRebuilt": false,
      "address": "1043 E CIRCLE DR, ROSSVILLE GA",
      "city": "ROSSVILLE",
      "state": "GA",
      "beds": null,
      "baths": null,
      "sqft": null,
      "lotSize": null,
      "lat": 34.907934,
      "lng": -85.322053
    },
    {
      "propertyId": null,
      "attomId": 2331647,
      "offerDate": "2024-04-09",
      "offerPrice": 243000,
      "status": "recorder",
      "isRebuilt": false,
      "address": "1910 CLEMATIS DR, HIXSON TN",
      "city": "HIXSON",
      "state": "TN",
      "beds": null,
      "baths": null,
      "sqft": null,
      "lotSize": null,
      "lat": 35.132731,
      "lng": -85.192075
    },
    {
      "propertyId": null,
      "attomId": 198324319,
      "offerDate": "2024-03-19",
      "offerPrice": 210000,
      "status": "recorder",
      "isRebuilt": false,
      "address": "218 MAPLETON DR NW, CLEVELAND TN",
      "city": "CLEVELAND",
      "state": "TN",
      "beds": null,
      "baths": null,
      "sqft": null,
      "lotSize": null,
      "lat": 35.232642,
      "lng": -84.846115
    }
  ]
}