{
  "investor": {
    "id": "4f21f2a9-95a2-49e9-a9c5-7dde9346a5da",
    "name": "Sarah Scott",
    "email": "sscottre22@gmail.com",
    "phone": "+1 (618) 499-8618",
    "totalWon": 1,
    "totalBids": 5,
    "ytdWon": 0,
    "ytdBids": 0,
    "entities": [
      "RYAN YOUNG"
    ]
  },
  "stats": {
    "totalTransactions2025": 17,
    "rebuiltTransactions": 1,
    "recorderTransactions": 41,
    "quarterlyStats": {
      "2024-Q1": {
        "rebuilt": 0,
        "total": 10
      },
      "2024-Q2": {
        "rebuilt": 1,
        "total": 2
      },
      "2024-Q3": {
        "rebuilt": 0,
        "total": 6
      },
      "2024-Q4": {
        "rebuilt": 0,
        "total": 3
      },
      "2025-Q1": {
        "rebuilt": 0,
        "total": 2
      },
      "2025-Q2": {
        "rebuilt": 0,
        "total": 4
      },
      "2025-Q3": {
        "rebuilt": 0,
        "total": 6
      },
      "2025-Q4": {
        "rebuilt": 0,
        "total": 5
      },
      "2026-Q1": {
        "rebuilt": 0,
        "total": 4
      }
    }
  },
  "properties": [
    {
      "propertyId": null,
      "attomId": 819294,
      "offerDate": "2024-06-20",
      "offerPrice": 62500.0,
      "status": "won",
      "isRebuilt": true,
      "address": "105 FORT HILL RD, WAVERLY tn",
      "city": "WAVERLY",
      "state": "tn",
      "beds": null,
      "baths": null,
      "sqft": null,
      "lotSize": null,
      "lat": 36.079398,
      "lng": -87.7938874
    },
    {
      "propertyId": null,
      "attomId": 155161670,
      "offerDate": "2026-01-23",
      "offerPrice": 475000,
      "status": "recorder",
      "isRebuilt": false,
      "address": "17 MARTINS RD, HUGUENOT NY",
      "city": "HUGUENOT",
      "state": "NY",
      "beds": null,
      "baths": null,
      "sqft": null,
      "lotSize": null,
      "lat": 41.418772,
      "lng": -74.643282
    },
    {
      "propertyId": null,
      "attomId": 248031409,
      "offerDate": "2026-01-15",
      "offerPrice": 285000,
      "status": "recorder",
      "isRebuilt": false,
      "address": "2112 POMEGRANATE CT, FORT WALTON BEACH FL",
      "city": "FORT WALTON BEACH",
      "state": "FL",
      "beds": null,
      "baths": null,
      "sqft": null,
      "lotSize": null,
      "lat": 30.462699,
      "lng": -86.627239
    },
    {
      "propertyId": null,
      "attomId": 5286361,
      "offerDate": "2026-01-14",
      "offerPrice": 240000,
      "status": "recorder",
      "isRebuilt": false,
      "address": "4060 BUCHANAN AVE SW, WYOMING MI",
      "city": "WYOMING",
      "state": "MI",
      "beds": null,
      "baths": null,
      "sqft": null,
      "lotSize": null,
      "lat": 42.889745,
      "lng": -85.669639
    },
    {
      "propertyId": null,
      "attomId": 185630372,
      "offerDate": "2026-01-12",
      "offerPrice": 895000,
      "status": "recorder",
      "isRebuilt": false,
      "address": "2117 54TH STREET CT NE, TACOMA WA",
      "city": "TACOMA",
      "state": "WA",
      "beds": null,
      "baths": null,
      "sqft": null,
      "lotSize": null,
      "lat": 47.306452,
      "lng": -122.418868
    },
    {
      "propertyId": null,
      "attomId": 31426144,
      "offerDate": "2025-11-12",
      "offerPrice": 787500,
      "status": "recorder",
      "isRebuilt": false,
      "address": "6067 N OCONTO AVE, CHICAGO IL",
      "city": "CHICAGO",
      "state": "IL",
      "beds": null,
      "baths": null,
      "sqft": null,
      "lotSize": null,
      "lat": 41.991858,
      "lng": -87.807988
    },
    {
      "propertyId": null,
      "attomId": 8748844,
      "offerDate": "2025-10-31",
      "offerPrice": 445000,
      "status": "recorder",
      "isRebuilt": false,
      "address": "3 LAKESIDE DR, WESTERLY RI",
      "city": "WESTERLY",
      "state": "RI",
      "beds": null,
      "baths": null,
      "sqft": null,
      "lotSize": null,
      "lat": 41.377366,
      "lng": -71.788261
    },
    {
      "propertyId": null,
      "attomId": 33442850,
      "offerDate": "2025-10-23",
      "offerPrice": 182500,
      "status": "recorder",
      "isRebuilt": false,
      "address": "708 GRAY ST, MOUNT PLEASANT TN",
      "city": "MOUNT PLEASANT",
      "state": "TN",
      "beds": null,
      "baths": null,
      "sqft": null,
      "lotSize": null,
      "lat": 35.527008,
      "lng": -87.208813
    },
    {
      "propertyId": null,
      "attomId": 320339198,
      "offerDate": "2025-10-17",
      "offerPrice": 1100000,
      "status": "recorder",
      "isRebuilt": false,
      "address": "1444 TELEGRAPH RD, WEST CHESTER PA",
      "city": "WEST CHESTER",
      "state": "PA",
      "beds": null,
      "baths": null,
      "sqft": null,
      "lotSize": null,
      "lat": 39.951735,
      "lng": -75.689305
    },
    {
      "propertyId": null,
      "attomId": 42931277,
      "offerDate": "2025-10-08",
      "offerPrice": 579000,
      "status": "recorder",
      "isRebuilt": false,
      "address": "6448 STINSON RD, ARCADE NY",
      "city": "ARCADE",
      "state": "NY",
      "beds": null,
      "baths": null,
      "sqft": null,
      "lotSize": null,
      "lat": 42.587478,
      "lng": -78.364727
    },
    {
      "propertyId": null,
      "attomId": 324055295,
      "offerDate": "2025-09-22",
      "offerPrice": 175000,
      "status": "recorder",
      "isRebuilt": false,
      "address": "235 ADAMS ST, MAYNARD IA",
      "city": "MAYNARD",
      "state": "IA",
      "beds": null,
      "baths": null,
      "sqft": null,
      "lotSize": null,
      "lat": 42.771436,
      "lng": -91.879432
    },
    {
      "propertyId": null,
      "attomId": 197367713,
      "offerDate": "2025-09-05",
      "offerPrice": 235000,
      "status": "recorder",
      "isRebuilt": false,
      "address": "105 SHADOW CT SW, HUNTSVILLE AL",
      "city": "HUNTSVILLE",
      "state": "AL",
      "beds": null,
      "baths": null,
      "sqft": null,
      "lotSize": null,
      "lat": 34.64013,
      "lng": -86.719469
    },
    {
      "propertyId": null,
      "attomId": 54679862,
      "offerDate": "2025-08-29",
      "offerPrice": 456000,
      "status": "recorder",
      "isRebuilt": false,
      "address": "2838 VAN AVE, EUGENE OR",
      "city": "EUGENE",
      "state": "OR",
      "beds": null,
      "baths": null,
      "sqft": null,
      "lotSize": null,
      "lat": 44.076685,
      "lng": -123.06406
    },
    {
      "propertyId": null,
      "attomId": 194733723,
      "offerDate": "2025-08-28",
      "offerPrice": 995000,
      "status": "recorder",
      "isRebuilt": false,
      "address": "40 KING PHILIP DR, REHOBOTH MA",
      "city": "REHOBOTH",
      "state": "MA",
      "beds": null,
      "baths": null,
      "sqft": null,
      "lotSize": null,
      "lat": 41.91064,
      "lng": -71.232429
    },
    {
      "propertyId": null,
      "attomId": 1001015250,
      "offerDate": "2025-08-26",
      "offerPrice": 1057500,
      "status": "recorder",
      "isRebuilt": false,
      "address": "1400 ANACONA PL UNIT 201, ENCINITAS CA",
      "city": "ENCINITAS",
      "state": "CA",
      "beds": null,
      "baths": null,
      "sqft": null,
      "lotSize": null,
      "lat": null,
      "lng": null
    },
    {
      "propertyId": null,
      "attomId": 218677356,
      "offerDate": "2025-07-21",
      "offerPrice": 205800,
      "status": "recorder",
      "isRebuilt": false,
      "address": "404 PARKER AVE, KALAMAZOO MI",
      "city": "KALAMAZOO",
      "state": "MI",
      "beds": null,
      "baths": null,
      "sqft": null,
      "lotSize": null,
      "lat": 42.254047,
      "lng": -85.587384
    },
    {
      "propertyId": null,
      "attomId": 296701256,
      "offerDate": "2025-06-26",
      "offerPrice": 188000,
      "status": "recorder",
      "isRebuilt": false,
      "address": "8250 HIGHWAY 26, ROCKHOLDS KY",
      "city": "ROCKHOLDS",
      "state": "KY",
      "beds": null,
      "baths": null,
      "sqft": null,
      "lotSize": null,
      "lat": 36.835494,
      "lng": -84.11742
    },
    {
      "propertyId": null,
      "attomId": 1001887823,
      "offerDate": "2025-05-08",
      "offerPrice": 532000,
      "status": "recorder",
      "isRebuilt": false,
      "address": "2006 GRASSLAND AVE, GRAFTON WI",
      "city": "GRAFTON",
      "state": "WI",
      "beds": null,
      "baths": null,
      "sqft": null,
      "lotSize": null,
      "lat": null,
      "lng": null
    },
    {
      "propertyId": null,
      "attomId": 24442129,
      "offerDate": "2025-05-01",
      "offerPrice": 300000,
      "status": "recorder",
      "isRebuilt": false,
      "address": "1011 LOWRY AVE, DURHAM NC",
      "city": "DURHAM",
      "state": "NC",
      "beds": null,
      "baths": null,
      "sqft": null,
      "lotSize": null,
      "lat": 35.997167,
      "lng": -78.883366
    },
    {
      "propertyId": null,
      "attomId": 234814114,
      "offerDate": "2025-04-16",
      "offerPrice": 460000,
      "status": "recorder",
      "isRebuilt": false,
      "address": "7809 LONG ACRE ST, MONTGOMERY AL",
      "city": "MONTGOMERY",
      "state": "AL",
      "beds": null,
      "baths": null,
      "sqft": null,
      "lotSize": null,
      "lat": 32.310988,
      "lng": -86.184511
    },
    {
      "propertyId": null,
      "attomId": 288540894,
      "offerDate": "2025-03-24",
      "offerPrice": 153000,
      "status": "recorder",
      "isRebuilt": false,
      "address": "1214 SYCAMORE ST, NILES MI",
      "city": "NILES",
      "state": "MI",
      "beds": null,
      "baths": null,
      "sqft": null,
      "lotSize": null,
      "lat": 41.830421,
      "lng": -86.244808
    },
    {
      "propertyId": null,
      "attomId": 54693450,
      "offerDate": "2025-01-23",
      "offerPrice": 225000,
      "status": "recorder",
      "isRebuilt": false,
      "address": "151 HORTON ST, WINDER GA",
      "city": "WINDER",
      "state": "GA",
      "beds": null,
      "baths": null,
      "sqft": null,
      "lotSize": null,
      "lat": 33.985536,
      "lng": -83.735823
    },
    {
      "propertyId": null,
      "attomId": 40598836,
      "offerDate": "2024-12-23",
      "offerPrice": 53000,
      "status": "recorder",
      "isRebuilt": false,
      "address": "19645 LITTLE WOODS RD, COTTONWOOD CA",
      "city": "COTTONWOOD",
      "state": "CA",
      "beds": null,
      "baths": null,
      "sqft": null,
      "lotSize": null,
      "lat": 40.397564,
      "lng": -122.325195
    },
    {
      "propertyId": null,
      "attomId": 41143605,
      "offerDate": "2024-12-12",
      "offerPrice": 275000,
      "status": "recorder",
      "isRebuilt": false,
      "address": "224 HEFTNER CIR, MAINEVILLE OH",
      "city": "MAINEVILLE",
      "state": "OH",
      "beds": null,
      "baths": null,
      "sqft": null,
      "lotSize": null,
      "lat": 39.321375,
      "lng": -84.215987
    },
    {
      "propertyId": null,
      "attomId": 331337925,
      "offerDate": "2024-10-07",
      "offerPrice": 365765,
      "status": "recorder",
      "isRebuilt": false,
      "address": "17893 DELANEY DR, GREENWELL SPRINGS LA",
      "city": "GREENWELL SPRINGS",
      "state": "LA",
      "beds": null,
      "baths": null,
      "sqft": null,
      "lotSize": null,
      "lat": 30.53824,
      "lng": -91.095617
    },
    {
      "propertyId": null,
      "attomId": 288803463,
      "offerDate": "2024-09-27",
      "offerPrice": 252000,
      "status": "recorder",
      "isRebuilt": false,
      "address": "1478 S AUSABLE TRL, GRAYLING MI",
      "city": "GRAYLING",
      "state": "MI",
      "beds": null,
      "baths": null,
      "sqft": null,
      "lotSize": null,
      "lat": 44.663616,
      "lng": -84.749683
    },
    {
      "propertyId": null,
      "attomId": 145410967,
      "offerDate": "2024-09-23",
      "offerPrice": 50000,
      "status": "recorder",
      "isRebuilt": false,
      "address": "809 OAK ST, PORT HURON MI",
      "city": "PORT HURON",
      "state": "MI",
      "beds": null,
      "baths": null,
      "sqft": null,
      "lotSize": null,
      "lat": 42.966688,
      "lng": -82.429407
    },
    {
      "propertyId": null,
      "attomId": 195285924,
      "offerDate": "2024-09-19",
      "offerPrice": 70000,
      "status": "recorder",
      "isRebuilt": false,
      "address": "109 DANIEL ST, WAVERLY TN",
      "city": "WAVERLY",
      "state": "TN",
      "beds": null,
      "baths": null,
      "sqft": null,
      "lotSize": null,
      "lat": 36.086382,
      "lng": -87.795629
    },
    {
      "propertyId": null,
      "attomId": 49871903,
      "offerDate": "2024-08-08",
      "offerPrice": 750000,
      "status": "recorder",
      "isRebuilt": false,
      "address": "12397 N DEBKAY CT, MONROVIA MD",
      "city": "MONROVIA",
      "state": "MD",
      "beds": null,
      "baths": null,
      "sqft": null,
      "lotSize": null,
      "lat": 39.363776,
      "lng": -77.240992
    },
    {
      "propertyId": null,
      "attomId": 201301864,
      "offerDate": "2024-07-24",
      "offerPrice": 420000,
      "status": "recorder",
      "isRebuilt": false,
      "address": "165 WOODHAVEN RD, PAWTUCKET RI",
      "city": "PAWTUCKET",
      "state": "RI",
      "beds": null,
      "baths": null,
      "sqft": null,
      "lotSize": null,
      "lat": 41.866781,
      "lng": -71.356534
    },
    {
      "propertyId": null,
      "attomId": 144007108,
      "offerDate": "2024-07-15",
      "offerPrice": 106000,
      "status": "recorder",
      "isRebuilt": false,
      "address": "1202 CEDAR ST, PORT HURON MI",
      "city": "PORT HURON",
      "state": "MI",
      "beds": null,
      "baths": null,
      "sqft": null,
      "lotSize": null,
      "lat": 42.96126,
      "lng": -82.435853
    },
    {
      "propertyId": null,
      "attomId": 3483113,
      "offerDate": "2024-06-25",
      "offerPrice": 800000,
      "status": "recorder",
      "isRebuilt": false,
      "address": "1118 BLUE MARLIN DR, CHARLESTON SC",
      "city": "CHARLESTON",
      "state": "SC",
      "beds": null,
      "baths": null,
      "sqft": null,
      "lotSize": null,
      "lat": 32.726988,
      "lng": -79.931872
    },
    {
      "propertyId": null,
      "attomId": 172213121,
      "offerDate": "2024-03-25",
      "offerPrice": 167000,
      "status": "recorder",
      "isRebuilt": false,
      "address": "722 SUPERIOR ST, PORT HURON MI",
      "city": "PORT HURON",
      "state": "MI",
      "beds": null,
      "baths": null,
      "sqft": null,
      "lotSize": null,
      "lat": 42.981923,
      "lng": -82.425241
    },
    {
      "propertyId": null,
      "attomId": 184402734,
      "offerDate": "2024-03-13",
      "offerPrice": 347000,
      "status": "recorder",
      "isRebuilt": false,
      "address": "521 POTTER CIR, COLORADO SPRINGS CO",
      "city": "COLORADO SPRINGS",
      "state": "CO",
      "beds": null,
      "baths": null,
      "sqft": null,
      "lotSize": null,
      "lat": 38.840424,
      "lng": -104.754338
    },
    {
      "propertyId": null,
      "attomId": 1023284,
      "offerDate": "2024-03-04",
      "offerPrice": 240000,
      "status": "recorder",
      "isRebuilt": false,
      "address": "50710 PEGGY LN, CHESTERFIELD MI",
      "city": "CHESTERFIELD",
      "state": "MI",
      "beds": null,
      "baths": null,
      "sqft": null,
      "lotSize": null,
      "lat": 42.672216,
      "lng": -82.800646
    },
    {
      "propertyId": null,
      "attomId": 45265611,
      "offerDate": "2024-02-29",
      "offerPrice": 400000,
      "status": "recorder",
      "isRebuilt": false,
      "address": "1211 WINDLASS DR, MANAHAWKIN NJ",
      "city": "MANAHAWKIN",
      "state": "NJ",
      "beds": null,
      "baths": null,
      "sqft": null,
      "lotSize": null,
      "lat": 39.727468,
      "lng": -74.286783
    },
    {
      "propertyId": null,
      "attomId": 150081666,
      "offerDate": "2024-02-23",
      "offerPrice": 365000,
      "status": "recorder",
      "isRebuilt": false,
      "address": "6141 E 20TH ST, TUCSON AZ",
      "city": "TUCSON",
      "state": "AZ",
      "beds": null,
      "baths": null,
      "sqft": null,
      "lotSize": null,
      "lat": 32.210436,
      "lng": -110.861172
    },
    {
      "propertyId": null,
      "attomId": 43983952,
      "offerDate": "2024-02-22",
      "offerPrice": 87160,
      "status": "recorder",
      "isRebuilt": false,
      "address": "1825 16TH ST, PORT HURON MI",
      "city": "PORT HURON",
      "state": "MI",
      "beds": null,
      "baths": null,
      "sqft": null,
      "lotSize": null,
      "lat": 42.964334,
      "lng": -82.442671
    },
    {
      "propertyId": null,
      "attomId": 172387762,
      "offerDate": "2024-02-07",
      "offerPrice": 50000,
      "status": "recorder",
      "isRebuilt": false,
      "address": "1019 10TH ST, PORT HURON MI",
      "city": "PORT HURON",
      "state": "MI",
      "beds": null,
      "baths": null,
      "sqft": null,
      "lotSize": null,
      "lat": 42.972765,
      "lng": -82.433236
    },
    {
      "propertyId": null,
      "attomId": 169891723,
      "offerDate": "2024-02-06",
      "offerPrice": 560000,
      "status": "recorder",
      "isRebuilt": false,
      "address": "18 VAN TER, SPARKILL NY",
      "city": "SPARKILL",
      "state": "NY",
      "beds": null,
      "baths": null,
      "sqft": null,
      "lotSize": null,
      "lat": 41.027347,
      "lng": -73.925272
    },
    {
      "propertyId": null,
      "attomId": 311505254,
      "offerDate": "2024-01-26",
      "offerPrice": 1000000,
      "status": "recorder",
      "isRebuilt": false,
      "address": "1927 CANNERY LOOP, DAVIS CA",
      "city": "DAVIS",
      "state": "CA",
      "beds": null,
      "baths": null,
      "sqft": null,
      "lotSize": null,
      "lat": 38.567369,
      "lng": -121.741253
    },
    {
      "propertyId": null,
      "attomId": 146896699,
      "offerDate": "2024-01-26",
      "offerPrice": 78000,
      "status": "recorder",
      "isRebuilt": false,
      "address": "1807 10TH ST, PORT HURON MI",
      "city": "PORT HURON",
      "state": "MI",
      "beds": null,
      "baths": null,
      "sqft": null,
      "lotSize": null,
      "lat": 42.965063,
      "lng": -82.432817
    }
  ]
}