{
  "investor": {
    "id": "53e67e8b-ff3e-4802-b9d5-e277eb1de402",
    "name": "Dustin Hedrick",
    "email": "dustinleehedrick@gmail.com",
    "phone": "+1 (423) 653-8881",
    "totalWon": 1,
    "totalBids": 6,
    "ytdWon": 0,
    "ytdBids": 0,
    "entities": [
      "CHANNEL TO CHANNEL LLC"
    ]
  },
  "stats": {
    "totalTransactions2025": 6,
    "rebuiltTransactions": 1,
    "recorderTransactions": 13,
    "quarterlyStats": {
      "2024-Q1": {
        "rebuilt": 0,
        "total": 2
      },
      "2024-Q3": {
        "rebuilt": 0,
        "total": 2
      },
      "2024-Q4": {
        "rebuilt": 0,
        "total": 2
      },
      "2025-Q1": {
        "rebuilt": 0,
        "total": 2
      },
      "2025-Q2": {
        "rebuilt": 1,
        "total": 1
      },
      "2025-Q3": {
        "rebuilt": 0,
        "total": 1
      },
      "2025-Q4": {
        "rebuilt": 0,
        "total": 2
      },
      "2026-Q1": {
        "rebuilt": 0,
        "total": 2
      }
    }
  },
  "properties": [
    {
      "propertyId": null,
      "attomId": 47420785,
      "offerDate": "2025-05-20",
      "offerPrice": 265000.0,
      "status": "won",
      "isRebuilt": true,
      "address": "210 DAWN ST, SIGNAL MOUNTAIN tn",
      "city": "SIGNAL MOUNTAIN",
      "state": "tn",
      "beds": null,
      "baths": null,
      "sqft": null,
      "lotSize": null,
      "lat": 35.117506,
      "lng": -85.336451
    },
    {
      "propertyId": null,
      "attomId": 193365767,
      "offerDate": "2026-03-11",
      "offerPrice": 205000,
      "status": "recorder",
      "isRebuilt": false,
      "address": "309 PEACHBLOOM DR, CHATTANOOGA TN",
      "city": "CHATTANOOGA",
      "state": "TN",
      "beds": null,
      "baths": null,
      "sqft": null,
      "lotSize": null,
      "lat": 35.024928,
      "lng": -85.236241
    },
    {
      "propertyId": null,
      "attomId": 151439547,
      "offerDate": "2026-01-05",
      "offerPrice": 80000,
      "status": "recorder",
      "isRebuilt": false,
      "address": "4874 HIGHWAY 157, RISING FAWN GA",
      "city": "RISING FAWN",
      "state": "GA",
      "beds": null,
      "baths": null,
      "sqft": null,
      "lotSize": null,
      "lat": 34.870821,
      "lng": -85.406037
    },
    {
      "propertyId": null,
      "attomId": 188769375,
      "offerDate": "2025-08-26",
      "offerPrice": 191000,
      "status": "recorder",
      "isRebuilt": false,
      "address": "1906 CLOSE RD, CHATTANOOGA TN",
      "city": "CHATTANOOGA",
      "state": "TN",
      "beds": null,
      "baths": null,
      "sqft": null,
      "lotSize": null,
      "lat": 34.987876,
      "lng": -85.268219
    },
    {
      "propertyId": null,
      "attomId": 21896508,
      "offerDate": "2025-01-28",
      "offerPrice": 130000,
      "status": "recorder",
      "isRebuilt": false,
      "address": "1336 LEARNING LN, CHATTANOOGA TN",
      "city": "CHATTANOOGA",
      "state": "TN",
      "beds": null,
      "baths": null,
      "sqft": null,
      "lotSize": null,
      "lat": 35.036291,
      "lng": -85.221742
    },
    {
      "propertyId": null,
      "attomId": 20284629,
      "offerDate": "2025-11-12",
      "offerPrice": 335000,
      "status": "recorder",
      "isRebuilt": false,
      "address": "86 JACKSON RD, ENFIELD CT",
      "city": "ENFIELD",
      "state": "CT",
      "beds": null,
      "baths": null,
      "sqft": null,
      "lotSize": null,
      "lat": 41.992697,
      "lng": -72.50612
    },
    {
      "propertyId": null,
      "attomId": 252042163,
      "offerDate": "2025-11-05",
      "offerPrice": 500000,
      "status": "recorder",
      "isRebuilt": false,
      "address": "44 WEST ST, WALLINGFORD CT",
      "city": "WALLINGFORD",
      "state": "CT",
      "beds": null,
      "baths": null,
      "sqft": null,
      "lotSize": null,
      "lat": 41.452868,
      "lng": -72.832489
    },
    {
      "propertyId": null,
      "attomId": 9201934,
      "offerDate": "2025-02-26",
      "offerPrice": 370000,
      "status": "recorder",
      "isRebuilt": false,
      "address": "3324 TOASY DR, ORLANDO FL",
      "city": "ORLANDO",
      "state": "FL",
      "beds": null,
      "baths": null,
      "sqft": null,
      "lotSize": null,
      "lat": 28.502518,
      "lng": -81.340272
    },
    {
      "propertyId": null,
      "attomId": 251534224,
      "offerDate": "2024-11-06",
      "offerPrice": 261500,
      "status": "recorder",
      "isRebuilt": false,
      "address": "3581 ALLIANCE DR, SPRINGDALE AR",
      "city": "SPRINGDALE",
      "state": "AR",
      "beds": null,
      "baths": null,
      "sqft": null,
      "lotSize": null,
      "lat": 36.216452,
      "lng": -94.128894
    },
    {
      "propertyId": null,
      "attomId": 176211592,
      "offerDate": "2024-10-23",
      "offerPrice": 125000,
      "status": "recorder",
      "isRebuilt": false,
      "address": "3517 HOOVER CT, ALTON IL",
      "city": "ALTON",
      "state": "IL",
      "beds": null,
      "baths": null,
      "sqft": null,
      "lotSize": null,
      "lat": 38.912258,
      "lng": -90.132212
    },
    {
      "propertyId": null,
      "attomId": 190979187,
      "offerDate": "2024-09-30",
      "offerPrice": 1445000,
      "status": "recorder",
      "isRebuilt": false,
      "address": "85627 DILLEY LN, EUGENE OR",
      "city": "EUGENE",
      "state": "OR",
      "beds": null,
      "baths": null,
      "sqft": null,
      "lotSize": null,
      "lat": 43.989087,
      "lng": -122.962947
    },
    {
      "propertyId": null,
      "attomId": 4871047,
      "offerDate": "2024-07-31",
      "offerPrice": 275712,
      "status": "recorder",
      "isRebuilt": false,
      "address": "144 BEVERLY PL, MACON GA",
      "city": "MACON",
      "state": "GA",
      "beds": null,
      "baths": null,
      "sqft": null,
      "lotSize": null,
      "lat": 32.842291,
      "lng": -83.651744
    },
    {
      "propertyId": null,
      "attomId": 30301488,
      "offerDate": "2024-03-29",
      "offerPrice": 345000,
      "status": "recorder",
      "isRebuilt": false,
      "address": "40880 W NOVAK LN, MARICOPA AZ",
      "city": "MARICOPA",
      "state": "AZ",
      "beds": null,
      "baths": null,
      "sqft": null,
      "lotSize": null,
      "lat": 33.069615,
      "lng": -112.006784
    },
    {
      "propertyId": null,
      "attomId": 147181305,
      "offerDate": "2024-01-11",
      "offerPrice": 410000,
      "status": "recorder",
      "isRebuilt": false,
      "address": "706 E DANIELLA DR, SAN TAN VALLEY AZ",
      "city": "SAN TAN VALLEY",
      "state": "AZ",
      "beds": null,
      "baths": null,
      "sqft": null,
      "lotSize": null,
      "lat": 33.224729,
      "lng": -111.558321
    }
  ]
}