{
  "investor": {
    "id": "55f46772-fd4f-4169-bb65-7c30879e1c22",
    "name": "Will Holly",
    "email": "wholly@hollynancegroup.com",
    "phone": "+1 (609) 532-3719",
    "totalWon": 1,
    "totalBids": 3,
    "ytdWon": 0,
    "ytdBids": 0,
    "entities": [
      "THE REGINALD LEWIS GROUP LLC"
    ]
  },
  "stats": {
    "totalTransactions2025": 34,
    "rebuiltTransactions": 1,
    "recorderTransactions": 104,
    "quarterlyStats": {
      "2024-Q1": {
        "rebuilt": 1,
        "total": 10
      },
      "2024-Q2": {
        "rebuilt": 0,
        "total": 18
      },
      "2024-Q3": {
        "rebuilt": 0,
        "total": 22
      },
      "2024-Q4": {
        "rebuilt": 0,
        "total": 14
      },
      "2025-Q1": {
        "rebuilt": 0,
        "total": 6
      },
      "2025-Q2": {
        "rebuilt": 0,
        "total": 8
      },
      "2025-Q3": {
        "rebuilt": 0,
        "total": 11
      },
      "2025-Q4": {
        "rebuilt": 0,
        "total": 9
      },
      "2026-Q1": {
        "rebuilt": 0,
        "total": 7
      }
    }
  },
  "properties": [
    {
      "propertyId": null,
      "attomId": 7454624,
      "offerDate": "2024-02-23",
      "offerPrice": 170000.0,
      "status": "won",
      "isRebuilt": true,
      "address": "3756 KING AVE, PENNSAUKEN nj",
      "city": "PENNSAUKEN",
      "state": "nj",
      "beds": null,
      "baths": null,
      "sqft": null,
      "lotSize": null,
      "lat": 39.9425,
      "lng": -75.07292
    },
    {
      "propertyId": null,
      "attomId": 42504273,
      "offerDate": "2026-02-06",
      "offerPrice": 269000,
      "status": "recorder",
      "isRebuilt": false,
      "address": "1498 STUYVESANT AVE, TRENTON NJ",
      "city": "TRENTON",
      "state": "NJ",
      "beds": null,
      "baths": null,
      "sqft": null,
      "lotSize": null,
      "lat": 40.244792,
      "lng": -74.796636
    },
    {
      "propertyId": null,
      "attomId": 42732902,
      "offerDate": "2026-01-28",
      "offerPrice": 365000,
      "status": "recorder",
      "isRebuilt": false,
      "address": "109 ACRES DR, TRENTON NJ",
      "city": "TRENTON",
      "state": "NJ",
      "beds": null,
      "baths": null,
      "sqft": null,
      "lotSize": null,
      "lat": 40.230397,
      "lng": -74.656576
    },
    {
      "propertyId": null,
      "attomId": 149469928,
      "offerDate": "2026-01-27",
      "offerPrice": 127000,
      "status": "recorder",
      "isRebuilt": false,
      "address": "26 ELMHURST AVE, TRENTON NJ",
      "city": "TRENTON",
      "state": "NJ",
      "beds": null,
      "baths": null,
      "sqft": null,
      "lotSize": null,
      "lat": 40.233971,
      "lng": -74.783607
    },
    {
      "propertyId": null,
      "attomId": 186658117,
      "offerDate": "2026-01-22",
      "offerPrice": 160000,
      "status": "recorder",
      "isRebuilt": false,
      "address": "67 NEW CEDAR LN, HAMILTON NJ",
      "city": "HAMILTON",
      "state": "NJ",
      "beds": null,
      "baths": null,
      "sqft": null,
      "lotSize": null,
      "lat": 40.198764,
      "lng": -74.734359
    },
    {
      "propertyId": null,
      "attomId": 15756072,
      "offerDate": "2026-01-21",
      "offerPrice": 192000,
      "status": "recorder",
      "isRebuilt": false,
      "address": "5520B ABERDEEN DR, MOUNT LAUREL NJ",
      "city": "MOUNT LAUREL",
      "state": "NJ",
      "beds": null,
      "baths": null,
      "sqft": null,
      "lotSize": null,
      "lat": 39.97071,
      "lng": -74.883408
    },
    {
      "propertyId": null,
      "attomId": 17957290,
      "offerDate": "2026-01-16",
      "offerPrice": 202000,
      "status": "recorder",
      "isRebuilt": false,
      "address": "330 BEECHWOOD AVE, EWING NJ",
      "city": "EWING",
      "state": "NJ",
      "beds": null,
      "baths": null,
      "sqft": null,
      "lotSize": null,
      "lat": 40.244229,
      "lng": -74.785085
    },
    {
      "propertyId": null,
      "attomId": 195613264,
      "offerDate": "2026-01-08",
      "offerPrice": 275000,
      "status": "recorder",
      "isRebuilt": false,
      "address": "607 GREENWICH CT, EAST WINDSOR NJ",
      "city": "EAST WINDSOR",
      "state": "NJ",
      "beds": null,
      "baths": null,
      "sqft": null,
      "lotSize": null,
      "lat": 40.272245,
      "lng": -74.485764
    },
    {
      "propertyId": null,
      "attomId": 144038903,
      "offerDate": "2025-12-05",
      "offerPrice": 155000,
      "status": "recorder",
      "isRebuilt": false,
      "address": "15 ROANOKE CT, WILLINGBORO NJ",
      "city": "WILLINGBORO",
      "state": "NJ",
      "beds": null,
      "baths": null,
      "sqft": null,
      "lotSize": null,
      "lat": 40.034482,
      "lng": -74.908169
    },
    {
      "propertyId": null,
      "attomId": 42446060,
      "offerDate": "2025-12-02",
      "offerPrice": 345000,
      "status": "recorder",
      "isRebuilt": false,
      "address": "26 DOREEN RD, HAMILTON NJ",
      "city": "HAMILTON",
      "state": "NJ",
      "beds": null,
      "baths": null,
      "sqft": null,
      "lotSize": null,
      "lat": 40.234589,
      "lng": -74.664845
    },
    {
      "propertyId": null,
      "attomId": 148055341,
      "offerDate": "2025-11-24",
      "offerPrice": 325000,
      "status": "recorder",
      "isRebuilt": false,
      "address": "1981 ARENA DR, HAMILTON NJ",
      "city": "HAMILTON",
      "state": "NJ",
      "beds": null,
      "baths": null,
      "sqft": null,
      "lotSize": null,
      "lat": 40.189359,
      "lng": -74.692934
    },
    {
      "propertyId": null,
      "attomId": 42322772,
      "offerDate": "2025-11-21",
      "offerPrice": 226000,
      "status": "recorder",
      "isRebuilt": false,
      "address": "5 BORDENSHIRE DR, BORDENTOWN NJ",
      "city": "BORDENTOWN",
      "state": "NJ",
      "beds": null,
      "baths": null,
      "sqft": null,
      "lotSize": null,
      "lat": 40.140507,
      "lng": -74.699965
    },
    {
      "propertyId": null,
      "attomId": 140617439,
      "offerDate": "2025-11-18",
      "offerPrice": 56000,
      "status": "recorder",
      "isRebuilt": false,
      "address": "1625 S BROAD ST, HAMILTON NJ",
      "city": "HAMILTON",
      "state": "NJ",
      "beds": null,
      "baths": null,
      "sqft": null,
      "lotSize": null,
      "lat": 40.200074,
      "lng": -74.73424
    },
    {
      "propertyId": null,
      "attomId": 199593549,
      "offerDate": "2025-11-17",
      "offerPrice": 190000,
      "status": "recorder",
      "isRebuilt": false,
      "address": "306 BERWYN AVE, EWING NJ",
      "city": "EWING",
      "state": "NJ",
      "beds": null,
      "baths": null,
      "sqft": null,
      "lotSize": null,
      "lat": 40.242743,
      "lng": -74.785432
    },
    {
      "propertyId": null,
      "attomId": 188895754,
      "offerDate": "2025-11-01",
      "offerPrice": 130000,
      "status": "recorder",
      "isRebuilt": false,
      "address": "38 LAUREL AVE, TRENTON NJ",
      "city": "TRENTON",
      "state": "NJ",
      "beds": null,
      "baths": null,
      "sqft": null,
      "lotSize": null,
      "lat": 40.236856,
      "lng": -74.782425
    },
    {
      "propertyId": null,
      "attomId": 194073557,
      "offerDate": "2025-10-22",
      "offerPrice": 243000,
      "status": "recorder",
      "isRebuilt": false,
      "address": "21 E CHURCH ST, BORDENTOWN NJ",
      "city": "BORDENTOWN",
      "state": "NJ",
      "beds": null,
      "baths": null,
      "sqft": null,
      "lotSize": null,
      "lat": 40.147854,
      "lng": -74.71188
    },
    {
      "propertyId": null,
      "attomId": 193197622,
      "offerDate": "2025-10-20",
      "offerPrice": 225000,
      "status": "recorder",
      "isRebuilt": false,
      "address": "1848 GREENWOOD AVE, HAMILTON NJ",
      "city": "HAMILTON",
      "state": "NJ",
      "beds": null,
      "baths": null,
      "sqft": null,
      "lotSize": null,
      "lat": 40.228405,
      "lng": -74.728767
    },
    {
      "propertyId": null,
      "attomId": 25539693,
      "offerDate": "2025-09-29",
      "offerPrice": 135000,
      "status": "recorder",
      "isRebuilt": false,
      "address": "55 2ND AVE, ROEBLING NJ",
      "city": "ROEBLING",
      "state": "NJ",
      "beds": null,
      "baths": null,
      "sqft": null,
      "lotSize": null,
      "lat": 40.119012,
      "lng": -74.773718
    },
    {
      "propertyId": null,
      "attomId": 26434177,
      "offerDate": "2025-09-15",
      "offerPrice": 280000,
      "status": "recorder",
      "isRebuilt": false,
      "address": "170 DORCHESTER DR, SOUTHAMPTON NJ",
      "city": "SOUTHAMPTON",
      "state": "NJ",
      "beds": null,
      "baths": null,
      "sqft": null,
      "lotSize": null,
      "lat": 39.898112,
      "lng": -74.705904
    },
    {
      "propertyId": null,
      "attomId": 150211979,
      "offerDate": "2025-08-26",
      "offerPrice": 180000,
      "status": "recorder",
      "isRebuilt": false,
      "address": "157 CHURCHILL AVE, HAMILTON NJ",
      "city": "HAMILTON",
      "state": "NJ",
      "beds": null,
      "baths": null,
      "sqft": null,
      "lotSize": null,
      "lat": 40.19533,
      "lng": -74.71456
    },
    {
      "propertyId": null,
      "attomId": 179817252,
      "offerDate": "2025-08-19",
      "offerPrice": 280000,
      "status": "recorder",
      "isRebuilt": false,
      "address": "111 E ENDFIELD RD, FEASTERVILLE TREVOSE PA",
      "city": "FEASTERVILLE TREVOSE",
      "state": "PA",
      "beds": null,
      "baths": null,
      "sqft": null,
      "lotSize": null,
      "lat": 40.160475,
      "lng": -74.984902
    },
    {
      "propertyId": null,
      "attomId": 3770932,
      "offerDate": "2025-08-12",
      "offerPrice": 50000,
      "status": "recorder",
      "isRebuilt": false,
      "address": "32 BOUDINOT ST, TRENTON NJ",
      "city": "TRENTON",
      "state": "NJ",
      "beds": null,
      "baths": null,
      "sqft": null,
      "lotSize": null,
      "lat": 40.229503,
      "lng": -74.78225
    },
    {
      "propertyId": null,
      "attomId": 48450055,
      "offerDate": "2025-08-07",
      "offerPrice": 165000,
      "status": "recorder",
      "isRebuilt": false,
      "address": "230 SPRING ST, BORDENTOWN NJ",
      "city": "BORDENTOWN",
      "state": "NJ",
      "beds": null,
      "baths": null,
      "sqft": null,
      "lotSize": null,
      "lat": 40.147111,
      "lng": -74.707357
    },
    {
      "propertyId": null,
      "attomId": 151137996,
      "offerDate": "2025-08-05",
      "offerPrice": 210000,
      "status": "recorder",
      "isRebuilt": false,
      "address": "110 ALFRED AVE, TRENTON NJ",
      "city": "TRENTON",
      "state": "NJ",
      "beds": null,
      "baths": null,
      "sqft": null,
      "lotSize": null,
      "lat": 40.185974,
      "lng": -74.70861
    },
    {
      "propertyId": null,
      "attomId": 53004923,
      "offerDate": "2025-08-05",
      "offerPrice": 125000,
      "status": "recorder",
      "isRebuilt": false,
      "address": "791 2ND ST, TRENTON NJ",
      "city": "TRENTON",
      "state": "NJ",
      "beds": null,
      "baths": null,
      "sqft": null,
      "lotSize": null,
      "lat": 40.198372,
      "lng": -74.755951
    },
    {
      "propertyId": null,
      "attomId": 198034902,
      "offerDate": "2025-07-28",
      "offerPrice": 185000,
      "status": "recorder",
      "isRebuilt": false,
      "address": "1114 PARK AVE, TRENTON NJ",
      "city": "TRENTON",
      "state": "NJ",
      "beds": null,
      "baths": null,
      "sqft": null,
      "lotSize": null,
      "lat": 40.215307,
      "lng": -74.731858
    },
    {
      "propertyId": null,
      "attomId": 140671318,
      "offerDate": "2025-07-28",
      "offerPrice": 45000,
      "status": "recorder",
      "isRebuilt": false,
      "address": "234 S COOK AVE, TRENTON NJ",
      "city": "TRENTON",
      "state": "NJ",
      "beds": null,
      "baths": null,
      "sqft": null,
      "lotSize": null,
      "lat": 40.221472,
      "lng": -74.739603
    },
    {
      "propertyId": null,
      "attomId": 195762911,
      "offerDate": "2025-07-25",
      "offerPrice": 215000,
      "status": "recorder",
      "isRebuilt": false,
      "address": "10 SHELDON RD, PEMBERTON NJ",
      "city": "PEMBERTON",
      "state": "NJ",
      "beds": null,
      "baths": null,
      "sqft": null,
      "lotSize": null,
      "lat": 39.980476,
      "lng": -74.677625
    },
    {
      "propertyId": null,
      "attomId": 18977220,
      "offerDate": "2025-06-13",
      "offerPrice": 122500,
      "status": "recorder",
      "isRebuilt": false,
      "address": "129 W UNION ST, BURLINGTON NJ",
      "city": "BURLINGTON",
      "state": "NJ",
      "beds": null,
      "baths": null,
      "sqft": null,
      "lotSize": null,
      "lat": 40.078514,
      "lng": -74.862623
    },
    {
      "propertyId": null,
      "attomId": 190039506,
      "offerDate": "2025-05-21",
      "offerPrice": 90000,
      "status": "recorder",
      "isRebuilt": false,
      "address": "341 OAKLAND ST, TRENTON NJ",
      "city": "TRENTON",
      "state": "NJ",
      "beds": null,
      "baths": null,
      "sqft": null,
      "lotSize": null,
      "lat": 40.239273,
      "lng": -74.781692
    },
    {
      "propertyId": null,
      "attomId": 193856662,
      "offerDate": "2025-05-20",
      "offerPrice": 205000,
      "status": "recorder",
      "isRebuilt": false,
      "address": "24 SUMMER DR, BERLIN NJ",
      "city": "BERLIN",
      "state": "NJ",
      "beds": null,
      "baths": null,
      "sqft": null,
      "lotSize": null,
      "lat": 39.713069,
      "lng": -74.88437
    },
    {
      "propertyId": null,
      "attomId": 18128064,
      "offerDate": "2025-05-05",
      "offerPrice": 180000,
      "status": "recorder",
      "isRebuilt": false,
      "address": "46 ROSEDALE AVE, EWING NJ",
      "city": "EWING",
      "state": "NJ",
      "beds": null,
      "baths": null,
      "sqft": null,
      "lotSize": null,
      "lat": 40.246473,
      "lng": -74.771364
    },
    {
      "propertyId": null,
      "attomId": 145505113,
      "offerDate": "2025-04-24",
      "offerPrice": 226000,
      "status": "recorder",
      "isRebuilt": false,
      "address": "108 MAPLE SHADE AVE E, HAMILTON NJ",
      "city": "HAMILTON",
      "state": "NJ",
      "beds": null,
      "baths": null,
      "sqft": null,
      "lotSize": null,
      "lat": 40.233076,
      "lng": -74.662696
    },
    {
      "propertyId": null,
      "attomId": 202597689,
      "offerDate": "2025-04-15",
      "offerPrice": 325000,
      "status": "recorder",
      "isRebuilt": false,
      "address": "5 BOLTON RD, TRENTON NJ",
      "city": "TRENTON",
      "state": "NJ",
      "beds": null,
      "baths": null,
      "sqft": null,
      "lotSize": null,
      "lat": 40.198844,
      "lng": -74.687504
    },
    {
      "propertyId": null,
      "attomId": 25693183,
      "offerDate": "2025-04-08",
      "offerPrice": 149000,
      "status": "recorder",
      "isRebuilt": false,
      "address": "48 WESTPORT DR, WHITING NJ",
      "city": "WHITING",
      "state": "NJ",
      "beds": null,
      "baths": null,
      "sqft": null,
      "lotSize": null,
      "lat": 39.950398,
      "lng": -74.374258
    },
    {
      "propertyId": null,
      "attomId": 187152955,
      "offerDate": "2025-04-07",
      "offerPrice": 452500,
      "status": "recorder",
      "isRebuilt": false,
      "address": "268 BUCKNER AVE, HADDONFIELD NJ",
      "city": "HADDONFIELD",
      "state": "NJ",
      "beds": null,
      "baths": null,
      "sqft": null,
      "lotSize": null,
      "lat": 39.906076,
      "lng": -75.057112
    },
    {
      "propertyId": null,
      "attomId": 145852701,
      "offerDate": "2025-03-04",
      "offerPrice": 136000,
      "status": "recorder",
      "isRebuilt": false,
      "address": "249 HOBART AVE, HAMILTON NJ",
      "city": "HAMILTON",
      "state": "NJ",
      "beds": null,
      "baths": null,
      "sqft": null,
      "lotSize": null,
      "lat": 40.221339,
      "lng": -74.728838
    },
    {
      "propertyId": null,
      "attomId": 10107961,
      "offerDate": "2025-02-10",
      "offerPrice": 143000,
      "status": "recorder",
      "isRebuilt": false,
      "address": "175 W CENTRE ST, WOODBURY NJ",
      "city": "WOODBURY",
      "state": "NJ",
      "beds": null,
      "baths": null,
      "sqft": null,
      "lotSize": null,
      "lat": 39.838342,
      "lng": -75.159201
    },
    {
      "propertyId": null,
      "attomId": 37811475,
      "offerDate": "2025-01-23",
      "offerPrice": 300000,
      "status": "recorder",
      "isRebuilt": false,
      "address": "69 HUMMINGBIRD DR, HAMILTON NJ",
      "city": "HAMILTON",
      "state": "NJ",
      "beds": null,
      "baths": null,
      "sqft": null,
      "lotSize": null,
      "lat": 40.219574,
      "lng": -74.677247
    },
    {
      "propertyId": null,
      "attomId": 140889876,
      "offerDate": "2025-01-14",
      "offerPrice": 130000,
      "status": "recorder",
      "isRebuilt": false,
      "address": "416 RUTHERFORD AVE, TRENTON NJ",
      "city": "TRENTON",
      "state": "NJ",
      "beds": null,
      "baths": null,
      "sqft": null,
      "lotSize": null,
      "lat": 40.230361,
      "lng": -74.775147
    },
    {
      "propertyId": null,
      "attomId": 192769695,
      "offerDate": "2025-01-08",
      "offerPrice": 130000,
      "status": "recorder",
      "isRebuilt": false,
      "address": "215 MILLER ST, TRENTON NJ",
      "city": "TRENTON",
      "state": "NJ",
      "beds": null,
      "baths": null,
      "sqft": null,
      "lotSize": null,
      "lat": 40.236264,
      "lng": -74.755245
    },
    {
      "propertyId": null,
      "attomId": 52736985,
      "offerDate": "2025-01-08",
      "offerPrice": 160000,
      "status": "recorder",
      "isRebuilt": false,
      "address": "342 BEECHWOOD AVE, EWING NJ",
      "city": "EWING",
      "state": "NJ",
      "beds": null,
      "baths": null,
      "sqft": null,
      "lotSize": null,
      "lat": 40.244549,
      "lng": -74.784761
    },
    {
      "propertyId": null,
      "attomId": 283994,
      "offerDate": "2024-12-31",
      "offerPrice": 167500,
      "status": "recorder",
      "isRebuilt": false,
      "address": "316 N BROAD ST, TRENTON NJ",
      "city": "TRENTON",
      "state": "NJ",
      "beds": null,
      "baths": null,
      "sqft": null,
      "lotSize": null,
      "lat": 40.224687,
      "lng": -74.764324
    },
    {
      "propertyId": null,
      "attomId": 200114565,
      "offerDate": "2024-12-23",
      "offerPrice": 365000,
      "status": "recorder",
      "isRebuilt": false,
      "address": "6 HUNTINGTON WAY, MOUNT LAUREL NJ",
      "city": "MOUNT LAUREL",
      "state": "NJ",
      "beds": null,
      "baths": null,
      "sqft": null,
      "lotSize": null,
      "lat": 39.948327,
      "lng": -74.93767
    },
    {
      "propertyId": null,
      "attomId": 200108328,
      "offerDate": "2024-12-18",
      "offerPrice": 167000,
      "status": "recorder",
      "isRebuilt": false,
      "address": "34 3RD AVE, PEMBERTON NJ",
      "city": "PEMBERTON",
      "state": "NJ",
      "beds": null,
      "baths": null,
      "sqft": null,
      "lotSize": null,
      "lat": 39.95795,
      "lng": -74.678737
    },
    {
      "propertyId": null,
      "attomId": 189861264,
      "offerDate": "2024-12-17",
      "offerPrice": 256000,
      "status": "recorder",
      "isRebuilt": false,
      "address": "47 KINGSLEY WAY, FREEHOLD NJ",
      "city": "FREEHOLD",
      "state": "NJ",
      "beds": null,
      "baths": null,
      "sqft": null,
      "lotSize": null,
      "lat": 40.260898,
      "lng": -74.288044
    },
    {
      "propertyId": null,
      "attomId": 202597730,
      "offerDate": "2024-12-03",
      "offerPrice": 1050000,
      "status": "recorder",
      "isRebuilt": false,
      "address": "50 BROADRIPPLE DR, PRINCETON NJ",
      "city": "PRINCETON",
      "state": "NJ",
      "beds": null,
      "baths": null,
      "sqft": null,
      "lotSize": null,
      "lat": 40.366365,
      "lng": -74.636549
    },
    {
      "propertyId": null,
      "attomId": 17888020,
      "offerDate": "2024-12-02",
      "offerPrice": 180000,
      "status": "recorder",
      "isRebuilt": false,
      "address": "123 CLOVER ST, BROWNS MILLS NJ",
      "city": "BROWNS MILLS",
      "state": "NJ",
      "beds": null,
      "baths": null,
      "sqft": null,
      "lotSize": null,
      "lat": 39.982586,
      "lng": -74.569834
    },
    {
      "propertyId": null,
      "attomId": 199892932,
      "offerDate": "2024-11-01",
      "offerPrice": 120000,
      "status": "recorder",
      "isRebuilt": false,
      "address": "865 CENTRE ST, TRENTON NJ",
      "city": "TRENTON",
      "state": "NJ",
      "beds": null,
      "baths": null,
      "sqft": null,
      "lotSize": null,
      "lat": 40.195923,
      "lng": -74.756318
    },
    {
      "propertyId": null,
      "attomId": 17475335,
      "offerDate": "2024-10-31",
      "offerPrice": 110000,
      "status": "recorder",
      "isRebuilt": false,
      "address": "38 DELAWAREVIEW AVE, TRENTON NJ",
      "city": "TRENTON",
      "state": "NJ",
      "beds": null,
      "baths": null,
      "sqft": null,
      "lotSize": null,
      "lat": 40.226792,
      "lng": -74.783084
    },
    {
      "propertyId": null,
      "attomId": 17957105,
      "offerDate": "2024-10-31",
      "offerPrice": 150000,
      "status": "recorder",
      "isRebuilt": false,
      "address": "25 S DEAN AVE, TRENTON NJ",
      "city": "TRENTON",
      "state": "NJ",
      "beds": null,
      "baths": null,
      "sqft": null,
      "lotSize": null,
      "lat": 40.233652,
      "lng": -74.795849
    },
    {
      "propertyId": null,
      "attomId": 203414451,
      "offerDate": "2024-10-17",
      "offerPrice": 311000,
      "status": "recorder",
      "isRebuilt": false,
      "address": "1061 LAKESHORE DR, HADDON TOWNSHIP NJ",
      "city": "HADDON TOWNSHIP",
      "state": "NJ",
      "beds": null,
      "baths": null,
      "sqft": null,
      "lotSize": null,
      "lat": 39.906292,
      "lng": -75.063656
    },
    {
      "propertyId": null,
      "attomId": 198681705,
      "offerDate": "2024-10-16",
      "offerPrice": 83000,
      "status": "recorder",
      "isRebuilt": false,
      "address": "30 POPLAR ST, TRENTON NJ",
      "city": "TRENTON",
      "state": "NJ",
      "beds": null,
      "baths": null,
      "sqft": null,
      "lotSize": null,
      "lat": 40.229762,
      "lng": -74.747736
    },
    {
      "propertyId": null,
      "attomId": 201584730,
      "offerDate": "2024-10-10",
      "offerPrice": 220000,
      "status": "recorder",
      "isRebuilt": false,
      "address": "900 HUNTER BLVD, BROWNS MILLS NJ",
      "city": "BROWNS MILLS",
      "state": "NJ",
      "beds": null,
      "baths": null,
      "sqft": null,
      "lotSize": null,
      "lat": 39.986232,
      "lng": -74.574968
    },
    {
      "propertyId": null,
      "attomId": 150163491,
      "offerDate": "2024-10-09",
      "offerPrice": 399000,
      "status": "recorder",
      "isRebuilt": false,
      "address": "4 GOATS HILL RD, SICKLERVILLE NJ",
      "city": "SICKLERVILLE",
      "state": "NJ",
      "beds": null,
      "baths": null,
      "sqft": null,
      "lotSize": null,
      "lat": 39.747032,
      "lng": -74.978745
    },
    {
      "propertyId": null,
      "attomId": 25592224,
      "offerDate": "2024-10-08",
      "offerPrice": 265000,
      "status": "recorder",
      "isRebuilt": false,
      "address": "16 WOODSIDE AVE, KEANSBURG NJ",
      "city": "KEANSBURG",
      "state": "NJ",
      "beds": null,
      "baths": null,
      "sqft": null,
      "lotSize": null,
      "lat": 40.447902,
      "lng": -74.126479
    },
    {
      "propertyId": null,
      "attomId": 21494344,
      "offerDate": "2024-09-30",
      "offerPrice": 176410,
      "status": "recorder",
      "isRebuilt": false,
      "address": "505 NORWAY AVE, HAMILTON NJ",
      "city": "HAMILTON",
      "state": "NJ",
      "beds": null,
      "baths": null,
      "sqft": null,
      "lotSize": null,
      "lat": 40.226817,
      "lng": -74.72815
    },
    {
      "propertyId": null,
      "attomId": 24468610,
      "offerDate": "2024-09-18",
      "offerPrice": 120000,
      "status": "recorder",
      "isRebuilt": false,
      "address": "408 CLEVELAND AVE, TRENTON NJ",
      "city": "TRENTON",
      "state": "NJ",
      "beds": null,
      "baths": null,
      "sqft": null,
      "lotSize": null,
      "lat": 40.222685,
      "lng": -74.732133
    },
    {
      "propertyId": null,
      "attomId": 195777786,
      "offerDate": "2024-09-04",
      "offerPrice": 16000,
      "status": "recorder",
      "isRebuilt": false,
      "address": "101 SUMMER ST # 109, TRENTON NJ",
      "city": "TRENTON",
      "state": "NJ",
      "beds": null,
      "baths": null,
      "sqft": null,
      "lotSize": null,
      "lat": 40.225015,
      "lng": -74.771774
    },
    {
      "propertyId": null,
      "attomId": 199593939,
      "offerDate": "2024-09-04",
      "offerPrice": 90000,
      "status": "recorder",
      "isRebuilt": false,
      "address": "322 REV S HOWARD WOODSON JR WAY, TRENTON NJ",
      "city": "TRENTON",
      "state": "NJ",
      "beds": null,
      "baths": null,
      "sqft": null,
      "lotSize": null,
      "lat": 40.225176,
      "lng": -74.771993
    },
    {
      "propertyId": null,
      "attomId": 32298353,
      "offerDate": "2024-09-04",
      "offerPrice": 12000,
      "status": "recorder",
      "isRebuilt": false,
      "address": "316 REV S HOWARD WOODSON JR WAY, TRENTON NJ",
      "city": "TRENTON",
      "state": "NJ",
      "beds": null,
      "baths": null,
      "sqft": null,
      "lotSize": null,
      "lat": 40.225028,
      "lng": -74.77211
    },
    {
      "propertyId": null,
      "attomId": 152803509,
      "offerDate": "2024-09-04",
      "offerPrice": 158000,
      "status": "recorder",
      "isRebuilt": false,
      "address": "1055 LALOR ST, HAMILTON NJ",
      "city": "HAMILTON",
      "state": "NJ",
      "beds": null,
      "baths": null,
      "sqft": null,
      "lotSize": null,
      "lat": 40.200469,
      "lng": -74.736351
    },
    {
      "propertyId": null,
      "attomId": 201919451,
      "offerDate": "2024-09-04",
      "offerPrice": 90000,
      "status": "recorder",
      "isRebuilt": false,
      "address": "324 REV S HOWARD WOODSON JR WAY, TRENTON NJ",
      "city": "TRENTON",
      "state": "NJ",
      "beds": null,
      "baths": null,
      "sqft": null,
      "lotSize": null,
      "lat": 40.225214,
      "lng": -74.771963
    },
    {
      "propertyId": null,
      "attomId": 196559733,
      "offerDate": "2024-09-03",
      "offerPrice": 12000,
      "status": "recorder",
      "isRebuilt": false,
      "address": "318 REV S HOWARD WOODSON JR WAY, TRENTON NJ",
      "city": "TRENTON",
      "state": "NJ",
      "beds": null,
      "baths": null,
      "sqft": null,
      "lotSize": null,
      "lat": 40.225088,
      "lng": -74.772063
    },
    {
      "propertyId": null,
      "attomId": 198052748,
      "offerDate": "2024-09-03",
      "offerPrice": 70000,
      "status": "recorder",
      "isRebuilt": false,
      "address": "320 REV S HOWARD WOODSON JR WAY, TRENTON NJ",
      "city": "TRENTON",
      "state": "NJ",
      "beds": null,
      "baths": null,
      "sqft": null,
      "lotSize": null,
      "lat": 40.225138,
      "lng": -74.772023
    },
    {
      "propertyId": null,
      "attomId": 45412481,
      "offerDate": "2024-08-28",
      "offerPrice": 190000,
      "status": "recorder",
      "isRebuilt": false,
      "address": "343 ELM AVE, BURLINGTON NJ",
      "city": "BURLINGTON",
      "state": "NJ",
      "beds": null,
      "baths": null,
      "sqft": null,
      "lotSize": null,
      "lat": 40.067336,
      "lng": -74.865292
    },
    {
      "propertyId": null,
      "attomId": 188907572,
      "offerDate": "2024-08-27",
      "offerPrice": 130000,
      "status": "recorder",
      "isRebuilt": false,
      "address": "586 CHESTNUT AVE, TRENTON NJ",
      "city": "TRENTON",
      "state": "NJ",
      "beds": null,
      "baths": null,
      "sqft": null,
      "lotSize": null,
      "lat": 40.211258,
      "lng": -74.74626
    },
    {
      "propertyId": null,
      "attomId": 4189639,
      "offerDate": "2024-08-22",
      "offerPrice": 180000,
      "status": "recorder",
      "isRebuilt": false,
      "address": "24 LONGBOAT AVE, BARNEGAT NJ",
      "city": "BARNEGAT",
      "state": "NJ",
      "beds": null,
      "baths": null,
      "sqft": null,
      "lotSize": null,
      "lat": 39.740397,
      "lng": -74.24266
    },
    {
      "propertyId": null,
      "attomId": 26484345,
      "offerDate": "2024-08-15",
      "offerPrice": 60000,
      "status": "recorder",
      "isRebuilt": false,
      "address": "314 9TH ST, GLOUCESTER CITY NJ",
      "city": "GLOUCESTER CITY",
      "state": "NJ",
      "beds": null,
      "baths": null,
      "sqft": null,
      "lotSize": null,
      "lat": 39.889038,
      "lng": -75.12155
    },
    {
      "propertyId": null,
      "attomId": 45386458,
      "offerDate": "2024-08-12",
      "offerPrice": 197000,
      "status": "recorder",
      "isRebuilt": false,
      "address": "6 PINEHURST CT, CLEMENTON NJ",
      "city": "CLEMENTON",
      "state": "NJ",
      "beds": null,
      "baths": null,
      "sqft": null,
      "lotSize": null,
      "lat": 39.809357,
      "lng": -75.013418
    },
    {
      "propertyId": null,
      "attomId": 5294761,
      "offerDate": "2024-08-12",
      "offerPrice": 215000,
      "status": "recorder",
      "isRebuilt": false,
      "address": "6124 CAMDEN AVE, PENNSAUKEN NJ",
      "city": "PENNSAUKEN",
      "state": "NJ",
      "beds": null,
      "baths": null,
      "sqft": null,
      "lotSize": null,
      "lat": 39.961978,
      "lng": -75.056952
    },
    {
      "propertyId": null,
      "attomId": 4145904,
      "offerDate": "2024-08-02",
      "offerPrice": 210000,
      "status": "recorder",
      "isRebuilt": false,
      "address": "72 NEW CEDAR LN, HAMILTON NJ",
      "city": "HAMILTON",
      "state": "NJ",
      "beds": null,
      "baths": null,
      "sqft": null,
      "lotSize": null,
      "lat": 40.198648,
      "lng": -74.7338
    },
    {
      "propertyId": null,
      "attomId": 209170839,
      "offerDate": "2024-07-30",
      "offerPrice": 300000,
      "status": "recorder",
      "isRebuilt": false,
      "address": "51 BIRCH RUN DR, PISCATAWAY NJ",
      "city": "PISCATAWAY",
      "state": "NJ",
      "beds": null,
      "baths": null,
      "sqft": null,
      "lotSize": null,
      "lat": 40.561899,
      "lng": -74.487384
    },
    {
      "propertyId": null,
      "attomId": 148312023,
      "offerDate": "2024-07-30",
      "offerPrice": 205000,
      "status": "recorder",
      "isRebuilt": false,
      "address": "161 JOAN TER, HAMILTON NJ",
      "city": "HAMILTON",
      "state": "NJ",
      "beds": null,
      "baths": null,
      "sqft": null,
      "lotSize": null,
      "lat": 40.228329,
      "lng": -74.724734
    },
    {
      "propertyId": null,
      "attomId": 198794795,
      "offerDate": "2024-07-29",
      "offerPrice": 430000,
      "status": "recorder",
      "isRebuilt": false,
      "address": "200 WILLOW RD, HILLSBOROUGH NJ",
      "city": "HILLSBOROUGH",
      "state": "NJ",
      "beds": null,
      "baths": null,
      "sqft": null,
      "lotSize": null,
      "lat": 40.466782,
      "lng": -74.636094
    },
    {
      "propertyId": null,
      "attomId": 188093417,
      "offerDate": "2024-07-10",
      "offerPrice": 200000,
      "status": "recorder",
      "isRebuilt": false,
      "address": "943 COLUMBUS RD, BURLINGTON NJ",
      "city": "BURLINGTON",
      "state": "NJ",
      "beds": null,
      "baths": null,
      "sqft": null,
      "lotSize": null,
      "lat": 40.079579,
      "lng": -74.838091
    },
    {
      "propertyId": null,
      "attomId": 178590264,
      "offerDate": "2024-07-09",
      "offerPrice": 350000,
      "status": "recorder",
      "isRebuilt": false,
      "address": "174 E HIGHLAND AVE, LANGHORNE PA",
      "city": "LANGHORNE",
      "state": "PA",
      "beds": null,
      "baths": null,
      "sqft": null,
      "lotSize": null,
      "lat": 40.168598,
      "lng": -74.914205
    },
    {
      "propertyId": null,
      "attomId": 4547435,
      "offerDate": "2024-07-02",
      "offerPrice": 235000,
      "status": "recorder",
      "isRebuilt": false,
      "address": "607 BENTON LN, MORRISVILLE PA",
      "city": "MORRISVILLE",
      "state": "PA",
      "beds": null,
      "baths": null,
      "sqft": null,
      "lotSize": null,
      "lat": 40.208417,
      "lng": -74.791451
    },
    {
      "propertyId": null,
      "attomId": 189761530,
      "offerDate": "2024-06-27",
      "offerPrice": 70000,
      "status": "recorder",
      "isRebuilt": false,
      "address": "30 VINE ST, TRENTON NJ",
      "city": "TRENTON",
      "state": "NJ",
      "beds": null,
      "baths": null,
      "sqft": null,
      "lotSize": null,
      "lat": 40.234041,
      "lng": -74.757209
    },
    {
      "propertyId": null,
      "attomId": 188108439,
      "offerDate": "2024-06-19",
      "offerPrice": 275000,
      "status": "recorder",
      "isRebuilt": false,
      "address": "154 LENOX AVE, HAMILTON NJ",
      "city": "HAMILTON",
      "state": "NJ",
      "beds": null,
      "baths": null,
      "sqft": null,
      "lotSize": null,
      "lat": 40.183783,
      "lng": -74.667157
    },
    {
      "propertyId": null,
      "attomId": 37691807,
      "offerDate": "2024-06-18",
      "offerPrice": 120000,
      "status": "recorder",
      "isRebuilt": false,
      "address": "2 NORDACS PL, TRENTON NJ",
      "city": "TRENTON",
      "state": "NJ",
      "beds": null,
      "baths": null,
      "sqft": null,
      "lotSize": null,
      "lat": 40.23784,
      "lng": -74.779394
    },
    {
      "propertyId": null,
      "attomId": 197017618,
      "offerDate": "2024-06-14",
      "offerPrice": 110000,
      "status": "recorder",
      "isRebuilt": false,
      "address": "324 SAINT MARY ST, BURLINGTON NJ",
      "city": "BURLINGTON",
      "state": "NJ",
      "beds": null,
      "baths": null,
      "sqft": null,
      "lotSize": null,
      "lat": 40.07904,
      "lng": -74.853867
    },
    {
      "propertyId": null,
      "attomId": 147312190,
      "offerDate": "2024-06-11",
      "offerPrice": 185000,
      "status": "recorder",
      "isRebuilt": false,
      "address": "22 FARRELL AVE, EWING NJ",
      "city": "EWING",
      "state": "NJ",
      "beds": null,
      "baths": null,
      "sqft": null,
      "lotSize": null,
      "lat": 40.256356,
      "lng": -74.790628
    },
    {
      "propertyId": null,
      "attomId": 48475107,
      "offerDate": "2024-06-07",
      "offerPrice": 256000,
      "status": "recorder",
      "isRebuilt": false,
      "address": "24 EXPRESS LN, WILLINGBORO NJ",
      "city": "WILLINGBORO",
      "state": "NJ",
      "beds": null,
      "baths": null,
      "sqft": null,
      "lotSize": null,
      "lat": 40.024791,
      "lng": -74.867466
    },
    {
      "propertyId": null,
      "attomId": 29587347,
      "offerDate": "2024-06-05",
      "offerPrice": 130000,
      "status": "recorder",
      "isRebuilt": false,
      "address": "430 KOSSUTH ST, RIVERSIDE NJ",
      "city": "RIVERSIDE",
      "state": "NJ",
      "beds": null,
      "baths": null,
      "sqft": null,
      "lotSize": null,
      "lat": 40.036566,
      "lng": -74.952109
    },
    {
      "propertyId": null,
      "attomId": 2739833,
      "offerDate": "2024-06-04",
      "offerPrice": 405000,
      "status": "recorder",
      "isRebuilt": false,
      "address": "24 TYNEMOUTH CT, ROBBINSVILLE NJ",
      "city": "ROBBINSVILLE",
      "state": "NJ",
      "beds": null,
      "baths": null,
      "sqft": null,
      "lotSize": null,
      "lat": 40.226823,
      "lng": -74.637352
    },
    {
      "propertyId": null,
      "attomId": 200880667,
      "offerDate": "2024-06-04",
      "offerPrice": 279000,
      "status": "recorder",
      "isRebuilt": false,
      "address": "5 EDWARDS PL, EWING NJ",
      "city": "EWING",
      "state": "NJ",
      "beds": null,
      "baths": null,
      "sqft": null,
      "lotSize": null,
      "lat": 40.274343,
      "lng": -74.84964
    },
    {
      "propertyId": null,
      "attomId": 25594233,
      "offerDate": "2024-05-29",
      "offerPrice": 120000,
      "status": "recorder",
      "isRebuilt": false,
      "address": "235 ELLIS ST, BURLINGTON NJ",
      "city": "BURLINGTON",
      "state": "NJ",
      "beds": null,
      "baths": null,
      "sqft": null,
      "lotSize": null,
      "lat": 40.077892,
      "lng": -74.865422
    },
    {
      "propertyId": null,
      "attomId": 198034880,
      "offerDate": "2024-05-28",
      "offerPrice": 175000,
      "status": "recorder",
      "isRebuilt": false,
      "address": "912 ADELINE ST, TRENTON NJ",
      "city": "TRENTON",
      "state": "NJ",
      "beds": null,
      "baths": null,
      "sqft": null,
      "lotSize": null,
      "lat": 40.202538,
      "lng": -74.741001
    },
    {
      "propertyId": null,
      "attomId": 20676755,
      "offerDate": "2024-05-28",
      "offerPrice": 135000,
      "status": "recorder",
      "isRebuilt": false,
      "address": "22 CAIN AVE, TRENTON NJ",
      "city": "TRENTON",
      "state": "NJ",
      "beds": null,
      "baths": null,
      "sqft": null,
      "lotSize": null,
      "lat": 40.238354,
      "lng": -74.753459
    },
    {
      "propertyId": null,
      "attomId": 145591421,
      "offerDate": "2024-05-23",
      "offerPrice": 90000,
      "status": "recorder",
      "isRebuilt": false,
      "address": "103 TAYLOR ST, TRENTON NJ",
      "city": "TRENTON",
      "state": "NJ",
      "beds": null,
      "baths": null,
      "sqft": null,
      "lotSize": null,
      "lat": 40.22957,
      "lng": -74.746064
    },
    {
      "propertyId": null,
      "attomId": 187177216,
      "offerDate": "2024-05-14",
      "offerPrice": 310000,
      "status": "recorder",
      "isRebuilt": false,
      "address": "4 HURON WAY, LAWRENCE TOWNSHIP NJ",
      "city": "LAWRENCE TOWNSHIP",
      "state": "NJ",
      "beds": null,
      "baths": null,
      "sqft": null,
      "lotSize": null,
      "lat": 40.258082,
      "lng": -74.723895
    },
    {
      "propertyId": null,
      "attomId": 37848968,
      "offerDate": "2024-05-07",
      "offerPrice": 160000,
      "status": "recorder",
      "isRebuilt": false,
      "address": "2163 HARBOUR DR, PALMYRA NJ",
      "city": "PALMYRA",
      "state": "NJ",
      "beds": null,
      "baths": null,
      "sqft": null,
      "lotSize": null,
      "lat": 40.010061,
      "lng": -75.033089
    },
    {
      "propertyId": null,
      "attomId": 10314342,
      "offerDate": "2024-05-06",
      "offerPrice": 213000,
      "status": "recorder",
      "isRebuilt": false,
      "address": "19 PARK SIDE DR, SICKLERVILLE NJ",
      "city": "SICKLERVILLE",
      "state": "NJ",
      "beds": null,
      "baths": null,
      "sqft": null,
      "lotSize": null,
      "lat": 39.728703,
      "lng": -74.990487
    },
    {
      "propertyId": null,
      "attomId": 147212037,
      "offerDate": "2024-04-12",
      "offerPrice": 80000,
      "status": "recorder",
      "isRebuilt": false,
      "address": "1007 SOUTHARD ST, EWING NJ",
      "city": "EWING",
      "state": "NJ",
      "beds": null,
      "baths": null,
      "sqft": null,
      "lotSize": null,
      "lat": 40.233908,
      "lng": -74.764054
    },
    {
      "propertyId": null,
      "attomId": 194077184,
      "offerDate": "2024-04-10",
      "offerPrice": 307000,
      "status": "recorder",
      "isRebuilt": false,
      "address": "I1 SHIRLEY LN, LAWRENCE TOWNSHIP NJ",
      "city": "LAWRENCE TOWNSHIP",
      "state": "NJ",
      "beds": null,
      "baths": null,
      "sqft": null,
      "lotSize": null,
      "lat": 40.302767,
      "lng": -74.745684
    },
    {
      "propertyId": null,
      "attomId": 150836703,
      "offerDate": "2024-03-20",
      "offerPrice": 373500,
      "status": "recorder",
      "isRebuilt": false,
      "address": "75 HADDON CT, PENNINGTON NJ",
      "city": "PENNINGTON",
      "state": "NJ",
      "beds": null,
      "baths": null,
      "sqft": null,
      "lotSize": null,
      "lat": 40.304877,
      "lng": -74.775531
    },
    {
      "propertyId": null,
      "attomId": 42867943,
      "offerDate": "2024-03-08",
      "offerPrice": 240000,
      "status": "recorder",
      "isRebuilt": false,
      "address": "232 ANDREW ST, HAMILTON NJ",
      "city": "HAMILTON",
      "state": "NJ",
      "beds": null,
      "baths": null,
      "sqft": null,
      "lotSize": null,
      "lat": 40.195655,
      "lng": -74.740217
    },
    {
      "propertyId": null,
      "attomId": 50210353,
      "offerDate": "2024-03-05",
      "offerPrice": 117200,
      "status": "recorder",
      "isRebuilt": false,
      "address": "41 BRUCE PARK DR, TRENTON NJ",
      "city": "TRENTON",
      "state": "NJ",
      "beds": null,
      "baths": null,
      "sqft": null,
      "lotSize": null,
      "lat": 40.237716,
      "lng": -74.801224
    },
    {
      "propertyId": null,
      "attomId": 37750568,
      "offerDate": "2024-02-16",
      "offerPrice": 185000,
      "status": "recorder",
      "isRebuilt": false,
      "address": "2030 LIBERTY ST, TRENTON NJ",
      "city": "TRENTON",
      "state": "NJ",
      "beds": null,
      "baths": null,
      "sqft": null,
      "lotSize": null,
      "lat": 40.215514,
      "lng": -74.731418
    },
    {
      "propertyId": null,
      "attomId": 151270224,
      "offerDate": "2024-02-06",
      "offerPrice": 175000,
      "status": "recorder",
      "isRebuilt": false,
      "address": "154 ANDREW ST, HAMILTON NJ",
      "city": "HAMILTON",
      "state": "NJ",
      "beds": null,
      "baths": null,
      "sqft": null,
      "lotSize": null,
      "lat": 40.196956,
      "lng": -74.740329
    },
    {
      "propertyId": null,
      "attomId": 18881124,
      "offerDate": "2024-01-31",
      "offerPrice": 80000,
      "status": "recorder",
      "isRebuilt": false,
      "address": "8 FLORENCE TOLLGATE PL UNIT 3, FLORENCE NJ",
      "city": "FLORENCE",
      "state": "NJ",
      "beds": null,
      "baths": null,
      "sqft": null,
      "lotSize": null,
      "lat": 40.113304,
      "lng": -74.804597
    },
    {
      "propertyId": null,
      "attomId": 178227018,
      "offerDate": "2024-01-24",
      "offerPrice": 353000,
      "status": "recorder",
      "isRebuilt": false,
      "address": "101 SILVER LAKE RD, NEWTOWN PA",
      "city": "NEWTOWN",
      "state": "PA",
      "beds": null,
      "baths": null,
      "sqft": null,
      "lotSize": null,
      "lat": 40.231823,
      "lng": -74.903714
    },
    {
      "propertyId": null,
      "attomId": 144039476,
      "offerDate": "2024-01-23",
      "offerPrice": 200000,
      "status": "recorder",
      "isRebuilt": false,
      "address": "46 SUSSEX DR, WILLINGBORO NJ",
      "city": "WILLINGBORO",
      "state": "NJ",
      "beds": null,
      "baths": null,
      "sqft": null,
      "lotSize": null,
      "lat": 40.049276,
      "lng": -74.894258
    },
    {
      "propertyId": null,
      "attomId": 188895726,
      "offerDate": "2024-01-02",
      "offerPrice": 57500,
      "status": "recorder",
      "isRebuilt": false,
      "address": "474 RIVERSIDE AVE, TRENTON NJ",
      "city": "TRENTON",
      "state": "NJ",
      "beds": null,
      "baths": null,
      "sqft": null,
      "lotSize": null,
      "lat": 40.225717,
      "lng": -74.783066
    }
  ]
}