{
  "investor": {
    "id": "78a74ebe-85b8-44a3-a791-7fb9d99b6ce4",
    "name": "Kody Brown",
    "email": "kody.brown15@gmail.com",
    "phone": "+1 (502) 640-1674",
    "totalWon": 1,
    "totalBids": 8,
    "ytdWon": 0,
    "ytdBids": 0,
    "entities": [
      "BIG DOG INVESTMENTS LLC",
      "CORNER LOT HOLDINGS LLC"
    ]
  },
  "stats": {
    "totalTransactions2025": 12,
    "rebuiltTransactions": 1,
    "recorderTransactions": 33,
    "quarterlyStats": {
      "2024-Q1": {
        "rebuilt": 0,
        "total": 4
      },
      "2024-Q2": {
        "rebuilt": 0,
        "total": 9
      },
      "2024-Q3": {
        "rebuilt": 1,
        "total": 4
      },
      "2024-Q4": {
        "rebuilt": 0,
        "total": 4
      },
      "2025-Q1": {
        "rebuilt": 0,
        "total": 3
      },
      "2025-Q2": {
        "rebuilt": 0,
        "total": 5
      },
      "2025-Q3": {
        "rebuilt": 0,
        "total": 1
      },
      "2025-Q4": {
        "rebuilt": 0,
        "total": 3
      },
      "2026-Q1": {
        "rebuilt": 0,
        "total": 1
      }
    }
  },
  "properties": [
    {
      "propertyId": null,
      "attomId": 207255914,
      "offerDate": "2024-08-22",
      "offerPrice": 86000.0,
      "status": "won",
      "isRebuilt": true,
      "address": "1963 SANDRA ST, BOWLING GREEN ky",
      "city": "BOWLING GREEN",
      "state": "ky",
      "beds": null,
      "baths": null,
      "sqft": null,
      "lotSize": null,
      "lat": 36.985034,
      "lng": -86.480574
    },
    {
      "propertyId": null,
      "attomId": 212942080,
      "offerDate": "2026-01-12",
      "offerPrice": 148000,
      "status": "recorder",
      "isRebuilt": false,
      "address": "7889 KY HIGHWAY 185, BOWLING GREEN KY",
      "city": "BOWLING GREEN",
      "state": "KY",
      "beds": null,
      "baths": null,
      "sqft": null,
      "lotSize": null,
      "lat": 37.098689,
      "lng": -86.438299
    },
    {
      "propertyId": null,
      "attomId": 215375031,
      "offerDate": "2025-12-04",
      "offerPrice": 240000,
      "status": "recorder",
      "isRebuilt": false,
      "address": "4321 DIDDLE DR, BOWLING GREEN KY",
      "city": "BOWLING GREEN",
      "state": "KY",
      "beds": null,
      "baths": null,
      "sqft": null,
      "lotSize": null,
      "lat": 36.953124,
      "lng": -86.498903
    },
    {
      "propertyId": null,
      "attomId": 215355346,
      "offerDate": "2025-10-20",
      "offerPrice": 65000,
      "status": "recorder",
      "isRebuilt": false,
      "address": "874 PLUM SPRINGS RD, BOWLING GREEN KY",
      "city": "BOWLING GREEN",
      "state": "KY",
      "beds": null,
      "baths": null,
      "sqft": null,
      "lotSize": null,
      "lat": 37.022161,
      "lng": -86.389173
    },
    {
      "propertyId": null,
      "attomId": 213673185,
      "offerDate": "2025-09-12",
      "offerPrice": 125000,
      "status": "recorder",
      "isRebuilt": false,
      "address": "1024 MCELROY WAY, BOWLING GREEN KY",
      "city": "BOWLING GREEN",
      "state": "KY",
      "beds": null,
      "baths": null,
      "sqft": null,
      "lotSize": null,
      "lat": 36.974591,
      "lng": -86.447026
    },
    {
      "propertyId": null,
      "attomId": 215410731,
      "offerDate": "2025-06-09",
      "offerPrice": 107000,
      "status": "recorder",
      "isRebuilt": false,
      "address": "805 WITT RD, BOWLING GREEN KY",
      "city": "BOWLING GREEN",
      "state": "KY",
      "beds": null,
      "baths": null,
      "sqft": null,
      "lotSize": null,
      "lat": 37.056814,
      "lng": -86.412993
    },
    {
      "propertyId": null,
      "attomId": 211495458,
      "offerDate": "2025-04-30",
      "offerPrice": 90000,
      "status": "recorder",
      "isRebuilt": false,
      "address": "1552 N SUNRISE DR, BOWLING GREEN KY",
      "city": "BOWLING GREEN",
      "state": "KY",
      "beds": null,
      "baths": null,
      "sqft": null,
      "lotSize": null,
      "lat": 36.990122,
      "lng": -86.469202
    },
    {
      "propertyId": null,
      "attomId": 210814582,
      "offerDate": "2025-03-06",
      "offerPrice": 140000,
      "status": "recorder",
      "isRebuilt": false,
      "address": "1228 OLIVER ST, BOWLING GREEN KY",
      "city": "BOWLING GREEN",
      "state": "KY",
      "beds": null,
      "baths": null,
      "sqft": null,
      "lotSize": null,
      "lat": 36.973095,
      "lng": -86.437788
    },
    {
      "propertyId": null,
      "attomId": 215048444,
      "offerDate": "2025-03-05",
      "offerPrice": 110000,
      "status": "recorder",
      "isRebuilt": false,
      "address": "1155 CREWDSON DR, BOWLING GREEN KY",
      "city": "BOWLING GREEN",
      "state": "KY",
      "beds": null,
      "baths": null,
      "sqft": null,
      "lotSize": null,
      "lat": 37.002805,
      "lng": -86.468299
    },
    {
      "propertyId": null,
      "attomId": 213633195,
      "offerDate": "2025-01-22",
      "offerPrice": 128000,
      "status": "recorder",
      "isRebuilt": false,
      "address": "2110 ROBIN RD, BOWLING GREEN KY",
      "city": "BOWLING GREEN",
      "state": "KY",
      "beds": null,
      "baths": null,
      "sqft": null,
      "lotSize": null,
      "lat": 36.979213,
      "lng": -86.481522
    },
    {
      "propertyId": null,
      "attomId": 215130575,
      "offerDate": "2024-10-23",
      "offerPrice": 115000,
      "status": "recorder",
      "isRebuilt": false,
      "address": "134 LOWER STONE AVE, BOWLING GREEN KY",
      "city": "BOWLING GREEN",
      "state": "KY",
      "beds": null,
      "baths": null,
      "sqft": null,
      "lotSize": null,
      "lat": 37.023131,
      "lng": -86.376508
    },
    {
      "propertyId": null,
      "attomId": 213679509,
      "offerDate": "2024-09-12",
      "offerPrice": 65000,
      "status": "recorder",
      "isRebuilt": false,
      "address": "3631 BROWNING RD, ROCKFIELD KY",
      "city": "ROCKFIELD",
      "state": "KY",
      "beds": null,
      "baths": null,
      "sqft": null,
      "lotSize": null,
      "lat": 36.944364,
      "lng": -86.602546
    },
    {
      "propertyId": null,
      "attomId": 214044104,
      "offerDate": "2024-08-06",
      "offerPrice": 175000,
      "status": "recorder",
      "isRebuilt": false,
      "address": "1812 CURLING WAY, BOWLING GREEN KY",
      "city": "BOWLING GREEN",
      "state": "KY",
      "beds": null,
      "baths": null,
      "sqft": null,
      "lotSize": null,
      "lat": 36.94062,
      "lng": -86.442546
    },
    {
      "propertyId": null,
      "attomId": 210434180,
      "offerDate": "2024-07-26",
      "offerPrice": 118000,
      "status": "recorder",
      "isRebuilt": false,
      "address": "721 N GRAHAM ST, BOWLING GREEN KY",
      "city": "BOWLING GREEN",
      "state": "KY",
      "beds": null,
      "baths": null,
      "sqft": null,
      "lotSize": null,
      "lat": 37.018936,
      "lng": -86.384439
    },
    {
      "propertyId": null,
      "attomId": 214112783,
      "offerDate": "2024-06-11",
      "offerPrice": 323300,
      "status": "recorder",
      "isRebuilt": false,
      "address": "1711 DESTINY LN STE 119, BOWLING GREEN KY",
      "city": "BOWLING GREEN",
      "state": "KY",
      "beds": null,
      "baths": null,
      "sqft": null,
      "lotSize": null,
      "lat": 36.959909,
      "lng": -86.446796
    },
    {
      "propertyId": null,
      "attomId": 212381023,
      "offerDate": "2024-05-30",
      "offerPrice": 214000,
      "status": "recorder",
      "isRebuilt": false,
      "address": "1218 SHAWNEE WAY, BOWLING GREEN KY",
      "city": "BOWLING GREEN",
      "state": "KY",
      "beds": null,
      "baths": null,
      "sqft": null,
      "lotSize": null,
      "lat": 36.953473,
      "lng": -86.455644
    },
    {
      "propertyId": null,
      "attomId": 215048443,
      "offerDate": "2024-03-25",
      "offerPrice": 110000,
      "status": "recorder",
      "isRebuilt": false,
      "address": "1144 CREWDSON DR, BOWLING GREEN KY",
      "city": "BOWLING GREEN",
      "state": "KY",
      "beds": null,
      "baths": null,
      "sqft": null,
      "lotSize": null,
      "lat": 37.00338,
      "lng": -86.467797
    },
    {
      "propertyId": null,
      "attomId": 214923378,
      "offerDate": "2024-03-25",
      "offerPrice": 110000,
      "status": "recorder",
      "isRebuilt": false,
      "address": "2325 BLUE LEVEL PROVIDENCE RD, ROCKFIELD KY",
      "city": "ROCKFIELD",
      "state": "KY",
      "beds": null,
      "baths": null,
      "sqft": null,
      "lotSize": null,
      "lat": 36.956166,
      "lng": -86.555929
    },
    {
      "propertyId": null,
      "attomId": 211173665,
      "offerDate": "2024-03-20",
      "offerPrice": 100000,
      "status": "recorder",
      "isRebuilt": false,
      "address": "800 W TOWN CT, BOWLING GREEN KY",
      "city": "BOWLING GREEN",
      "state": "KY",
      "beds": null,
      "baths": null,
      "sqft": null,
      "lotSize": null,
      "lat": 37.005125,
      "lng": -86.451174
    },
    {
      "propertyId": null,
      "attomId": 211232099,
      "offerDate": "2025-10-24",
      "offerPrice": 230000,
      "status": "recorder",
      "isRebuilt": false,
      "address": "1326 WOODHURST ST, BOWLING GREEN KY",
      "city": "BOWLING GREEN",
      "state": "KY",
      "beds": null,
      "baths": null,
      "sqft": null,
      "lotSize": null,
      "lat": 36.96213,
      "lng": -86.435691
    },
    {
      "propertyId": null,
      "attomId": 214112793,
      "offerDate": "2025-05-12",
      "offerPrice": 100000,
      "status": "recorder",
      "isRebuilt": false,
      "address": "825 VILLA CT, BOWLING GREEN KY",
      "city": "BOWLING GREEN",
      "state": "KY",
      "beds": null,
      "baths": null,
      "sqft": null,
      "lotSize": null,
      "lat": 36.980262,
      "lng": -86.40623
    },
    {
      "propertyId": null,
      "attomId": 215289256,
      "offerDate": "2025-05-12",
      "offerPrice": 100000,
      "status": "recorder",
      "isRebuilt": false,
      "address": "1022 LIBERTY WAY, BOWLING GREEN KY",
      "city": "BOWLING GREEN",
      "state": "KY",
      "beds": null,
      "baths": null,
      "sqft": null,
      "lotSize": null,
      "lat": 36.976744,
      "lng": -86.446148
    },
    {
      "propertyId": null,
      "attomId": 214161998,
      "offerDate": "2025-04-16",
      "offerPrice": 185000,
      "status": "recorder",
      "isRebuilt": false,
      "address": "433 BELLEVUE AVE, BOWLING GREEN KY",
      "city": "BOWLING GREEN",
      "state": "KY",
      "beds": null,
      "baths": null,
      "sqft": null,
      "lotSize": null,
      "lat": 36.970125,
      "lng": -86.471778
    },
    {
      "propertyId": null,
      "attomId": 214112806,
      "offerDate": "2024-12-06",
      "offerPrice": 195000,
      "status": "recorder",
      "isRebuilt": false,
      "address": "901 PEPPERIDGE DR, BOWLING GREEN KY",
      "city": "BOWLING GREEN",
      "state": "KY",
      "beds": null,
      "baths": null,
      "sqft": null,
      "lotSize": null,
      "lat": 36.978283,
      "lng": -86.402846
    },
    {
      "propertyId": null,
      "attomId": 212028382,
      "offerDate": "2024-11-25",
      "offerPrice": 125000,
      "status": "recorder",
      "isRebuilt": false,
      "address": "135 N MAIN ST, SMITHS GROVE KY",
      "city": "SMITHS GROVE",
      "state": "KY",
      "beds": null,
      "baths": null,
      "sqft": null,
      "lotSize": null,
      "lat": 37.053615,
      "lng": -86.208555
    },
    {
      "propertyId": null,
      "attomId": 215921613,
      "offerDate": "2024-10-28",
      "offerPrice": 60000,
      "status": "recorder",
      "isRebuilt": false,
      "address": "623 4TH AVE, BOWLING GREEN KY",
      "city": "BOWLING GREEN",
      "state": "KY",
      "beds": null,
      "baths": null,
      "sqft": null,
      "lotSize": null,
      "lat": 36.995414,
      "lng": -86.432886
    },
    {
      "propertyId": null,
      "attomId": 215749317,
      "offerDate": "2024-06-24",
      "offerPrice": 145000,
      "status": "recorder",
      "isRebuilt": false,
      "address": "7672 MORGANTOWN RD, BOWLING GREEN KY",
      "city": "BOWLING GREEN",
      "state": "KY",
      "beds": null,
      "baths": null,
      "sqft": null,
      "lotSize": null,
      "lat": 37.017244,
      "lng": -86.555009
    },
    {
      "propertyId": null,
      "attomId": 214650095,
      "offerDate": "2024-06-17",
      "offerPrice": 85000,
      "status": "recorder",
      "isRebuilt": false,
      "address": "1321 COLLEGEVIEW DR, BOWLING GREEN KY",
      "city": "BOWLING GREEN",
      "state": "KY",
      "beds": null,
      "baths": null,
      "sqft": null,
      "lotSize": null,
      "lat": 36.995303,
      "lng": -86.465504
    },
    {
      "propertyId": null,
      "attomId": 213487859,
      "offerDate": "2024-06-10",
      "offerPrice": 80000,
      "status": "recorder",
      "isRebuilt": false,
      "address": "1012 HAMMETT HILL RD, BOWLING GREEN KY",
      "city": "BOWLING GREEN",
      "state": "KY",
      "beds": null,
      "baths": null,
      "sqft": null,
      "lotSize": null,
      "lat": 36.996344,
      "lng": -86.553879
    },
    {
      "propertyId": null,
      "attomId": 212456807,
      "offerDate": "2024-05-20",
      "offerPrice": 88300,
      "status": "recorder",
      "isRebuilt": false,
      "address": "1541 N SUNRISE DR, BOWLING GREEN KY",
      "city": "BOWLING GREEN",
      "state": "KY",
      "beds": null,
      "baths": null,
      "sqft": null,
      "lotSize": null,
      "lat": 36.99056,
      "lng": -86.469992
    },
    {
      "propertyId": null,
      "attomId": 247267268,
      "offerDate": "2024-05-06",
      "offerPrice": 38000,
      "status": "recorder",
      "isRebuilt": false,
      "address": "121 LONGHUNTERS WAY, BOWLING GREEN KY",
      "city": "BOWLING GREEN",
      "state": "KY",
      "beds": null,
      "baths": null,
      "sqft": null,
      "lotSize": null,
      "lat": 36.98401641845703,
      "lng": -86.380866
    },
    {
      "propertyId": null,
      "attomId": 210575013,
      "offerDate": "2024-04-30",
      "offerPrice": 230000,
      "status": "recorder",
      "isRebuilt": false,
      "address": "517 BRENTMOOR AVE, BOWLING GREEN KY",
      "city": "BOWLING GREEN",
      "state": "KY",
      "beds": null,
      "baths": null,
      "sqft": null,
      "lotSize": null,
      "lat": 36.970132,
      "lng": -86.466665
    },
    {
      "propertyId": null,
      "attomId": 247267002,
      "offerDate": "2024-04-15",
      "offerPrice": 147500,
      "status": "recorder",
      "isRebuilt": false,
      "address": "2399 GARRETT HOLLOW RD, BOWLING GREEN KY",
      "city": "BOWLING GREEN",
      "state": "KY",
      "beds": null,
      "baths": null,
      "sqft": null,
      "lotSize": null,
      "lat": 37.072375,
      "lng": -86.398444
    },
    {
      "propertyId": null,
      "attomId": 210283381,
      "offerDate": "2024-01-26",
      "offerPrice": 160000,
      "status": "recorder",
      "isRebuilt": false,
      "address": "100 WHITECOTTON DR, BOWLING GREEN KY",
      "city": "BOWLING GREEN",
      "state": "KY",
      "beds": null,
      "baths": null,
      "sqft": null,
      "lotSize": null,
      "lat": 36.994291,
      "lng": -86.387898
    }
  ]
}