{
  "investor": {
    "id": "8844c4ee-56c0-4912-8d42-32328411ec05",
    "name": "Mark Schneider",
    "email": "SchneiderRealEstateAgency@gmail.com",
    "phone": "+1 (609) 893-4600",
    "totalWon": 1,
    "totalBids": 2,
    "ytdWon": 0,
    "ytdBids": 0,
    "entities": [
      "PINELANDS HOME SALES LLC"
    ]
  },
  "stats": {
    "totalTransactions2025": 7,
    "rebuiltTransactions": 1,
    "recorderTransactions": 16,
    "quarterlyStats": {
      "2023-Q4": {
        "rebuilt": 1,
        "total": 1
      },
      "2024-Q2": {
        "rebuilt": 0,
        "total": 3
      },
      "2024-Q3": {
        "rebuilt": 0,
        "total": 2
      },
      "2024-Q4": {
        "rebuilt": 0,
        "total": 1
      },
      "2025-Q1": {
        "rebuilt": 0,
        "total": 2
      },
      "2025-Q2": {
        "rebuilt": 0,
        "total": 2
      },
      "2025-Q3": {
        "rebuilt": 0,
        "total": 1
      },
      "2025-Q4": {
        "rebuilt": 0,
        "total": 2
      },
      "2026-Q1": {
        "rebuilt": 0,
        "total": 3
      }
    }
  },
  "properties": [
    {
      "propertyId": null,
      "attomId": 48605803,
      "offerDate": "2023-10-24",
      "offerPrice": 190000.0,
      "status": "won",
      "isRebuilt": true,
      "address": "1404 RED FEATHER TRL, BROWNS MILLS nj",
      "city": "BROWNS MILLS",
      "state": "nj",
      "beds": null,
      "baths": null,
      "sqft": null,
      "lotSize": null,
      "lat": 39.94,
      "lng": -74.54
    },
    {
      "propertyId": null,
      "attomId": 50395043,
      "offerDate": "2026-02-04",
      "offerPrice": 170000,
      "status": "recorder",
      "isRebuilt": false,
      "address": "5 MARYLAND TRL, BROWNS MILLS NJ",
      "city": "BROWNS MILLS",
      "state": "NJ",
      "beds": null,
      "baths": null,
      "sqft": null,
      "lotSize": null,
      "lat": 39.911612,
      "lng": -74.575397
    },
    {
      "propertyId": null,
      "attomId": 48505444,
      "offerDate": "2026-01-28",
      "offerPrice": 220000,
      "status": "recorder",
      "isRebuilt": false,
      "address": "193 NEW LISBON RD, PEMBERTON NJ",
      "city": "PEMBERTON",
      "state": "NJ",
      "beds": null,
      "baths": null,
      "sqft": null,
      "lotSize": null,
      "lat": 39.956105,
      "lng": -74.629336
    },
    {
      "propertyId": null,
      "attomId": 200062058,
      "offerDate": "2026-01-13",
      "offerPrice": 240000,
      "status": "recorder",
      "isRebuilt": false,
      "address": "143 OAK PINES BLVD, PEMBERTON NJ",
      "city": "PEMBERTON",
      "state": "NJ",
      "beds": null,
      "baths": null,
      "sqft": null,
      "lotSize": null,
      "lat": 39.953911,
      "lng": -74.670505
    },
    {
      "propertyId": null,
      "attomId": 202557536,
      "offerDate": "2025-12-01",
      "offerPrice": 204900,
      "status": "recorder",
      "isRebuilt": false,
      "address": "9 BUTLER CT, BROWNS MILLS NJ",
      "city": "BROWNS MILLS",
      "state": "NJ",
      "beds": null,
      "baths": null,
      "sqft": null,
      "lotSize": null,
      "lat": 39.97489,
      "lng": -74.572923
    },
    {
      "propertyId": null,
      "attomId": 204219250,
      "offerDate": "2025-10-10",
      "offerPrice": 171500,
      "status": "recorder",
      "isRebuilt": false,
      "address": "11 2ND AVE, PEMBERTON NJ",
      "city": "PEMBERTON",
      "state": "NJ",
      "beds": null,
      "baths": null,
      "sqft": null,
      "lotSize": null,
      "lat": 39.961176,
      "lng": -74.678195
    },
    {
      "propertyId": null,
      "attomId": 20150479,
      "offerDate": "2025-09-23",
      "offerPrice": 265000,
      "status": "recorder",
      "isRebuilt": false,
      "address": "336 PARDEE BLVD, BROWNS MILLS NJ",
      "city": "BROWNS MILLS",
      "state": "NJ",
      "beds": null,
      "baths": null,
      "sqft": null,
      "lotSize": null,
      "lat": 39.987256,
      "lng": -74.578826
    },
    {
      "propertyId": null,
      "attomId": 186650046,
      "offerDate": "2025-06-13",
      "offerPrice": 207000,
      "status": "recorder",
      "isRebuilt": false,
      "address": "2 DOVER PL, BROWNS MILLS NJ",
      "city": "BROWNS MILLS",
      "state": "NJ",
      "beds": null,
      "baths": null,
      "sqft": null,
      "lotSize": null,
      "lat": 39.976109,
      "lng": -74.577619
    },
    {
      "propertyId": null,
      "attomId": 24958054,
      "offerDate": "2025-05-14",
      "offerPrice": 165000,
      "status": "recorder",
      "isRebuilt": false,
      "address": "136 TRENTON RD, BROWNS MILLS NJ",
      "city": "BROWNS MILLS",
      "state": "NJ",
      "beds": null,
      "baths": null,
      "sqft": null,
      "lotSize": null,
      "lat": 39.976013,
      "lng": -74.585024
    },
    {
      "propertyId": null,
      "attomId": 152059754,
      "offerDate": "2025-03-21",
      "offerPrice": 250000,
      "status": "recorder",
      "isRebuilt": false,
      "address": "2101 N LAKESHORE DR, BROWNS MILLS NJ",
      "city": "BROWNS MILLS",
      "state": "NJ",
      "beds": null,
      "baths": null,
      "sqft": null,
      "lotSize": null,
      "lat": 39.977836,
      "lng": -74.554085
    },
    {
      "propertyId": null,
      "attomId": 195762870,
      "offerDate": "2025-01-24",
      "offerPrice": 225000,
      "status": "recorder",
      "isRebuilt": false,
      "address": "57 ELIZABETH ST, PEMBERTON NJ",
      "city": "PEMBERTON",
      "state": "NJ",
      "beds": null,
      "baths": null,
      "sqft": null,
      "lotSize": null,
      "lat": 39.970641,
      "lng": -74.678146
    },
    {
      "propertyId": null,
      "attomId": 42568991,
      "offerDate": "2024-10-15",
      "offerPrice": 150000,
      "status": "recorder",
      "isRebuilt": false,
      "address": "2901 N LAKESHORE DR, BROWNS MILLS NJ",
      "city": "BROWNS MILLS",
      "state": "NJ",
      "beds": null,
      "baths": null,
      "sqft": null,
      "lotSize": null,
      "lat": 39.979275,
      "lng": -74.547669
    },
    {
      "propertyId": null,
      "attomId": 10520512,
      "offerDate": "2024-09-21",
      "offerPrice": 212500,
      "status": "recorder",
      "isRebuilt": false,
      "address": "204 APACHE TRL, BROWNS MILLS NJ",
      "city": "BROWNS MILLS",
      "state": "NJ",
      "beds": null,
      "baths": null,
      "sqft": null,
      "lotSize": null,
      "lat": 39.944024,
      "lng": -74.548269
    },
    {
      "propertyId": null,
      "attomId": 20489152,
      "offerDate": "2024-07-17",
      "offerPrice": 170000,
      "status": "recorder",
      "isRebuilt": false,
      "address": "167 PARDEE BLVD, BROWNS MILLS NJ",
      "city": "BROWNS MILLS",
      "state": "NJ",
      "beds": null,
      "baths": null,
      "sqft": null,
      "lotSize": null,
      "lat": 39.986364,
      "lng": -74.574122
    },
    {
      "propertyId": null,
      "attomId": 19007411,
      "offerDate": "2024-06-24",
      "offerPrice": 153000,
      "status": "recorder",
      "isRebuilt": false,
      "address": "118 BLANCHE ST, BROWNS MILLS NJ",
      "city": "BROWNS MILLS",
      "state": "NJ",
      "beds": null,
      "baths": null,
      "sqft": null,
      "lotSize": null,
      "lat": 39.98218,
      "lng": -74.574381
    },
    {
      "propertyId": null,
      "attomId": 50155798,
      "offerDate": "2024-05-30",
      "offerPrice": 265101,
      "status": "recorder",
      "isRebuilt": false,
      "address": "1600 EVERGREEN BLVD, BROWNS MILLS NJ",
      "city": "BROWNS MILLS",
      "state": "NJ",
      "beds": null,
      "baths": null,
      "sqft": null,
      "lotSize": null,
      "lat": 39.987633,
      "lng": -74.58174
    },
    {
      "propertyId": null,
      "attomId": 14794097,
      "offerDate": "2024-04-16",
      "offerPrice": 175000,
      "status": "recorder",
      "isRebuilt": false,
      "address": "701 BERKELEY DR, BROWNS MILLS NJ",
      "city": "BROWNS MILLS",
      "state": "NJ",
      "beds": null,
      "baths": null,
      "sqft": null,
      "lotSize": null,
      "lat": 39.960718,
      "lng": -74.590686
    }
  ]
}