{
  "investor": {
    "id": "8d3999c8-f73d-42a5-adf8-14f723244102",
    "name": "Mikecia Lavender",
    "email": "Mikeciah5@gmail.com",
    "phone": "+1 (615) 947-7842",
    "totalWon": 1,
    "totalBids": 14,
    "ytdWon": 0,
    "ytdBids": 0,
    "entities": [
      "VFMT REALTY INVESTMENT GROUP LLC"
    ]
  },
  "stats": {
    "totalTransactions2025": 62,
    "rebuiltTransactions": 1,
    "recorderTransactions": 85,
    "quarterlyStats": {
      "2024-Q2": {
        "rebuilt": 0,
        "total": 12
      },
      "2024-Q3": {
        "rebuilt": 0,
        "total": 4
      },
      "2024-Q4": {
        "rebuilt": 0,
        "total": 6
      },
      "2025-Q1": {
        "rebuilt": 0,
        "total": 18
      },
      "2025-Q2": {
        "rebuilt": 0,
        "total": 14
      },
      "2025-Q3": {
        "rebuilt": 1,
        "total": 17
      },
      "2025-Q4": {
        "rebuilt": 0,
        "total": 13
      },
      "2026-Q1": {
        "rebuilt": 0,
        "total": 2
      }
    }
  },
  "properties": [
    {
      "propertyId": null,
      "attomId": 26908510,
      "offerDate": "2025-08-27",
      "offerPrice": 40000.0,
      "status": "won",
      "isRebuilt": true,
      "address": "15100 LESURE ST, DETROIT mi",
      "city": "DETROIT",
      "state": "mi",
      "beds": null,
      "baths": null,
      "sqft": null,
      "lotSize": null,
      "lat": 42.40129,
      "lng": -83.180887
    },
    {
      "propertyId": null,
      "attomId": 21363287,
      "offerDate": "2026-01-20",
      "offerPrice": 196000,
      "status": "recorder",
      "isRebuilt": false,
      "address": "2116 CHANDLER AVE, COLUMBIA SC",
      "city": "COLUMBIA",
      "state": "SC",
      "beds": null,
      "baths": null,
      "sqft": null,
      "lotSize": null,
      "lat": 34.050312,
      "lng": -81.083584
    },
    {
      "propertyId": null,
      "attomId": 214029053,
      "offerDate": "2025-07-02",
      "offerPrice": 60000,
      "status": "recorder",
      "isRebuilt": false,
      "address": "209 W THOMPSON ST, FAIRMONT NC",
      "city": "FAIRMONT",
      "state": "NC",
      "beds": null,
      "baths": null,
      "sqft": null,
      "lotSize": null,
      "lat": 34.49709,
      "lng": -79.115894
    },
    {
      "propertyId": null,
      "attomId": 24009197,
      "offerDate": "2024-11-01",
      "offerPrice": 260000,
      "status": "recorder",
      "isRebuilt": false,
      "address": "14724 TRUMBULL AVE, MIDLOTHIAN IL",
      "city": "MIDLOTHIAN",
      "state": "IL",
      "beds": null,
      "baths": null,
      "sqft": null,
      "lotSize": null,
      "lat": 41.624948,
      "lng": -87.704699
    },
    {
      "propertyId": null,
      "attomId": 9057402,
      "offerDate": "2026-01-13",
      "offerPrice": 25000,
      "status": "recorder",
      "isRebuilt": false,
      "address": "8803 QUINCY ST, DETROIT MI",
      "city": "DETROIT",
      "state": "MI",
      "beds": null,
      "baths": null,
      "sqft": null,
      "lotSize": null,
      "lat": 42.366021,
      "lng": -83.120113
    },
    {
      "propertyId": null,
      "attomId": 172515102,
      "offerDate": "2025-12-09",
      "offerPrice": 26000,
      "status": "recorder",
      "isRebuilt": false,
      "address": "3736 WHITNEY ST, DETROIT MI",
      "city": "DETROIT",
      "state": "MI",
      "beds": null,
      "baths": null,
      "sqft": null,
      "lotSize": null,
      "lat": 42.360251,
      "lng": -83.11191
    },
    {
      "propertyId": null,
      "attomId": 878504,
      "offerDate": "2025-12-08",
      "offerPrice": 28000,
      "status": "recorder",
      "isRebuilt": false,
      "address": "15474 CLOVERLAWN ST, DETROIT MI",
      "city": "DETROIT",
      "state": "MI",
      "beds": null,
      "baths": null,
      "sqft": null,
      "lotSize": null,
      "lat": 42.405503,
      "lng": -83.15221
    },
    {
      "propertyId": null,
      "attomId": 10921199,
      "offerDate": "2025-12-04",
      "offerPrice": 28000,
      "status": "recorder",
      "isRebuilt": false,
      "address": "20260 ARCHDALE ST, DETROIT MI",
      "city": "DETROIT",
      "state": "MI",
      "beds": null,
      "baths": null,
      "sqft": null,
      "lotSize": null,
      "lat": 42.441767,
      "lng": -83.216879
    },
    {
      "propertyId": null,
      "attomId": 145784627,
      "offerDate": "2025-12-04",
      "offerPrice": 40000,
      "status": "recorder",
      "isRebuilt": false,
      "address": "15486 SNOWDEN ST, DETROIT MI",
      "city": "DETROIT",
      "state": "MI",
      "beds": null,
      "baths": null,
      "sqft": null,
      "lotSize": null,
      "lat": 42.405225,
      "lng": -83.176788
    },
    {
      "propertyId": null,
      "attomId": 21480766,
      "offerDate": "2025-12-04",
      "offerPrice": 28000,
      "status": "recorder",
      "isRebuilt": false,
      "address": "13544 MONTE VISTA ST, DETROIT MI",
      "city": "DETROIT",
      "state": "MI",
      "beds": null,
      "baths": null,
      "sqft": null,
      "lotSize": null,
      "lat": 42.386599,
      "lng": -83.166205
    },
    {
      "propertyId": null,
      "attomId": 155127896,
      "offerDate": "2025-12-04",
      "offerPrice": 32000,
      "status": "recorder",
      "isRebuilt": false,
      "address": "12773 WASHBURN ST, DETROIT MI",
      "city": "DETROIT",
      "state": "MI",
      "beds": null,
      "baths": null,
      "sqft": null,
      "lotSize": null,
      "lat": 42.383155,
      "lng": -83.160275
    },
    {
      "propertyId": null,
      "attomId": 48135182,
      "offerDate": "2025-11-17",
      "offerPrice": 31500,
      "status": "recorder",
      "isRebuilt": false,
      "address": "2324 TYLER ST, DETROIT MI",
      "city": "DETROIT",
      "state": "MI",
      "beds": null,
      "baths": null,
      "sqft": null,
      "lotSize": null,
      "lat": 42.39332,
      "lng": -83.117398
    },
    {
      "propertyId": null,
      "attomId": 15057836,
      "offerDate": "2025-10-30",
      "offerPrice": 30000,
      "status": "recorder",
      "isRebuilt": false,
      "address": "9249 BEDFORD ST, DETROIT MI",
      "city": "DETROIT",
      "state": "MI",
      "beds": null,
      "baths": null,
      "sqft": null,
      "lotSize": null,
      "lat": 42.411491,
      "lng": -82.947839
    },
    {
      "propertyId": null,
      "attomId": 19128935,
      "offerDate": "2025-10-27",
      "offerPrice": 40000,
      "status": "recorder",
      "isRebuilt": false,
      "address": "13122 SANTA ROSA DR, DETROIT MI",
      "city": "DETROIT",
      "state": "MI",
      "beds": null,
      "baths": null,
      "sqft": null,
      "lotSize": null,
      "lat": 42.384493,
      "lng": -83.141296
    },
    {
      "propertyId": null,
      "attomId": 52239672,
      "offerDate": "2025-10-23",
      "offerPrice": 27500,
      "status": "recorder",
      "isRebuilt": false,
      "address": "15833 BRAILE ST, DETROIT MI",
      "city": "DETROIT",
      "state": "MI",
      "beds": null,
      "baths": null,
      "sqft": null,
      "lotSize": null,
      "lat": 42.406455,
      "lng": -83.245433
    },
    {
      "propertyId": null,
      "attomId": 141273375,
      "offerDate": "2025-10-23",
      "offerPrice": 18000,
      "status": "recorder",
      "isRebuilt": false,
      "address": "3216 W PHILADELPHIA ST, DETROIT MI",
      "city": "DETROIT",
      "state": "MI",
      "beds": null,
      "baths": null,
      "sqft": null,
      "lotSize": null,
      "lat": 42.365941,
      "lng": -83.111184
    },
    {
      "propertyId": null,
      "attomId": 19224516,
      "offerDate": "2025-10-08",
      "offerPrice": 45000,
      "status": "recorder",
      "isRebuilt": false,
      "address": "16170 WOODINGHAM DR, DETROIT MI",
      "city": "DETROIT",
      "state": "MI",
      "beds": null,
      "baths": null,
      "sqft": null,
      "lotSize": null,
      "lat": 42.410873,
      "lng": -83.149563
    },
    {
      "propertyId": null,
      "attomId": 32208821,
      "offerDate": "2025-10-08",
      "offerPrice": 20000,
      "status": "recorder",
      "isRebuilt": false,
      "address": "12110 MENDOTA ST, DETROIT MI",
      "city": "DETROIT",
      "state": "MI",
      "beds": null,
      "baths": null,
      "sqft": null,
      "lotSize": null,
      "lat": 42.377345,
      "lng": -83.164549
    },
    {
      "propertyId": null,
      "attomId": 4519115,
      "offerDate": "2025-09-15",
      "offerPrice": 27000,
      "status": "recorder",
      "isRebuilt": false,
      "address": "13559 KENTUCKY ST, DETROIT MI",
      "city": "DETROIT",
      "state": "MI",
      "beds": null,
      "baths": null,
      "sqft": null,
      "lotSize": null,
      "lat": 42.386984,
      "lng": -83.158273
    },
    {
      "propertyId": null,
      "attomId": 24164519,
      "offerDate": "2025-09-15",
      "offerPrice": 37500,
      "status": "recorder",
      "isRebuilt": false,
      "address": "12880 SUSSEX ST, DETROIT MI",
      "city": "DETROIT",
      "state": "MI",
      "beds": null,
      "baths": null,
      "sqft": null,
      "lotSize": null,
      "lat": 42.383482,
      "lng": -83.194302
    },
    {
      "propertyId": null,
      "attomId": 172961946,
      "offerDate": "2025-09-09",
      "offerPrice": 35000,
      "status": "recorder",
      "isRebuilt": false,
      "address": "9669 OTSEGO ST, DETROIT MI",
      "city": "DETROIT",
      "state": "MI",
      "beds": null,
      "baths": null,
      "sqft": null,
      "lotSize": null,
      "lat": 42.371387,
      "lng": -83.125739
    },
    {
      "propertyId": null,
      "attomId": 18799069,
      "offerDate": "2025-08-20",
      "offerPrice": 25000,
      "status": "recorder",
      "isRebuilt": false,
      "address": "13989 WISCONSIN ST, DETROIT MI",
      "city": "DETROIT",
      "state": "MI",
      "beds": null,
      "baths": null,
      "sqft": null,
      "lotSize": null,
      "lat": 42.389889,
      "lng": -83.156375
    },
    {
      "propertyId": null,
      "attomId": 16744637,
      "offerDate": "2025-08-08",
      "offerPrice": 28000,
      "status": "recorder",
      "isRebuilt": false,
      "address": "15810 STOEPEL ST, DETROIT MI",
      "city": "DETROIT",
      "state": "MI",
      "beds": null,
      "baths": null,
      "sqft": null,
      "lotSize": null,
      "lat": 42.40777,
      "lng": -83.141235
    },
    {
      "propertyId": null,
      "attomId": 22634652,
      "offerDate": "2025-07-29",
      "offerPrice": 25000,
      "status": "recorder",
      "isRebuilt": false,
      "address": "3251 WAVERLY ST, DETROIT MI",
      "city": "DETROIT",
      "state": "MI",
      "beds": null,
      "baths": null,
      "sqft": null,
      "lotSize": null,
      "lat": 42.389837,
      "lng": -83.127858
    },
    {
      "propertyId": null,
      "attomId": 23773265,
      "offerDate": "2025-07-28",
      "offerPrice": 35000,
      "status": "recorder",
      "isRebuilt": false,
      "address": "18854 SAINT AUBIN ST, DETROIT MI",
      "city": "DETROIT",
      "state": "MI",
      "beds": null,
      "baths": null,
      "sqft": null,
      "lotSize": null,
      "lat": 42.43132,
      "lng": -83.081174
    },
    {
      "propertyId": null,
      "attomId": 8847536,
      "offerDate": "2025-07-24",
      "offerPrice": 14000,
      "status": "recorder",
      "isRebuilt": false,
      "address": "20043 HAMBURG ST, DETROIT MI",
      "city": "DETROIT",
      "state": "MI",
      "beds": null,
      "baths": null,
      "sqft": null,
      "lotSize": null,
      "lat": 42.444358,
      "lng": -82.998018
    },
    {
      "propertyId": null,
      "attomId": 11271486,
      "offerDate": "2025-07-23",
      "offerPrice": 37500,
      "status": "recorder",
      "isRebuilt": false,
      "address": "10710 CURTIS ST, DETROIT MI",
      "city": "DETROIT",
      "state": "MI",
      "beds": null,
      "baths": null,
      "sqft": null,
      "lotSize": null,
      "lat": 42.424288,
      "lng": -83.168711
    },
    {
      "propertyId": null,
      "attomId": 1717978,
      "offerDate": "2025-07-22",
      "offerPrice": 30000,
      "status": "recorder",
      "isRebuilt": false,
      "address": "8628 VAUGHAN ST, DETROIT MI",
      "city": "DETROIT",
      "state": "MI",
      "beds": null,
      "baths": null,
      "sqft": null,
      "lotSize": null,
      "lat": 42.356171,
      "lng": -83.236779
    },
    {
      "propertyId": null,
      "attomId": 52239670,
      "offerDate": "2025-07-22",
      "offerPrice": 40000,
      "status": "recorder",
      "isRebuilt": false,
      "address": "15859 BRAILE ST, DETROIT MI",
      "city": "DETROIT",
      "state": "MI",
      "beds": null,
      "baths": null,
      "sqft": null,
      "lotSize": null,
      "lat": 42.406826,
      "lng": -83.245448
    },
    {
      "propertyId": null,
      "attomId": 16582611,
      "offerDate": "2025-07-08",
      "offerPrice": 37000,
      "status": "recorder",
      "isRebuilt": false,
      "address": "16163 STRATHMOOR ST, DETROIT MI",
      "city": "DETROIT",
      "state": "MI",
      "beds": null,
      "baths": null,
      "sqft": null,
      "lotSize": null,
      "lat": 42.410008,
      "lng": -83.188476
    },
    {
      "propertyId": null,
      "attomId": 550451,
      "offerDate": "2025-07-03",
      "offerPrice": 20000,
      "status": "recorder",
      "isRebuilt": false,
      "address": "11838 WAYBURN ST, DETROIT MI",
      "city": "DETROIT",
      "state": "MI",
      "beds": null,
      "baths": null,
      "sqft": null,
      "lotSize": null,
      "lat": 42.426552,
      "lng": -82.949217
    },
    {
      "propertyId": null,
      "attomId": 172556473,
      "offerDate": "2025-07-03",
      "offerPrice": 14000,
      "status": "recorder",
      "isRebuilt": false,
      "address": "14463 CORAM ST, DETROIT MI",
      "city": "DETROIT",
      "state": "MI",
      "beds": null,
      "baths": null,
      "sqft": null,
      "lotSize": null,
      "lat": 42.438519,
      "lng": -82.97401
    },
    {
      "propertyId": null,
      "attomId": 8607940,
      "offerDate": "2025-07-02",
      "offerPrice": 40000,
      "status": "recorder",
      "isRebuilt": false,
      "address": "11626 NOTTINGHAM RD, DETROIT MI",
      "city": "DETROIT",
      "state": "MI",
      "beds": null,
      "baths": null,
      "sqft": null,
      "lotSize": null,
      "lat": 42.427151,
      "lng": -82.941819
    },
    {
      "propertyId": null,
      "attomId": 8794783,
      "offerDate": "2025-06-26",
      "offerPrice": 45000,
      "status": "recorder",
      "isRebuilt": false,
      "address": "15032 PREST ST, DETROIT MI",
      "city": "DETROIT",
      "state": "MI",
      "beds": null,
      "baths": null,
      "sqft": null,
      "lotSize": null,
      "lat": 42.399915,
      "lng": -83.197104
    },
    {
      "propertyId": null,
      "attomId": 172184420,
      "offerDate": "2025-06-24",
      "offerPrice": 28000,
      "status": "recorder",
      "isRebuilt": false,
      "address": "8610 SORRENTO ST, DETROIT MI",
      "city": "DETROIT",
      "state": "MI",
      "beds": null,
      "baths": null,
      "sqft": null,
      "lotSize": null,
      "lat": 42.357923,
      "lng": -83.171126
    },
    {
      "propertyId": null,
      "attomId": 18347635,
      "offerDate": "2025-06-16",
      "offerPrice": 60000,
      "status": "recorder",
      "isRebuilt": false,
      "address": "19545 HAMBURG ST, DETROIT MI",
      "city": "DETROIT",
      "state": "MI",
      "beds": null,
      "baths": null,
      "sqft": null,
      "lotSize": null,
      "lat": 42.438933,
      "lng": -82.997861
    },
    {
      "propertyId": null,
      "attomId": 27012106,
      "offerDate": "2025-06-16",
      "offerPrice": 60000,
      "status": "recorder",
      "isRebuilt": false,
      "address": "16218 ROSSINI DR, DETROIT MI",
      "city": "DETROIT",
      "state": "MI",
      "beds": null,
      "baths": null,
      "sqft": null,
      "lotSize": null,
      "lat": 42.443563,
      "lng": -82.953077
    },
    {
      "propertyId": null,
      "attomId": 18753106,
      "offerDate": "2025-06-02",
      "offerPrice": 45000,
      "status": "recorder",
      "isRebuilt": false,
      "address": "17622 HEYDEN ST, DETROIT MI",
      "city": "DETROIT",
      "state": "MI",
      "beds": null,
      "baths": null,
      "sqft": null,
      "lotSize": null,
      "lat": 42.420941,
      "lng": -83.240087
    },
    {
      "propertyId": null,
      "attomId": 153658300,
      "offerDate": "2025-06-02",
      "offerPrice": 13000,
      "status": "recorder",
      "isRebuilt": false,
      "address": "15464 HOLMUR ST, DETROIT MI",
      "city": "DETROIT",
      "state": "MI",
      "beds": null,
      "baths": null,
      "sqft": null,
      "lotSize": null,
      "lat": 42.405488,
      "lng": -83.137112
    },
    {
      "propertyId": null,
      "attomId": 173030691,
      "offerDate": "2025-05-12",
      "offerPrice": 27000,
      "status": "recorder",
      "isRebuilt": false,
      "address": "5961 COPLIN ST, DETROIT MI",
      "city": "DETROIT",
      "state": "MI",
      "beds": null,
      "baths": null,
      "sqft": null,
      "lotSize": null,
      "lat": 42.400783,
      "lng": -82.969387
    },
    {
      "propertyId": null,
      "attomId": 25445149,
      "offerDate": "2025-05-12",
      "offerPrice": 36500,
      "status": "recorder",
      "isRebuilt": false,
      "address": "19146 LINDSAY ST, DETROIT MI",
      "city": "DETROIT",
      "state": "MI",
      "beds": null,
      "baths": null,
      "sqft": null,
      "lotSize": null,
      "lat": 42.430909,
      "lng": -83.21365
    },
    {
      "propertyId": null,
      "attomId": 3341207,
      "offerDate": "2025-05-08",
      "offerPrice": 30000,
      "status": "recorder",
      "isRebuilt": false,
      "address": "11866 LAING ST, DETROIT MI",
      "city": "DETROIT",
      "state": "MI",
      "beds": null,
      "baths": null,
      "sqft": null,
      "lotSize": null,
      "lat": 42.423848,
      "lng": -82.95543
    },
    {
      "propertyId": null,
      "attomId": 12500556,
      "offerDate": "2025-04-22",
      "offerPrice": 45000,
      "status": "recorder",
      "isRebuilt": false,
      "address": "15031 WASHBURN ST, DETROIT MI",
      "city": "DETROIT",
      "state": "MI",
      "beds": null,
      "baths": null,
      "sqft": null,
      "lotSize": null,
      "lat": 42.400709,
      "lng": -83.16096
    },
    {
      "propertyId": null,
      "attomId": 52238771,
      "offerDate": "2025-04-22",
      "offerPrice": 28000,
      "status": "recorder",
      "isRebuilt": false,
      "address": "20255 WALTHAM ST, DETROIT MI",
      "city": "DETROIT",
      "state": "MI",
      "beds": null,
      "baths": null,
      "sqft": null,
      "lotSize": null,
      "lat": 42.446331,
      "lng": -82.995708
    },
    {
      "propertyId": null,
      "attomId": 20486789,
      "offerDate": "2025-04-16",
      "offerPrice": 40000,
      "status": "recorder",
      "isRebuilt": false,
      "address": "15801 SUSSEX ST, DETROIT MI",
      "city": "DETROIT",
      "state": "MI",
      "beds": null,
      "baths": null,
      "sqft": null,
      "lotSize": null,
      "lat": 42.407168,
      "lng": -83.195585
    },
    {
      "propertyId": null,
      "attomId": 19217168,
      "offerDate": "2025-04-07",
      "offerPrice": 45000,
      "status": "recorder",
      "isRebuilt": false,
      "address": "12663 DUCHESS ST, DETROIT MI",
      "city": "DETROIT",
      "state": "MI",
      "beds": null,
      "baths": null,
      "sqft": null,
      "lotSize": null,
      "lat": 42.431657,
      "lng": -82.951584
    },
    {
      "propertyId": null,
      "attomId": 45436345,
      "offerDate": "2025-04-01",
      "offerPrice": 37000,
      "status": "recorder",
      "isRebuilt": false,
      "address": "20229 WALTHAM ST, DETROIT MI",
      "city": "DETROIT",
      "state": "MI",
      "beds": null,
      "baths": null,
      "sqft": null,
      "lotSize": null,
      "lat": 42.445985,
      "lng": -82.995695
    },
    {
      "propertyId": null,
      "attomId": 4791415,
      "offerDate": "2025-03-26",
      "offerPrice": 37500,
      "status": "recorder",
      "isRebuilt": false,
      "address": "16436 E STATE FAIR ST, DETROIT MI",
      "city": "DETROIT",
      "state": "MI",
      "beds": null,
      "baths": null,
      "sqft": null,
      "lotSize": null,
      "lat": 42.442647,
      "lng": -82.950336
    },
    {
      "propertyId": null,
      "attomId": 52702608,
      "offerDate": "2025-03-26",
      "offerPrice": 40000,
      "status": "recorder",
      "isRebuilt": false,
      "address": "10331 GREENSBORO ST, DETROIT MI",
      "city": "DETROIT",
      "state": "MI",
      "beds": null,
      "baths": null,
      "sqft": null,
      "lotSize": null,
      "lat": 42.414572,
      "lng": -82.954145
    },
    {
      "propertyId": null,
      "attomId": 26553882,
      "offerDate": "2025-03-25",
      "offerPrice": 20000,
      "status": "recorder",
      "isRebuilt": false,
      "address": "9802 PHILIP ST, DETROIT MI",
      "city": "DETROIT",
      "state": "MI",
      "beds": null,
      "baths": null,
      "sqft": null,
      "lotSize": null,
      "lat": 42.411942,
      "lng": -82.963242
    },
    {
      "propertyId": null,
      "attomId": 205761717,
      "offerDate": "2025-03-18",
      "offerPrice": 28500,
      "status": "recorder",
      "isRebuilt": false,
      "address": "12857 SAINT MARYS ST, DETROIT MI",
      "city": "DETROIT",
      "state": "MI",
      "beds": null,
      "baths": null,
      "sqft": null,
      "lotSize": null,
      "lat": 42.382981,
      "lng": -83.205525
    },
    {
      "propertyId": null,
      "attomId": 15398522,
      "offerDate": "2025-03-14",
      "offerPrice": 40000,
      "status": "recorder",
      "isRebuilt": false,
      "address": "9719 SOMERSET AVE, DETROIT MI",
      "city": "DETROIT",
      "state": "MI",
      "beds": null,
      "baths": null,
      "sqft": null,
      "lotSize": null,
      "lat": 42.410485,
      "lng": -82.953537
    },
    {
      "propertyId": null,
      "attomId": 17785649,
      "offerDate": "2025-02-10",
      "offerPrice": 150000,
      "status": "recorder",
      "isRebuilt": false,
      "address": "14900 MENDOTA ST, DETROIT MI",
      "city": "DETROIT",
      "state": "MI",
      "beds": null,
      "baths": null,
      "sqft": null,
      "lotSize": null,
      "lat": 42.399289,
      "lng": -83.164612
    },
    {
      "propertyId": null,
      "attomId": 26033791,
      "offerDate": "2025-02-10",
      "offerPrice": 150000,
      "status": "recorder",
      "isRebuilt": false,
      "address": "14909 MENDOTA ST, DETROIT MI",
      "city": "DETROIT",
      "state": "MI",
      "beds": null,
      "baths": null,
      "sqft": null,
      "lotSize": null,
      "lat": 42.399373,
      "lng": -83.165229
    },
    {
      "propertyId": null,
      "attomId": 13046894,
      "offerDate": "2025-02-10",
      "offerPrice": 150000,
      "status": "recorder",
      "isRebuilt": false,
      "address": "14890 MENDOTA ST, DETROIT MI",
      "city": "DETROIT",
      "state": "MI",
      "beds": null,
      "baths": null,
      "sqft": null,
      "lotSize": null,
      "lat": 42.399191,
      "lng": -83.164606
    },
    {
      "propertyId": null,
      "attomId": 17496687,
      "offerDate": "2025-01-29",
      "offerPrice": 45000,
      "status": "recorder",
      "isRebuilt": false,
      "address": "11130 CLOVERLAWN ST, DETROIT MI",
      "city": "DETROIT",
      "state": "MI",
      "beds": null,
      "baths": null,
      "sqft": null,
      "lotSize": null,
      "lat": 42.375717,
      "lng": -83.151181
    },
    {
      "propertyId": null,
      "attomId": 140145976,
      "offerDate": "2025-01-29",
      "offerPrice": 39000,
      "status": "recorder",
      "isRebuilt": false,
      "address": "14376 HUBBELL ST, DETROIT MI",
      "city": "DETROIT",
      "state": "MI",
      "beds": null,
      "baths": null,
      "sqft": null,
      "lotSize": null,
      "lat": 42.393502,
      "lng": -83.188226
    },
    {
      "propertyId": null,
      "attomId": 1762562,
      "offerDate": "2025-01-29",
      "offerPrice": 45000,
      "status": "recorder",
      "isRebuilt": false,
      "address": "15766 NORTHLAWN ST, DETROIT MI",
      "city": "DETROIT",
      "state": "MI",
      "beds": null,
      "baths": null,
      "sqft": null,
      "lotSize": null,
      "lat": 42.407192,
      "lng": -83.153263
    },
    {
      "propertyId": null,
      "attomId": 18940810,
      "offerDate": "2025-01-21",
      "offerPrice": 40500,
      "status": "recorder",
      "isRebuilt": false,
      "address": "14368 SUSSEX ST, DETROIT MI",
      "city": "DETROIT",
      "state": "MI",
      "beds": null,
      "baths": null,
      "sqft": null,
      "lotSize": null,
      "lat": 42.393293,
      "lng": -83.194322
    },
    {
      "propertyId": null,
      "attomId": 4015855,
      "offerDate": "2025-01-21",
      "offerPrice": 40000,
      "status": "recorder",
      "isRebuilt": false,
      "address": "16545 LILAC ST, DETROIT MI",
      "city": "DETROIT",
      "state": "MI",
      "beds": null,
      "baths": null,
      "sqft": null,
      "lotSize": null,
      "lat": 42.412949,
      "lng": -83.147263
    },
    {
      "propertyId": null,
      "attomId": 21443966,
      "offerDate": "2025-01-21",
      "offerPrice": 38000,
      "status": "recorder",
      "isRebuilt": false,
      "address": "16555 MONICA ST, DETROIT MI",
      "city": "DETROIT",
      "state": "MI",
      "beds": null,
      "baths": null,
      "sqft": null,
      "lotSize": null,
      "lat": 42.413137,
      "lng": -83.144195
    },
    {
      "propertyId": null,
      "attomId": 14536279,
      "offerDate": "2025-01-15",
      "offerPrice": 35000,
      "status": "recorder",
      "isRebuilt": false,
      "address": "14608 BIRWOOD ST, DETROIT MI",
      "city": "DETROIT",
      "state": "MI",
      "beds": null,
      "baths": null,
      "sqft": null,
      "lotSize": null,
      "lat": 42.396778,
      "lng": -83.163339
    },
    {
      "propertyId": null,
      "attomId": 14961687,
      "offerDate": "2025-01-10",
      "offerPrice": 32500,
      "status": "recorder",
      "isRebuilt": false,
      "address": "19727 ANNOTT ST, DETROIT MI",
      "city": "DETROIT",
      "state": "MI",
      "beds": null,
      "baths": null,
      "sqft": null,
      "lotSize": null,
      "lat": 42.440608,
      "lng": -83.002808
    },
    {
      "propertyId": null,
      "attomId": 25054583,
      "offerDate": "2025-01-07",
      "offerPrice": 35000,
      "status": "recorder",
      "isRebuilt": false,
      "address": "9730 SOMERSET AVE, DETROIT MI",
      "city": "DETROIT",
      "state": "MI",
      "beds": null,
      "baths": null,
      "sqft": null,
      "lotSize": null,
      "lat": 42.410407,
      "lng": -82.95285
    },
    {
      "propertyId": null,
      "attomId": 172176997,
      "offerDate": "2025-01-02",
      "offerPrice": 28000,
      "status": "recorder",
      "isRebuilt": false,
      "address": "19974 KINGSVILLE ST, HARPER WOODS MI",
      "city": "HARPER WOODS",
      "state": "MI",
      "beds": null,
      "baths": null,
      "sqft": null,
      "lotSize": null,
      "lat": 42.429344,
      "lng": -82.936206
    },
    {
      "propertyId": null,
      "attomId": 16933390,
      "offerDate": "2024-12-17",
      "offerPrice": 13000,
      "status": "recorder",
      "isRebuilt": false,
      "address": "9964 BALFOUR RD, DETROIT MI",
      "city": "DETROIT",
      "state": "MI",
      "beds": null,
      "baths": null,
      "sqft": null,
      "lotSize": null,
      "lat": 42.413161,
      "lng": -82.949467
    },
    {
      "propertyId": null,
      "attomId": 35003147,
      "offerDate": "2024-12-09",
      "offerPrice": 33500,
      "status": "recorder",
      "isRebuilt": false,
      "address": "20099 BARLOW ST, DETROIT MI",
      "city": "DETROIT",
      "state": "MI",
      "beds": null,
      "baths": null,
      "sqft": null,
      "lotSize": null,
      "lat": 42.445159,
      "lng": -82.996819
    },
    {
      "propertyId": null,
      "attomId": 21511819,
      "offerDate": "2024-11-21",
      "offerPrice": 37500,
      "status": "recorder",
      "isRebuilt": false,
      "address": "18656 JOANN ST, DETROIT MI",
      "city": "DETROIT",
      "state": "MI",
      "beds": null,
      "baths": null,
      "sqft": null,
      "lotSize": null,
      "lat": 42.432073,
      "lng": -82.989546
    },
    {
      "propertyId": null,
      "attomId": 3636846,
      "offerDate": "2024-11-01",
      "offerPrice": 32500,
      "status": "recorder",
      "isRebuilt": false,
      "address": "15251 EASTWOOD ST, DETROIT MI",
      "city": "DETROIT",
      "state": "MI",
      "beds": null,
      "baths": null,
      "sqft": null,
      "lotSize": null,
      "lat": 42.434094,
      "lng": -82.964304
    },
    {
      "propertyId": null,
      "attomId": 22011168,
      "offerDate": "2024-10-17",
      "offerPrice": 57000,
      "status": "recorder",
      "isRebuilt": false,
      "address": "13969 STEEL ST, DETROIT MI",
      "city": "DETROIT",
      "state": "MI",
      "beds": null,
      "baths": null,
      "sqft": null,
      "lotSize": null,
      "lat": 42.389202,
      "lng": -83.17128
    },
    {
      "propertyId": null,
      "attomId": 13334403,
      "offerDate": "2024-09-23",
      "offerPrice": 53000,
      "status": "recorder",
      "isRebuilt": false,
      "address": "20544 JOANN ST, DETROIT MI",
      "city": "DETROIT",
      "state": "MI",
      "beds": null,
      "baths": null,
      "sqft": null,
      "lotSize": null,
      "lat": 42.448235,
      "lng": -82.990156
    },
    {
      "propertyId": null,
      "attomId": 23961681,
      "offerDate": "2024-09-23",
      "offerPrice": 77500,
      "status": "recorder",
      "isRebuilt": false,
      "address": "15471 APPOLINE ST, DETROIT MI",
      "city": "DETROIT",
      "state": "MI",
      "beds": null,
      "baths": null,
      "sqft": null,
      "lotSize": null,
      "lat": 42.40506,
      "lng": -83.170865
    },
    {
      "propertyId": null,
      "attomId": 15398227,
      "offerDate": "2024-09-03",
      "offerPrice": 32000,
      "status": "recorder",
      "isRebuilt": false,
      "address": "11745 ROSSITER ST, DETROIT MI",
      "city": "DETROIT",
      "state": "MI",
      "beds": null,
      "baths": null,
      "sqft": null,
      "lotSize": null,
      "lat": 42.42645,
      "lng": -82.948695
    },
    {
      "propertyId": null,
      "attomId": 22894216,
      "offerDate": "2024-08-27",
      "offerPrice": 40000,
      "status": "recorder",
      "isRebuilt": false,
      "address": "20071 MCCORMICK ST, GROSSE POINTE MI",
      "city": "GROSSE POINTE",
      "state": "MI",
      "beds": null,
      "baths": null,
      "sqft": null,
      "lotSize": null,
      "lat": 42.428433,
      "lng": -82.934857
    },
    {
      "propertyId": null,
      "attomId": 8408516,
      "offerDate": "2024-05-15",
      "offerPrice": 89000,
      "status": "recorder",
      "isRebuilt": false,
      "address": "10707 PEERLESS ST, DETROIT MI",
      "city": "DETROIT",
      "state": "MI",
      "beds": null,
      "baths": null,
      "sqft": null,
      "lotSize": null,
      "lat": 42.423443,
      "lng": -82.938883
    },
    {
      "propertyId": null,
      "attomId": 9019521,
      "offerDate": "2024-05-15",
      "offerPrice": 69000,
      "status": "recorder",
      "isRebuilt": false,
      "address": "16675 BRINGARD DR, DETROIT MI",
      "city": "DETROIT",
      "state": "MI",
      "beds": null,
      "baths": null,
      "sqft": null,
      "lotSize": null,
      "lat": 42.446908,
      "lng": -82.947244
    },
    {
      "propertyId": null,
      "attomId": 3914530,
      "offerDate": "2024-05-14",
      "offerPrice": 90000,
      "status": "recorder",
      "isRebuilt": false,
      "address": "19140 RIVERVIEW ST, DETROIT MI",
      "city": "DETROIT",
      "state": "MI",
      "beds": null,
      "baths": null,
      "sqft": null,
      "lotSize": null,
      "lat": 42.429669,
      "lng": -83.274968
    },
    {
      "propertyId": null,
      "attomId": 22272211,
      "offerDate": "2024-05-07",
      "offerPrice": 69000,
      "status": "recorder",
      "isRebuilt": false,
      "address": "11443 LAKEPOINTE ST, DETROIT MI",
      "city": "DETROIT",
      "state": "MI",
      "beds": null,
      "baths": null,
      "sqft": null,
      "lotSize": null,
      "lat": 42.423745,
      "lng": -82.949299
    },
    {
      "propertyId": null,
      "attomId": 1187715,
      "offerDate": "2024-05-07",
      "offerPrice": 70000,
      "status": "recorder",
      "isRebuilt": false,
      "address": "8224 ARTESIAN ST, DETROIT MI",
      "city": "DETROIT",
      "state": "MI",
      "beds": null,
      "baths": null,
      "sqft": null,
      "lotSize": null,
      "lat": 42.35271,
      "lng": -83.225621
    },
    {
      "propertyId": null,
      "attomId": 42467226,
      "offerDate": "2024-05-07",
      "offerPrice": 70000,
      "status": "recorder",
      "isRebuilt": false,
      "address": "11755 BRAILE ST, DETROIT MI",
      "city": "DETROIT",
      "state": "MI",
      "beds": null,
      "baths": null,
      "sqft": null,
      "lotSize": null,
      "lat": 42.373486,
      "lng": -83.244105
    },
    {
      "propertyId": null,
      "attomId": 10463778,
      "offerDate": "2024-05-06",
      "offerPrice": 72000,
      "status": "recorder",
      "isRebuilt": false,
      "address": "22780 TEPPERT AVE, EASTPOINTE MI",
      "city": "EASTPOINTE",
      "state": "MI",
      "beds": null,
      "baths": null,
      "sqft": null,
      "lotSize": null,
      "lat": 42.466515,
      "lng": -82.93151
    },
    {
      "propertyId": null,
      "attomId": 25281904,
      "offerDate": "2024-05-06",
      "offerPrice": 57000,
      "status": "recorder",
      "isRebuilt": false,
      "address": "18744 WASHTENAW ST, HARPER WOODS MI",
      "city": "HARPER WOODS",
      "state": "MI",
      "beds": null,
      "baths": null,
      "sqft": null,
      "lotSize": null,
      "lat": 42.435362,
      "lng": -82.948681
    },
    {
      "propertyId": null,
      "attomId": 23687854,
      "offerDate": "2024-05-06",
      "offerPrice": 62000,
      "status": "recorder",
      "isRebuilt": false,
      "address": "12468 LAING ST, DETROIT MI",
      "city": "DETROIT",
      "state": "MI",
      "beds": null,
      "baths": null,
      "sqft": null,
      "lotSize": null,
      "lat": 42.429907,
      "lng": -82.950824
    },
    {
      "propertyId": null,
      "attomId": 152566048,
      "offerDate": "2024-05-06",
      "offerPrice": 75000,
      "status": "recorder",
      "isRebuilt": false,
      "address": "19515 GREYDALE AVE, DETROIT MI",
      "city": "DETROIT",
      "state": "MI",
      "beds": null,
      "baths": null,
      "sqft": null,
      "lotSize": null,
      "lat": 42.434437,
      "lng": -83.257634
    },
    {
      "propertyId": null,
      "attomId": 23447545,
      "offerDate": "2024-05-06",
      "offerPrice": 45000,
      "status": "recorder",
      "isRebuilt": false,
      "address": "12224 WAYBURN ST, DETROIT MI",
      "city": "DETROIT",
      "state": "MI",
      "beds": null,
      "baths": null,
      "sqft": null,
      "lotSize": null,
      "lat": 42.430524,
      "lng": -82.946194
    },
    {
      "propertyId": null,
      "attomId": 11334442,
      "offerDate": "2024-04-30",
      "offerPrice": 70000,
      "status": "recorder",
      "isRebuilt": false,
      "address": "13884 EDMORE DR, DETROIT MI",
      "city": "DETROIT",
      "state": "MI",
      "beds": null,
      "baths": null,
      "sqft": null,
      "lotSize": null,
      "lat": 42.446573,
      "lng": -82.981414
    }
  ]
}