{
  "investor": {
    "id": "af2ce229-6fbf-4216-b1f4-9d3c8598d78f",
    "name": "Jarell Keys",
    "email": "jarell@jandsrealtyco.com",
    "phone": "+1 (281) 509-1961",
    "totalWon": 1,
    "totalBids": 1,
    "ytdWon": 0,
    "ytdBids": 0,
    "entities": [
      "WH1 LLC"
    ]
  },
  "stats": {
    "totalTransactions2025": 213,
    "rebuiltTransactions": 0,
    "recorderTransactions": 300,
    "quarterlyStats": {
      "2025-Q1": {
        "rebuilt": 0,
        "total": 20
      },
      "2025-Q2": {
        "rebuilt": 0,
        "total": 46
      },
      "2025-Q3": {
        "rebuilt": 0,
        "total": 58
      },
      "2025-Q4": {
        "rebuilt": 0,
        "total": 89
      },
      "2026-Q1": {
        "rebuilt": 0,
        "total": 83
      }
    }
  },
  "properties": [
    {
      "propertyId": null,
      "attomId": 10132497,
      "offerDate": "2026-04-07T05:00:00.000Z",
      "offerPrice": 540000,
      "status": "recorded",
      "isRebuilt": false,
      "address": "28177 LANGSIDE AVE, SANTA CLARITA CA",
      "city": "SANTA CLARITA",
      "state": "CA",
      "beds": 3,
      "baths": 2,
      "sqft": 1515,
      "lotSize": 0.2041552,
      "lat": 34.439918,
      "lng": -118.484654,
      "entity": "WH1 LLC"
    },
    {
      "propertyId": null,
      "attomId": 156635023,
      "offerDate": "2026-04-03T05:00:00.000Z",
      "offerPrice": 640000,
      "status": "recorded",
      "isRebuilt": false,
      "address": "3186 GALENA AVE, SIMI VALLEY CA",
      "city": "SIMI VALLEY",
      "state": "CA",
      "beds": 4,
      "baths": 3,
      "sqft": 2071,
      "lotSize": 0.1399908,
      "lat": 34.27709,
      "lng": -118.735409,
      "entity": "WH1 LLC"
    },
    {
      "propertyId": null,
      "attomId": 38021766,
      "offerDate": "2026-04-03T05:00:00.000Z",
      "offerPrice": 500000,
      "status": "recorded",
      "isRebuilt": false,
      "address": "485 VERONICA CT, SPARKS NV",
      "city": "SPARKS",
      "state": "NV",
      "beds": 3,
      "baths": 2,
      "sqft": 1877,
      "lotSize": 1.081,
      "lat": 39.643108,
      "lng": -119.733933,
      "entity": "WH1 LLC"
    },
    {
      "propertyId": null,
      "attomId": 184023154,
      "offerDate": "2026-04-03T05:00:00.000Z",
      "offerPrice": 675000,
      "status": "recorded",
      "isRebuilt": false,
      "address": "14535 SEMINOLE TRL, RENO NV",
      "city": "RENO",
      "state": "NV",
      "beds": 4,
      "baths": 2,
      "sqft": 2327,
      "lotSize": 0.5039945,
      "lat": 39.396262,
      "lng": -119.724089,
      "entity": "WH1 LLC"
    },
    {
      "propertyId": null,
      "attomId": 156418600,
      "offerDate": "2026-03-31T05:00:00.000Z",
      "offerPrice": 480000,
      "status": "recorded",
      "isRebuilt": false,
      "address": "3508 SAGEWOOD CT, MODESTO CA",
      "city": "MODESTO",
      "state": "CA",
      "beds": 4,
      "baths": 2,
      "sqft": 2316,
      "lotSize": 0.3199954,
      "lat": 37.689695,
      "lng": -120.988293,
      "entity": "WH1 LLC"
    },
    {
      "propertyId": null,
      "attomId": 11868648,
      "offerDate": "2026-03-30T05:00:00.000Z",
      "offerPrice": 575000,
      "status": "recorded",
      "isRebuilt": false,
      "address": "1203 BAUER AVE, SANTA MARIA CA",
      "city": "SANTA MARIA",
      "state": "CA",
      "beds": 3,
      "baths": 3,
      "sqft": 1264,
      "lotSize": 0.2299816,
      "lat": 34.865785,
      "lng": -120.415162,
      "entity": "WH1 LLC"
    },
    {
      "propertyId": null,
      "attomId": 16670070,
      "offerDate": "2026-03-27T05:00:00.000Z",
      "offerPrice": 415000,
      "status": "recorded",
      "isRebuilt": false,
      "address": "24448 DORNER DR, MORENO VALLEY CA",
      "city": "MORENO VALLEY",
      "state": "CA",
      "beds": 4,
      "baths": 1,
      "sqft": 1342,
      "lotSize": 0.1799816,
      "lat": 33.92346,
      "lng": -117.236095,
      "entity": "WH1 LLC"
    },
    {
      "propertyId": null,
      "attomId": 327145681,
      "offerDate": "2026-03-25T05:00:00.000Z",
      "offerPrice": 560500,
      "status": "recorded",
      "isRebuilt": false,
      "address": "1339 PALOMAR CIR, SACRAMENTO CA",
      "city": "SACRAMENTO",
      "state": "CA",
      "beds": 3,
      "baths": 2,
      "sqft": 1520,
      "lotSize": 0.1699954,
      "lat": 38.498359,
      "lng": -121.507861,
      "entity": "WH1 LLC"
    },
    {
      "propertyId": null,
      "attomId": 183721014,
      "offerDate": "2026-03-25T05:00:00.000Z",
      "offerPrice": 0,
      "status": "recorded",
      "isRebuilt": false,
      "address": "3327 S 200 W, BOUNTIFUL UT",
      "city": "BOUNTIFUL",
      "state": "UT",
      "beds": 5,
      "baths": 3,
      "sqft": 1973,
      "lotSize": 0.4399908,
      "lat": 40.853212,
      "lng": -111.885123,
      "entity": "WH1 LLC"
    },
    {
      "propertyId": null,
      "attomId": 156193493,
      "offerDate": "2026-03-25T05:00:00.000Z",
      "offerPrice": 1150000,
      "status": "recorded",
      "isRebuilt": false,
      "address": "4768 STERLING WAY, CARPINTERIA CA",
      "city": "CARPINTERIA",
      "state": "CA",
      "beds": 3,
      "baths": 3,
      "sqft": 1144,
      "lotSize": 0.3299816,
      "lat": 34.404782,
      "lng": -119.520748,
      "entity": "WH1 LLC"
    },
    {
      "propertyId": null,
      "attomId": 155250755,
      "offerDate": "2026-03-25T05:00:00.000Z",
      "offerPrice": 495000,
      "status": "recorded",
      "isRebuilt": false,
      "address": "33467 VIEWPOINT DR, WILDOMAR CA",
      "city": "WILDOMAR",
      "state": "CA",
      "beds": 3,
      "baths": 2,
      "sqft": 1272,
      "lotSize": 0.1699954,
      "lat": 33.633862,
      "lng": -117.265867,
      "entity": "WH1 LLC"
    },
    {
      "propertyId": null,
      "attomId": 154667560,
      "offerDate": "2026-03-25T05:00:00.000Z",
      "offerPrice": 605000,
      "status": "recorded",
      "isRebuilt": false,
      "address": "2048 N HICKS AVE, LOS ANGELES CA",
      "city": "LOS ANGELES",
      "state": "CA",
      "beds": 2,
      "baths": 1,
      "sqft": 977,
      "lotSize": 0.1265611,
      "lat": 34.067876,
      "lng": -118.190629,
      "entity": "WH1 LLC"
    },
    {
      "propertyId": null,
      "attomId": 156286105,
      "offerDate": "2026-03-24T05:00:00.000Z",
      "offerPrice": 0,
      "status": "recorded",
      "isRebuilt": false,
      "address": "2219 GOLDSMITH AVE, THOUSAND OAKS CA",
      "city": "THOUSAND OAKS",
      "state": "CA",
      "beds": 4,
      "baths": 2,
      "sqft": 1626,
      "lotSize": 0.1899908,
      "lat": 34.209076,
      "lng": -118.873361,
      "entity": "WH1 LLC"
    },
    {
      "propertyId": null,
      "attomId": 53713016,
      "offerDate": "2026-03-23T05:00:00.000Z",
      "offerPrice": 341000,
      "status": "recorded",
      "isRebuilt": false,
      "address": "6920 WAXWING WAY, SACRAMENTO CA",
      "city": "SACRAMENTO",
      "state": "CA",
      "beds": 3,
      "baths": 2,
      "sqft": 1422,
      "lotSize": 0.2892562,
      "lat": 38.692094,
      "lng": -121.350922,
      "entity": "WH1 LLC"
    },
    {
      "propertyId": null,
      "attomId": 1317193,
      "offerDate": "2026-03-20T05:00:00.000Z",
      "offerPrice": 800000,
      "status": "recorded",
      "isRebuilt": false,
      "address": "1878 DUNCAN WAY, CORONA CA",
      "city": "CORONA",
      "state": "CA",
      "beds": 3,
      "baths": 2,
      "sqft": 2254,
      "lotSize": 0.1899908,
      "lat": 33.82287,
      "lng": -117.53173,
      "entity": "WH1 LLC"
    },
    {
      "propertyId": null,
      "attomId": 30991595,
      "offerDate": "2026-03-20T05:00:00.000Z",
      "offerPrice": 640000,
      "status": "recorded",
      "isRebuilt": false,
      "address": "5130 N CLYDEBANK AVE, COVINA CA",
      "city": "COVINA",
      "state": "CA",
      "beds": 3,
      "baths": 2,
      "sqft": 1198,
      "lotSize": 0.21382,
      "lat": 34.106029,
      "lng": -117.919745,
      "entity": "WH1 LLC"
    },
    {
      "propertyId": null,
      "attomId": 20747661,
      "offerDate": "2026-03-19T05:00:00.000Z",
      "offerPrice": 510000,
      "status": "recorded",
      "isRebuilt": false,
      "address": "1000 W 131ST ST, COMPTON CA",
      "city": "COMPTON",
      "state": "CA",
      "beds": 2,
      "baths": 1,
      "sqft": 1064,
      "lotSize": 0.1501607,
      "lat": 33.912819,
      "lng": -118.243261,
      "entity": "WH1 LLC"
    },
    {
      "propertyId": null,
      "attomId": 1515527,
      "offerDate": "2026-03-19T05:00:00.000Z",
      "offerPrice": 490000,
      "status": "recorded",
      "isRebuilt": false,
      "address": "1246 W 123RD ST, LOS ANGELES CA",
      "city": "LOS ANGELES",
      "state": "CA",
      "beds": 1,
      "baths": 1,
      "sqft": 972,
      "lotSize": 0.1610652,
      "lat": 33.920912,
      "lng": -118.298028,
      "entity": "WH1 LLC"
    },
    {
      "propertyId": null,
      "attomId": 19895979,
      "offerDate": "2026-03-18T05:00:00.000Z",
      "offerPrice": 410000,
      "status": "recorded",
      "isRebuilt": false,
      "address": "25886 FAIRCREST CIR, HEMET CA",
      "city": "HEMET",
      "state": "CA",
      "beds": 4,
      "baths": 2,
      "sqft": 2154,
      "lotSize": 0.25,
      "lat": 33.745953,
      "lng": -116.88253,
      "entity": "WH1 LLC"
    },
    {
      "propertyId": null,
      "attomId": 141746291,
      "offerDate": "2026-03-18T05:00:00.000Z",
      "offerPrice": 660000,
      "status": "recorded",
      "isRebuilt": false,
      "address": "2327 W SHERWAY ST, WEST COVINA CA",
      "city": "WEST COVINA",
      "state": "CA",
      "beds": 4,
      "baths": 2,
      "sqft": 1200,
      "lotSize": 0.1650138,
      "lat": 34.073822,
      "lng": -117.95324,
      "entity": "WH1 LLC"
    },
    {
      "propertyId": null,
      "attomId": 22625486,
      "offerDate": "2026-03-18T05:00:00.000Z",
      "offerPrice": 435000,
      "status": "recorded",
      "isRebuilt": false,
      "address": "555 N CHESTNUT AVE, RIALTO CA",
      "city": "RIALTO",
      "state": "CA",
      "beds": 3,
      "baths": 2,
      "sqft": 1188,
      "lotSize": 0.1666667,
      "lat": 34.109546,
      "lng": -117.355228,
      "entity": "WH1 LLC"
    },
    {
      "propertyId": null,
      "attomId": 150586329,
      "offerDate": "2026-03-17T05:00:00.000Z",
      "offerPrice": 415000,
      "status": "recorded",
      "isRebuilt": false,
      "address": "3415 EVENING SUN DR, LAS VEGAS NV",
      "city": "LAS VEGAS",
      "state": "NV",
      "beds": 4,
      "baths": 3,
      "sqft": 2412,
      "lotSize": 0.1399908,
      "lat": 36.127396,
      "lng": -115.285524,
      "entity": "WH1 LLC"
    },
    {
      "propertyId": null,
      "attomId": 778827,
      "offerDate": "2026-03-17T05:00:00.000Z",
      "offerPrice": 400000,
      "status": "recorded",
      "isRebuilt": false,
      "address": "1092 DESERT SHALE AVE, LAS VEGAS NV",
      "city": "LAS VEGAS",
      "state": "NV",
      "beds": 4,
      "baths": 2,
      "sqft": 1937,
      "lotSize": 0.1399908,
      "lat": 36.025666,
      "lng": -115.138941,
      "entity": "WH1 LLC"
    },
    {
      "propertyId": null,
      "attomId": 140544764,
      "offerDate": "2026-03-17T05:00:00.000Z",
      "offerPrice": 950000,
      "status": "recorded",
      "isRebuilt": false,
      "address": "1505 TEN PALMS CT, LAS VEGAS NV",
      "city": "LAS VEGAS",
      "state": "NV",
      "beds": 5,
      "baths": 4,
      "sqft": 3727,
      "lotSize": 0.4600092,
      "lat": 36.153887,
      "lng": -115.259153,
      "entity": "WH1 LLC"
    },
    {
      "propertyId": null,
      "attomId": 25430149,
      "offerDate": "2026-03-17T05:00:00.000Z",
      "offerPrice": 575000,
      "status": "recorded",
      "isRebuilt": false,
      "address": "13310 REMINGTON ST, PACOIMA CA",
      "city": "PACOIMA",
      "state": "CA",
      "beds": 2,
      "baths": 1,
      "sqft": 1411,
      "lotSize": 0.1426768,
      "lat": 34.256231,
      "lng": -118.422552,
      "entity": "WH1 LLC"
    },
    {
      "propertyId": null,
      "attomId": 145959135,
      "offerDate": "2026-03-13T05:00:00.000Z",
      "offerPrice": 580000,
      "status": "recorded",
      "isRebuilt": false,
      "address": "910 N TAJAUTA AVE, COMPTON CA",
      "city": "COMPTON",
      "state": "CA",
      "beds": 2,
      "baths": 2,
      "sqft": 1224,
      "lotSize": 0.2232553,
      "lat": 33.902414,
      "lng": -118.246406,
      "entity": "WH1 LLC"
    },
    {
      "propertyId": null,
      "attomId": 47473429,
      "offerDate": "2026-03-13T05:00:00.000Z",
      "offerPrice": 0,
      "status": "recorded",
      "isRebuilt": false,
      "address": "5901 GLEN HEATHER DR, PLANO TX",
      "city": "PLANO",
      "state": "TX",
      "beds": 4,
      "baths": 4,
      "sqft": 3345,
      "lotSize": 0,
      "lat": 33.023516,
      "lng": -96.824447,
      "entity": "WH1 LLC"
    },
    {
      "propertyId": null,
      "attomId": 183712717,
      "offerDate": "2026-03-13T05:00:00.000Z",
      "offerPrice": 0,
      "status": "recorded",
      "isRebuilt": false,
      "address": "2085 E CASTLE HILL AVE, SALT LAKE CITY UT",
      "city": "SALT LAKE CITY",
      "state": "UT",
      "beds": 4,
      "baths": 2,
      "sqft": 1120,
      "lotSize": 0.1899908,
      "lat": 40.615887,
      "lng": -111.831619,
      "entity": "WH1 LLC"
    },
    {
      "propertyId": null,
      "attomId": 52989434,
      "offerDate": "2026-03-12T05:00:00.000Z",
      "offerPrice": 450000,
      "status": "recorded",
      "isRebuilt": false,
      "address": "8901 GLENCOE DR, RIVERSIDE CA",
      "city": "RIVERSIDE",
      "state": "CA",
      "beds": 4,
      "baths": 1,
      "sqft": 1278,
      "lotSize": 0.1699954,
      "lat": 33.939934,
      "lng": -117.446302,
      "entity": "WH1 LLC"
    },
    {
      "propertyId": null,
      "attomId": 53442505,
      "offerDate": "2026-03-11T05:00:00.000Z",
      "offerPrice": 402500,
      "status": "recorded",
      "isRebuilt": false,
      "address": "744 W PALO ALTO AVE, FRESNO CA",
      "city": "FRESNO",
      "state": "CA",
      "beds": 3,
      "baths": 2,
      "sqft": 2122,
      "lotSize": 0.1820707,
      "lat": 36.833481,
      "lng": -119.80704,
      "entity": "WH1 LLC"
    },
    {
      "propertyId": null,
      "attomId": 154673273,
      "offerDate": "2026-03-11T05:00:00.000Z",
      "offerPrice": 600000,
      "status": "recorded",
      "isRebuilt": false,
      "address": "7338 PASSONS BLVD, PICO RIVERA CA",
      "city": "PICO RIVERA",
      "state": "CA",
      "beds": 3,
      "baths": 2,
      "sqft": 1359,
      "lotSize": 0.1257805,
      "lat": 33.973484,
      "lng": -118.093844,
      "entity": "WH1 LLC"
    },
    {
      "propertyId": null,
      "attomId": 154716141,
      "offerDate": "2026-03-11T05:00:00.000Z",
      "offerPrice": 550000,
      "status": "recorded",
      "isRebuilt": false,
      "address": "11415 MAPLEDALE ST, NORWALK CA",
      "city": "NORWALK",
      "state": "CA",
      "beds": 3,
      "baths": 1,
      "sqft": 1006,
      "lotSize": 0.1408861,
      "lat": 33.898732,
      "lng": -118.090727,
      "entity": "WH1 LLC"
    },
    {
      "propertyId": null,
      "attomId": 21916524,
      "offerDate": "2026-03-11T05:00:00.000Z",
      "offerPrice": 475000,
      "status": "recorded",
      "isRebuilt": false,
      "address": "760 KELVIN RD, EL SOBRANTE CA",
      "city": "EL SOBRANTE",
      "state": "CA",
      "beds": 4,
      "baths": 2,
      "sqft": 1631,
      "lotSize": 0.2582645,
      "lat": 37.982243,
      "lng": -122.301264,
      "entity": "WH1 LLC"
    },
    {
      "propertyId": null,
      "attomId": 142702524,
      "offerDate": "2026-03-10T05:00:00.000Z",
      "offerPrice": 625000,
      "status": "recorded",
      "isRebuilt": false,
      "address": "1701 RUSSELL ST, BERKELEY CA",
      "city": "BERKELEY",
      "state": "CA",
      "beds": 2,
      "baths": 1,
      "sqft": 927,
      "lotSize": 0.0514233,
      "lat": 37.855794,
      "lng": -122.274926,
      "entity": "WH1 LLC"
    },
    {
      "propertyId": null,
      "attomId": 21193674,
      "offerDate": "2026-03-10T05:00:00.000Z",
      "offerPrice": 702500,
      "status": "recorded",
      "isRebuilt": false,
      "address": "8101 E TIMOR ST, LONG BEACH CA",
      "city": "LONG BEACH",
      "state": "CA",
      "beds": 3,
      "baths": 2,
      "sqft": 1120,
      "lotSize": 0.1360422,
      "lat": 33.819531,
      "lng": -118.071012,
      "entity": "WH1 LLC"
    },
    {
      "propertyId": null,
      "attomId": 15634773,
      "offerDate": "2026-03-09T05:00:00.000Z",
      "offerPrice": 560000,
      "status": "recorded",
      "isRebuilt": false,
      "address": "1227 JADESTONE LN, CORONA CA",
      "city": "CORONA",
      "state": "CA",
      "beds": 4,
      "baths": 1,
      "sqft": 1440,
      "lotSize": 0.1599862,
      "lat": 33.870217,
      "lng": -117.598862,
      "entity": "WH1 LLC"
    },
    {
      "propertyId": null,
      "attomId": 52118136,
      "offerDate": "2026-03-06T06:00:00.000Z",
      "offerPrice": 662000,
      "status": "recorded",
      "isRebuilt": false,
      "address": "1666 CEDAR AVE, SAN LEANDRO CA",
      "city": "SAN LEANDRO",
      "state": "CA",
      "beds": 3,
      "baths": 1,
      "sqft": 1096,
      "lotSize": 0.1322314,
      "lat": 37.700745,
      "lng": -122.162213,
      "entity": "WH1 LLC"
    },
    {
      "propertyId": null,
      "attomId": 230384137,
      "offerDate": "2026-03-06T06:00:00.000Z",
      "offerPrice": 400000,
      "status": "recorded",
      "isRebuilt": false,
      "address": "1333 SKYRIDGE DR, FALLON NV",
      "city": "FALLON",
      "state": "NV",
      "beds": 3,
      "baths": 2,
      "sqft": 1828,
      "lotSize": 1,
      "lat": 39.496321,
      "lng": -118.870452,
      "entity": "WH1 LLC"
    },
    {
      "propertyId": null,
      "attomId": 20340732,
      "offerDate": "2026-03-04T06:00:00.000Z",
      "offerPrice": 650000,
      "status": "recorded",
      "isRebuilt": false,
      "address": "6140 FULCHER AVE, NORTH HOLLYWOOD CA",
      "city": "NORTH HOLLYWOOD",
      "state": "CA",
      "beds": 2,
      "baths": 1,
      "sqft": 1084,
      "lotSize": 0.1376951,
      "lat": 34.182356,
      "lng": -118.372914,
      "entity": "WH1 LLC"
    },
    {
      "propertyId": null,
      "attomId": 147573967,
      "offerDate": "2026-03-03T06:00:00.000Z",
      "offerPrice": 0,
      "status": "recorded",
      "isRebuilt": false,
      "address": "7704 LA COSA DR, DALLAS TX",
      "city": "DALLAS",
      "state": "TX",
      "beds": 4,
      "baths": 3,
      "sqft": 2131,
      "lotSize": 0.152663,
      "lat": 32.959308,
      "lng": -96.775427,
      "entity": "WH1 LLC"
    },
    {
      "propertyId": null,
      "attomId": 165370495,
      "offerDate": "2026-03-02T06:00:00.000Z",
      "offerPrice": 0,
      "status": "recorded",
      "isRebuilt": false,
      "address": "2 CRESTWOOD DR, TROPHY CLUB TX",
      "city": "TROPHY CLUB",
      "state": "TX",
      "beds": 4,
      "baths": 3,
      "sqft": 3424,
      "lotSize": 0.2725895,
      "lat": 32.99979,
      "lng": -97.172655,
      "entity": "WH1 LLC"
    },
    {
      "propertyId": null,
      "attomId": 149977295,
      "offerDate": "2026-02-27T06:00:00.000Z",
      "offerPrice": 280000,
      "status": "recorded",
      "isRebuilt": false,
      "address": "2554 HARVARD AVE, CLOVIS CA",
      "city": "CLOVIS",
      "state": "CA",
      "beds": 3,
      "baths": 1,
      "sqft": 1384,
      "lotSize": 0.1556474,
      "lat": 36.803216,
      "lng": -119.705022,
      "entity": "WH1 LLC"
    },
    {
      "propertyId": null,
      "attomId": 140950140,
      "offerDate": "2026-02-26T06:00:00.000Z",
      "offerPrice": 563000,
      "status": "recorded",
      "isRebuilt": false,
      "address": "7137 OLIVE AVE, LONG BEACH CA",
      "city": "LONG BEACH",
      "state": "CA",
      "beds": 2,
      "baths": 1,
      "sqft": 1204,
      "lotSize": 0.1446511,
      "lat": 33.88435,
      "lng": -118.183088,
      "entity": "WH1 LLC"
    },
    {
      "propertyId": null,
      "attomId": 141474435,
      "offerDate": "2026-02-26T06:00:00.000Z",
      "offerPrice": 835000,
      "status": "recorded",
      "isRebuilt": false,
      "address": "19708 GRIDLEY RD, CERRITOS CA",
      "city": "CERRITOS",
      "state": "CA",
      "beds": 4,
      "baths": 2,
      "sqft": 1704,
      "lotSize": 0.1224977,
      "lat": 33.851373,
      "lng": -118.090522,
      "entity": "WH1 LLC"
    },
    {
      "propertyId": null,
      "attomId": 27280825,
      "offerDate": "2026-02-25T06:00:00.000Z",
      "offerPrice": 566000,
      "status": "recorded",
      "isRebuilt": false,
      "address": "2065 W 65TH ST, LOS ANGELES CA",
      "city": "LOS ANGELES",
      "state": "CA",
      "beds": 2,
      "baths": 1,
      "sqft": 1096,
      "lotSize": 0.109573,
      "lat": 33.980852,
      "lng": -118.315531,
      "entity": "WH1 LLC"
    },
    {
      "propertyId": null,
      "attomId": 34880960,
      "offerDate": "2026-02-25T06:00:00.000Z",
      "offerPrice": 450000,
      "status": "recorded",
      "isRebuilt": false,
      "address": "516 N BEGONIA AVE, ONTARIO CA",
      "city": "ONTARIO",
      "state": "CA",
      "beds": 3,
      "baths": 2,
      "sqft": 1250,
      "lotSize": 0.1480257,
      "lat": 34.069262,
      "lng": -117.671301,
      "entity": "WH1 LLC"
    },
    {
      "propertyId": null,
      "attomId": 8403807,
      "offerDate": "2026-02-23T06:00:00.000Z",
      "offerPrice": 510000,
      "status": "recorded",
      "isRebuilt": false,
      "address": "730 GRAPE CIR, COMPTON CA",
      "city": "COMPTON",
      "state": "CA",
      "beds": 4,
      "baths": 3,
      "sqft": 1581,
      "lotSize": 0.076056,
      "lat": 33.89041,
      "lng": -118.235149,
      "entity": "WH1 LLC"
    },
    {
      "propertyId": null,
      "attomId": 166670615,
      "offerDate": "2026-02-23T06:00:00.000Z",
      "offerPrice": 0,
      "status": "recorded",
      "isRebuilt": false,
      "address": "1803 BAYLOR DR, RICHARDSON TX",
      "city": "RICHARDSON",
      "state": "TX",
      "beds": 3,
      "baths": 2,
      "sqft": 1897,
      "lotSize": 0.2008724,
      "lat": 32.932075,
      "lng": -96.690403,
      "entity": "WH1 LLC"
    },
    {
      "propertyId": null,
      "attomId": 156268380,
      "offerDate": "2026-02-20T06:00:00.000Z",
      "offerPrice": 535000,
      "status": "recorded",
      "isRebuilt": false,
      "address": "1521 SARKESIAN DR, PETALUMA CA",
      "city": "PETALUMA",
      "state": "CA",
      "beds": 4,
      "baths": 2,
      "sqft": 1338,
      "lotSize": 0.1484848,
      "lat": 38.246708,
      "lng": -122.614221,
      "entity": "WH1 LLC"
    },
    {
      "propertyId": null,
      "attomId": 20648418,
      "offerDate": "2026-02-20T06:00:00.000Z",
      "offerPrice": 0,
      "status": "recorded",
      "isRebuilt": false,
      "address": "1412 VIA ARBOLITOS, SANTA MARIA CA",
      "city": "SANTA MARIA",
      "state": "CA",
      "beds": 3,
      "baths": 2,
      "sqft": 1109,
      "lotSize": 0.1299816,
      "lat": 34.921088,
      "lng": -120.460773,
      "entity": "WH1 LLC"
    },
    {
      "propertyId": null,
      "attomId": 20841889,
      "offerDate": "2026-02-19T06:00:00.000Z",
      "offerPrice": 500000,
      "status": "recorded",
      "isRebuilt": false,
      "address": "11740 MINUTEMAN DR, RIVERSIDE CA",
      "city": "RIVERSIDE",
      "state": "CA",
      "beds": 3,
      "baths": 1,
      "sqft": 1393,
      "lotSize": 0.1799816,
      "lat": 33.891215,
      "lng": -117.484473,
      "entity": "WH1 LLC"
    },
    {
      "propertyId": null,
      "attomId": 157256584,
      "offerDate": "2026-02-17T06:00:00.000Z",
      "offerPrice": 1000000,
      "status": "recorded",
      "isRebuilt": false,
      "address": "457 NORA CT, WALNUT CREEK CA",
      "city": "WALNUT CREEK",
      "state": "CA",
      "beds": 3,
      "baths": 2,
      "sqft": 1404,
      "lotSize": 0.4545455,
      "lat": 37.934951,
      "lng": -122.048579,
      "entity": "WH1 LLC"
    },
    {
      "propertyId": null,
      "attomId": 25700726,
      "offerDate": "2026-02-17T06:00:00.000Z",
      "offerPrice": 400000,
      "status": "recorded",
      "isRebuilt": false,
      "address": "12013 ROCKRIDGE DR, FONTANA CA",
      "city": "FONTANA",
      "state": "CA",
      "beds": 3,
      "baths": 2,
      "sqft": 1125,
      "lotSize": 0.137741,
      "lat": 34.035252,
      "lng": -117.480546,
      "entity": "WH1 LLC"
    },
    {
      "propertyId": null,
      "attomId": 157180258,
      "offerDate": "2026-02-17T06:00:00.000Z",
      "offerPrice": 635000,
      "status": "recorded",
      "isRebuilt": false,
      "address": "101 MONTICITO CT, ROSEVILLE CA",
      "city": "ROSEVILLE",
      "state": "CA",
      "beds": 3,
      "baths": 3,
      "sqft": 2181,
      "lotSize": 0.2912305,
      "lat": 38.771953,
      "lng": -121.297818,
      "entity": "WH1 LLC"
    },
    {
      "propertyId": null,
      "attomId": 147687719,
      "offerDate": "2026-02-17T06:00:00.000Z",
      "offerPrice": 500000,
      "status": "recorded",
      "isRebuilt": false,
      "address": "4661 DRIFTWOOD CT, EL SOBRANTE CA",
      "city": "EL SOBRANTE",
      "state": "CA",
      "beds": 3,
      "baths": 2,
      "sqft": 1068,
      "lotSize": 0.2089073,
      "lat": 37.975199,
      "lng": -122.304086,
      "entity": "WH1 LLC"
    },
    {
      "propertyId": null,
      "attomId": 46651011,
      "offerDate": "2026-02-13T06:00:00.000Z",
      "offerPrice": 401000,
      "status": "recorded",
      "isRebuilt": false,
      "address": "364 E MARWOOD LN, FRESNO CA",
      "city": "FRESNO",
      "state": "CA",
      "beds": 3,
      "baths": 2,
      "sqft": 1811,
      "lotSize": 0.1225895,
      "lat": 36.86771,
      "lng": -119.776863,
      "entity": "WH1 LLC"
    },
    {
      "propertyId": null,
      "attomId": 156340277,
      "offerDate": "2026-02-13T06:00:00.000Z",
      "offerPrice": 900000,
      "status": "recorded",
      "isRebuilt": false,
      "address": "13052 VIA CABALLO ROJO, SAN DIEGO CA",
      "city": "SAN DIEGO",
      "state": "CA",
      "beds": 3,
      "baths": 2,
      "sqft": 1188,
      "lotSize": 0.1216713,
      "lat": 32.954413,
      "lng": -117.110448,
      "entity": "WH1 LLC"
    },
    {
      "propertyId": null,
      "attomId": 221660893,
      "offerDate": "2026-02-13T06:00:00.000Z",
      "offerPrice": 706000,
      "status": "recorded",
      "isRebuilt": false,
      "address": "302 GRIFFIN CT, STATELINE NV",
      "city": "STATELINE",
      "state": "NV",
      "beds": 0,
      "baths": null,
      "sqft": 1769,
      "lotSize": 0.4,
      "lat": 38.991062,
      "lng": -119.897236,
      "entity": "WH1 LLC"
    },
    {
      "propertyId": null,
      "attomId": 155840488,
      "offerDate": "2026-02-11T06:00:00.000Z",
      "offerPrice": 557000,
      "status": "recorded",
      "isRebuilt": false,
      "address": "1756 VALLEJO WAY, SACRAMENTO CA",
      "city": "SACRAMENTO",
      "state": "CA",
      "beds": 3,
      "baths": 2,
      "sqft": 1136,
      "lotSize": 0.1100092,
      "lat": 38.551811,
      "lng": -121.493043,
      "entity": "WH1 LLC"
    },
    {
      "propertyId": null,
      "attomId": 153555746,
      "offerDate": "2026-02-11T06:00:00.000Z",
      "offerPrice": 570000,
      "status": "recorded",
      "isRebuilt": false,
      "address": "7523 DALTON AVE, LOS ANGELES CA",
      "city": "LOS ANGELES",
      "state": "CA",
      "beds": 2,
      "baths": 1,
      "sqft": 1523,
      "lotSize": 0.1239669,
      "lat": 33.971312,
      "lng": -118.303848,
      "entity": "WH1 LLC"
    },
    {
      "propertyId": null,
      "attomId": 154504508,
      "offerDate": "2026-02-06T06:00:00.000Z",
      "offerPrice": 1295000,
      "status": "recorded",
      "isRebuilt": false,
      "address": "803 EUCALYPTUS DR, EL SEGUNDO CA",
      "city": "EL SEGUNDO",
      "state": "CA",
      "beds": 3,
      "baths": 1,
      "sqft": 1242,
      "lotSize": 0.1424472,
      "lat": 33.927136,
      "lng": -118.413869,
      "entity": "WH1 LLC"
    },
    {
      "propertyId": null,
      "attomId": 140287937,
      "offerDate": "2026-02-05T06:00:00.000Z",
      "offerPrice": 605000,
      "status": "recorded",
      "isRebuilt": false,
      "address": "1179 TEMPLE DR, PACHECO CA",
      "city": "PACHECO",
      "state": "CA",
      "beds": 4,
      "baths": 3,
      "sqft": 1698,
      "lotSize": 0.1584022,
      "lat": 37.987903,
      "lng": -122.075751,
      "entity": "WH1 LLC"
    },
    {
      "propertyId": null,
      "attomId": 14081732,
      "offerDate": "2026-02-05T06:00:00.000Z",
      "offerPrice": 715000,
      "status": "recorded",
      "isRebuilt": false,
      "address": "1800 GILARDY DR, CONCORD CA",
      "city": "CONCORD",
      "state": "CA",
      "beds": 3,
      "baths": 2,
      "sqft": 1796,
      "lotSize": 0.2517218,
      "lat": 37.947111,
      "lng": -122.039644,
      "entity": "WH1 LLC"
    },
    {
      "propertyId": null,
      "attomId": 154695493,
      "offerDate": "2026-02-04T06:00:00.000Z",
      "offerPrice": 938000,
      "status": "recorded",
      "isRebuilt": false,
      "address": "24005 FULMAR AVE, TORRANCE CA",
      "city": "TORRANCE",
      "state": "CA",
      "beds": 4,
      "baths": 2,
      "sqft": 1801,
      "lotSize": 0.1415289,
      "lat": 33.807011,
      "lng": -118.309125,
      "entity": "WH1 LLC"
    },
    {
      "propertyId": null,
      "attomId": 1460682,
      "offerDate": "2026-02-03T06:00:00.000Z",
      "offerPrice": 500000,
      "status": "recorded",
      "isRebuilt": false,
      "address": "13902 S TAJAUTA AVE, COMPTON CA",
      "city": "COMPTON",
      "state": "CA",
      "beds": 3,
      "baths": 2,
      "sqft": 1189,
      "lotSize": 0.1269743,
      "lat": 33.90578,
      "lng": -118.246589,
      "entity": "WH1 LLC"
    },
    {
      "propertyId": null,
      "attomId": 52142088,
      "offerDate": "2026-02-02T06:00:00.000Z",
      "offerPrice": 502000,
      "status": "recorded",
      "isRebuilt": false,
      "address": "526 W PALMER ST, COMPTON CA",
      "city": "COMPTON",
      "state": "CA",
      "beds": 3,
      "baths": 1,
      "sqft": 1182,
      "lotSize": 0.1375344,
      "lat": 33.898189,
      "lng": -118.233149,
      "entity": "WH1 LLC"
    },
    {
      "propertyId": null,
      "attomId": 16306177,
      "offerDate": "2026-01-30T06:00:00.000Z",
      "offerPrice": 500000,
      "status": "recorded",
      "isRebuilt": false,
      "address": "15849 FIRETHORN RD, FONTANA CA",
      "city": "FONTANA",
      "state": "CA",
      "beds": 4,
      "baths": 3,
      "sqft": 2454,
      "lotSize": 0.0918274,
      "lat": 34.043684,
      "lng": -117.458992,
      "entity": "WH1 LLC"
    },
    {
      "propertyId": null,
      "attomId": 141325901,
      "offerDate": "2026-01-30T06:00:00.000Z",
      "offerPrice": 600000,
      "status": "recorded",
      "isRebuilt": false,
      "address": "3702 GRAND AVE, HUNTINGTON PARK CA",
      "city": "HUNTINGTON PARK",
      "state": "CA",
      "beds": 3,
      "baths": 2,
      "sqft": 1403,
      "lotSize": 0.1221763,
      "lat": 33.966474,
      "lng": -118.201673,
      "entity": "WH1 LLC"
    },
    {
      "propertyId": null,
      "attomId": 329097889,
      "offerDate": "2026-01-29T06:00:00.000Z",
      "offerPrice": 425500,
      "status": "recorded",
      "isRebuilt": false,
      "address": "453 CIMARRON DR, PERRIS CA",
      "city": "PERRIS",
      "state": "CA",
      "beds": 3,
      "baths": 1,
      "sqft": 1771,
      "lotSize": 0.3,
      "lat": 33.74351,
      "lng": -117.216287,
      "entity": "WH1 LLC"
    },
    {
      "propertyId": null,
      "attomId": 148455919,
      "offerDate": "2026-01-27T06:00:00.000Z",
      "offerPrice": 397000,
      "status": "recorded",
      "isRebuilt": false,
      "address": "30211 WESTLAKE DR, MENIFEE CA",
      "city": "MENIFEE",
      "state": "CA",
      "beds": 3,
      "baths": 3,
      "sqft": 1746,
      "lotSize": 0.1299816,
      "lat": 33.682083,
      "lng": -117.167319,
      "entity": "WH1 LLC"
    },
    {
      "propertyId": null,
      "attomId": 183833849,
      "offerDate": "2026-01-26T06:00:00.000Z",
      "offerPrice": 0,
      "status": "recorded",
      "isRebuilt": false,
      "address": "8147 S BUENO VISTA DR, WEST JORDAN UT",
      "city": "WEST JORDAN",
      "state": "UT",
      "beds": 3,
      "baths": 2,
      "sqft": 1436,
      "lotSize": 0.35,
      "lat": 40.603302,
      "lng": -111.954257,
      "entity": "WH1 LLC"
    },
    {
      "propertyId": null,
      "attomId": 100005183,
      "offerDate": "2026-01-23T06:00:00.000Z",
      "offerPrice": 535000,
      "status": "recorded",
      "isRebuilt": false,
      "address": "2674 LA MORADA DR, RIALTO CA",
      "city": "RIALTO",
      "state": "CA",
      "beds": 5,
      "baths": 3,
      "sqft": 2560,
      "lotSize": 0.1974288,
      "lat": 34.165509,
      "lng": -117.426824,
      "entity": "WH1 LLC"
    },
    {
      "propertyId": null,
      "attomId": 147642576,
      "offerDate": "2026-01-23T06:00:00.000Z",
      "offerPrice": 280000,
      "status": "recorded",
      "isRebuilt": false,
      "address": "10139 ROCKY TREE ST, LAS VEGAS NV",
      "city": "LAS VEGAS",
      "state": "NV",
      "beds": 3,
      "baths": 3,
      "sqft": 1510,
      "lotSize": 0.05,
      "lat": 36.005729,
      "lng": -115.151226,
      "entity": "WH1 LLC"
    },
    {
      "propertyId": null,
      "attomId": 156284345,
      "offerDate": "2026-01-22T06:00:00.000Z",
      "offerPrice": 511000,
      "status": "recorded",
      "isRebuilt": false,
      "address": "2400 W HEMLOCK ST, OXNARD CA",
      "city": "OXNARD",
      "state": "CA",
      "beds": 3,
      "baths": 2,
      "sqft": 1321,
      "lotSize": 0.1299816,
      "lat": 34.180946,
      "lng": -119.203972,
      "entity": "WH1 LLC"
    },
    {
      "propertyId": null,
      "attomId": 144500494,
      "offerDate": "2026-01-21T06:00:00.000Z",
      "offerPrice": 1130000,
      "status": "recorded",
      "isRebuilt": false,
      "address": "3531 LA MESA DR, HAYWARD CA",
      "city": "HAYWARD",
      "state": "CA",
      "beds": 4,
      "baths": 3,
      "sqft": 2552,
      "lotSize": 0.1669651,
      "lat": 37.653405,
      "lng": -122.02998,
      "entity": "WH1 LLC"
    },
    {
      "propertyId": null,
      "attomId": 52248565,
      "offerDate": "2026-01-16T06:00:00.000Z",
      "offerPrice": 371000,
      "status": "recorded",
      "isRebuilt": false,
      "address": "24169 MARLEY CIR, MENIFEE CA",
      "city": "MENIFEE",
      "state": "CA",
      "beds": 4,
      "baths": 2,
      "sqft": 1460,
      "lotSize": 0.5899908,
      "lat": 33.769465,
      "lng": -117.161672,
      "entity": "WH1 LLC"
    },
    {
      "propertyId": null,
      "attomId": 21173801,
      "offerDate": "2026-01-15T06:00:00.000Z",
      "offerPrice": 640000,
      "status": "recorded",
      "isRebuilt": false,
      "address": "16150 E QUEENSIDE DR, COVINA CA",
      "city": "COVINA",
      "state": "CA",
      "beds": 4,
      "baths": 1,
      "sqft": 1418,
      "lotSize": 0.1650597,
      "lat": 34.093326,
      "lng": -117.930364,
      "entity": "WH1 LLC"
    },
    {
      "propertyId": null,
      "attomId": 27212019,
      "offerDate": "2026-01-13T06:00:00.000Z",
      "offerPrice": 430000,
      "status": "recorded",
      "isRebuilt": false,
      "address": "2025 TRUMAN LN, OAKLEY CA",
      "city": "OAKLEY",
      "state": "CA",
      "beds": 3,
      "baths": 2,
      "sqft": 1317,
      "lotSize": 0.132461,
      "lat": 37.987075,
      "lng": -121.733837,
      "entity": "WH1 LLC"
    },
    {
      "propertyId": null,
      "attomId": 53953419,
      "offerDate": "2026-01-12T06:00:00.000Z",
      "offerPrice": 312000,
      "status": "recorded",
      "isRebuilt": false,
      "address": "4490 CIRCUIT CT, ROCKLIN CA",
      "city": "ROCKLIN",
      "state": "CA",
      "beds": 3,
      "baths": 1,
      "sqft": 1232,
      "lotSize": 0.1674931,
      "lat": 38.798112,
      "lng": -121.225738,
      "entity": "WH1 LLC"
    },
    {
      "propertyId": null,
      "attomId": 52258851,
      "offerDate": "2026-01-09T06:00:00.000Z",
      "offerPrice": 1031000,
      "status": "recorded",
      "isRebuilt": false,
      "address": "18717 DE VOSS AVE, CERRITOS CA",
      "city": "CERRITOS",
      "state": "CA",
      "beds": 3,
      "baths": 2,
      "sqft": 1897,
      "lotSize": 0.1222222,
      "lat": 33.861267,
      "lng": -118.061317,
      "entity": "WH1 LLC"
    },
    {
      "propertyId": null,
      "attomId": 5010181,
      "offerDate": "2026-01-08T06:00:00.000Z",
      "offerPrice": 335000,
      "status": "recorded",
      "isRebuilt": false,
      "address": "331 STEFFAN ST, VALLEJO CA",
      "city": "VALLEJO",
      "state": "CA",
      "beds": 2,
      "baths": 1,
      "sqft": 1043,
      "lotSize": 0.1099862,
      "lat": 38.094507,
      "lng": -122.226461,
      "entity": "WH1 LLC"
    },
    {
      "propertyId": null,
      "attomId": 52179059,
      "offerDate": "2026-01-08T06:00:00.000Z",
      "offerPrice": 560000,
      "status": "recorded",
      "isRebuilt": false,
      "address": "12630 S HALO DR, COMPTON CA",
      "city": "COMPTON",
      "state": "CA",
      "beds": 3,
      "baths": 2,
      "sqft": 1590,
      "lotSize": 0.1315427,
      "lat": 33.906067,
      "lng": -118.188313,
      "entity": "WH1 LLC"
    },
    {
      "propertyId": null,
      "attomId": 7428277,
      "offerDate": "2026-01-08T06:00:00.000Z",
      "offerPrice": 395000,
      "status": "recorded",
      "isRebuilt": false,
      "address": "177 MYRTLEWOOD DR, CALIMESA CA",
      "city": "CALIMESA",
      "state": "CA",
      "beds": 2,
      "baths": 1,
      "sqft": 1542,
      "lotSize": 0.1899908,
      "lat": 33.99681,
      "lng": -117.042089,
      "entity": "WH1 LLC"
    },
    {
      "propertyId": null,
      "attomId": 156433994,
      "offerDate": "2026-01-07T06:00:00.000Z",
      "offerPrice": 311000,
      "status": "recorded",
      "isRebuilt": false,
      "address": "18515 KALIN RANCH DR, VICTORVILLE CA",
      "city": "VICTORVILLE",
      "state": "CA",
      "beds": 3,
      "baths": 2,
      "sqft": 1877,
      "lotSize": 0.1792929,
      "lat": 34.483358,
      "lng": -117.259663,
      "entity": "WH1 LLC"
    },
    {
      "propertyId": null,
      "attomId": 15019986,
      "offerDate": "2026-01-05T06:00:00.000Z",
      "offerPrice": 465000,
      "status": "recorded",
      "isRebuilt": false,
      "address": "705 DOVER DR, SAN BERNARDINO CA",
      "city": "SAN BERNARDINO",
      "state": "CA",
      "beds": 3,
      "baths": 3,
      "sqft": 2968,
      "lotSize": 0.1656336,
      "lat": 34.17825,
      "lng": -117.298567,
      "entity": "WH1 LLC"
    },
    {
      "propertyId": null,
      "attomId": 20651022,
      "offerDate": "2026-01-02T06:00:00.000Z",
      "offerPrice": 320000,
      "status": "recorded",
      "isRebuilt": false,
      "address": "5201 SIERRA CAVES AVE, BAKERSFIELD CA",
      "city": "BAKERSFIELD",
      "state": "CA",
      "beds": 4,
      "baths": 2,
      "sqft": 1855,
      "lotSize": 0.1799816,
      "lat": 35.306892,
      "lng": -119.083195,
      "entity": "WH1 LLC"
    },
    {
      "propertyId": null,
      "attomId": 21986545,
      "offerDate": "2026-01-02T06:00:00.000Z",
      "offerPrice": 751000,
      "status": "recorded",
      "isRebuilt": false,
      "address": "1018 N WRIGHT ST, SANTA ANA CA",
      "city": "SANTA ANA",
      "state": "CA",
      "beds": 4,
      "baths": 2,
      "sqft": 1525,
      "lotSize": 0.1453857,
      "lat": 33.754148,
      "lng": -117.846844,
      "entity": "WH1 LLC"
    },
    {
      "propertyId": null,
      "attomId": 154456010,
      "offerDate": "2025-12-31T06:00:00.000Z",
      "offerPrice": 650000,
      "status": "recorded",
      "isRebuilt": false,
      "address": "8552 JUMILLA AVE, WINNETKA CA",
      "city": "WINNETKA",
      "state": "CA",
      "beds": 3,
      "baths": 2,
      "sqft": 1704,
      "lotSize": 0.1734389,
      "lat": 34.226151,
      "lng": -118.563111,
      "entity": "WH1 LLC"
    },
    {
      "propertyId": null,
      "attomId": 17431584,
      "offerDate": "2025-12-31T06:00:00.000Z",
      "offerPrice": 465000,
      "status": "recorded",
      "isRebuilt": false,
      "address": "1609 N PEARL AVE, COMPTON CA",
      "city": "COMPTON",
      "state": "CA",
      "beds": 2,
      "baths": 1,
      "sqft": 968,
      "lotSize": 0.1137741,
      "lat": 33.906722,
      "lng": -118.21498,
      "entity": "WH1 LLC"
    },
    {
      "propertyId": null,
      "attomId": 29671771,
      "offerDate": "2025-12-31T06:00:00.000Z",
      "offerPrice": 640000,
      "status": "recorded",
      "isRebuilt": false,
      "address": "5984 HIDDEN HIGHLANDS DR, RENO NV",
      "city": "RENO",
      "state": "NV",
      "beds": 4,
      "baths": 2,
      "sqft": 2260,
      "lotSize": 0.3440083,
      "lat": 39.477476,
      "lng": -119.723066,
      "entity": "WH1 LLC"
    },
    {
      "propertyId": null,
      "attomId": 21797753,
      "offerDate": "2025-12-30T06:00:00.000Z",
      "offerPrice": 465000,
      "status": "recorded",
      "isRebuilt": false,
      "address": "26538 PEGASUS WAY, MORENO VALLEY CA",
      "city": "MORENO VALLEY",
      "state": "CA",
      "beds": 3,
      "baths": 3,
      "sqft": 2895,
      "lotSize": 0.1599862,
      "lat": 33.920467,
      "lng": -117.199292,
      "entity": "WH1 LLC"
    },
    {
      "propertyId": null,
      "attomId": 154914495,
      "offerDate": "2025-12-30T06:00:00.000Z",
      "offerPrice": 1215000,
      "status": "recorded",
      "isRebuilt": false,
      "address": "20526 AVIS AVE, TORRANCE CA",
      "city": "TORRANCE",
      "state": "CA",
      "beds": 4,
      "baths": 3,
      "sqft": 1825,
      "lotSize": 0.1598026,
      "lat": 33.84416,
      "lng": -118.34552,
      "entity": "WH1 LLC"
    },
    {
      "propertyId": null,
      "attomId": 18034185,
      "offerDate": "2025-12-30T06:00:00.000Z",
      "offerPrice": 0,
      "status": "recorded",
      "isRebuilt": false,
      "address": "480 S LEWIS ST, LAKEWOOD CO",
      "city": "LAKEWOOD",
      "state": "CO",
      "beds": 3,
      "baths": 2,
      "sqft": 1152,
      "lotSize": 0.2350092,
      "lat": 39.707851,
      "lng": -105.112878,
      "entity": "WH1 LLC"
    },
    {
      "propertyId": null,
      "attomId": 45371713,
      "offerDate": "2025-12-30T06:00:00.000Z",
      "offerPrice": 575000,
      "status": "recorded",
      "isRebuilt": false,
      "address": "10600 OLIVEBRANCH AVE, LAS VEGAS NV",
      "city": "LAS VEGAS",
      "state": "NV",
      "beds": 5,
      "baths": 3,
      "sqft": 2518,
      "lotSize": 0.15,
      "lat": 36.184751,
      "lng": -115.32702,
      "entity": "WH1 LLC"
    },
    {
      "propertyId": null,
      "attomId": 154825422,
      "offerDate": "2025-12-30T06:00:00.000Z",
      "offerPrice": 560500,
      "status": "recorded",
      "isRebuilt": false,
      "address": "15804 S LORELLA AVE, GARDENA CA",
      "city": "GARDENA",
      "state": "CA",
      "beds": 3,
      "baths": 2,
      "sqft": 1209,
      "lotSize": 0.1524564,
      "lat": 33.888321,
      "lng": -118.268876,
      "entity": "WH1 LLC"
    },
    {
      "propertyId": null,
      "attomId": 25593806,
      "offerDate": "2025-12-26T06:00:00.000Z",
      "offerPrice": 455000,
      "status": "recorded",
      "isRebuilt": false,
      "address": "17432 FAIRVIEW RD, FONTANA CA",
      "city": "FONTANA",
      "state": "CA",
      "beds": 4,
      "baths": 2,
      "sqft": 1798,
      "lotSize": 0.1951331,
      "lat": 34.111958,
      "lng": -117.424211,
      "entity": "WH1 LLC"
    },
    {
      "propertyId": null,
      "attomId": 184125099,
      "offerDate": "2025-12-24T06:00:00.000Z",
      "offerPrice": 0,
      "status": "recorded",
      "isRebuilt": false,
      "address": "5180 N DAPPLE GRAY RD, LAS VEGAS NV",
      "city": "LAS VEGAS",
      "state": "NV",
      "beds": 4,
      "baths": 4,
      "sqft": 3654,
      "lotSize": 0.4800046,
      "lat": 36.255374,
      "lng": -115.294749,
      "entity": "WH1 LLC"
    },
    {
      "propertyId": null,
      "attomId": 9651869,
      "offerDate": "2025-12-23T06:00:00.000Z",
      "offerPrice": 242000,
      "status": "recorded",
      "isRebuilt": false,
      "address": "12192 PACOIMA RD, VICTORVILLE CA",
      "city": "VICTORVILLE",
      "state": "CA",
      "beds": 3,
      "baths": 2,
      "sqft": 1113,
      "lotSize": 0.3482094,
      "lat": 34.472579,
      "lng": -117.356418,
      "entity": "WH1 LLC"
    },
    {
      "propertyId": null,
      "attomId": 311675784,
      "offerDate": "2025-12-23T06:00:00.000Z",
      "offerPrice": 940000,
      "status": "recorded",
      "isRebuilt": false,
      "address": "28 BACULO ST, RANCHO MISSION VIEJO CA",
      "city": "RANCHO MISSION VIEJO",
      "state": "CA",
      "beds": 3,
      "baths": 3,
      "sqft": 1817,
      "lotSize": 0.05,
      "lat": 33.539324,
      "lng": -117.595266,
      "entity": "WH1 LLC"
    },
    {
      "propertyId": null,
      "attomId": 27408146,
      "offerDate": "2025-12-23T06:00:00.000Z",
      "offerPrice": 635000,
      "status": "recorded",
      "isRebuilt": false,
      "address": "3597 FAIR BLUFF ST, LAS VEGAS NV",
      "city": "LAS VEGAS",
      "state": "NV",
      "beds": 5,
      "baths": 3,
      "sqft": 3382,
      "lotSize": 0.1699954,
      "lat": 36.124131,
      "lng": -115.324327,
      "entity": "WH1 LLC"
    },
    {
      "propertyId": null,
      "attomId": 21989795,
      "offerDate": "2025-12-22T06:00:00.000Z",
      "offerPrice": 350000,
      "status": "recorded",
      "isRebuilt": false,
      "address": "26560 CORNELL ST, HEMET CA",
      "city": "HEMET",
      "state": "CA",
      "beds": 3,
      "baths": 1,
      "sqft": 1660,
      "lotSize": 0.2299816,
      "lat": 33.73595,
      "lng": -116.940866,
      "entity": "WH1 LLC"
    },
    {
      "propertyId": null,
      "attomId": 54376198,
      "offerDate": "2025-12-19T06:00:00.000Z",
      "offerPrice": 590000,
      "status": "recorded",
      "isRebuilt": false,
      "address": "510 W HACIENDA DR, CORONA CA",
      "city": "CORONA",
      "state": "CA",
      "beds": 4,
      "baths": 1,
      "sqft": 1407,
      "lotSize": 0.2099862,
      "lat": 33.860644,
      "lng": -117.574162,
      "entity": "WH1 LLC"
    },
    {
      "propertyId": null,
      "attomId": 7211914,
      "offerDate": "2025-12-19T06:00:00.000Z",
      "offerPrice": 275000,
      "status": "recorded",
      "isRebuilt": false,
      "address": "3915 E HOLLAND AVE, FRESNO CA",
      "city": "FRESNO",
      "state": "CA",
      "beds": 3,
      "baths": 1,
      "sqft": 1242,
      "lotSize": 0.1652893,
      "lat": 36.797571,
      "lng": -119.758357,
      "entity": "WH1 LLC"
    },
    {
      "propertyId": null,
      "attomId": 26654812,
      "offerDate": "2025-12-19T06:00:00.000Z",
      "offerPrice": 525000,
      "status": "recorded",
      "isRebuilt": false,
      "address": "2471 WALSH GLEN CT, HENDERSON NV",
      "city": "HENDERSON",
      "state": "NV",
      "beds": 3,
      "baths": 3,
      "sqft": 1974,
      "lotSize": 0.2300046,
      "lat": 35.986801,
      "lng": -115.094169,
      "entity": "WH1 LLC"
    },
    {
      "propertyId": null,
      "attomId": 42688752,
      "offerDate": "2025-12-19T06:00:00.000Z",
      "offerPrice": 660000,
      "status": "recorded",
      "isRebuilt": false,
      "address": "4995 FOXCREEK TRL, RENO NV",
      "city": "RENO",
      "state": "NV",
      "beds": 5,
      "baths": 3,
      "sqft": 3197,
      "lotSize": 0.207989,
      "lat": 39.48033,
      "lng": -119.859808,
      "entity": "WH1 LLC"
    },
    {
      "propertyId": null,
      "attomId": 166904919,
      "offerDate": "2025-12-19T06:00:00.000Z",
      "offerPrice": 0,
      "status": "recorded",
      "isRebuilt": false,
      "address": "10201 ROYAL HIGHLANDS DR, DALLAS TX",
      "city": "DALLAS",
      "state": "TX",
      "beds": 3,
      "baths": 3,
      "sqft": 2112,
      "lotSize": 0.2066116,
      "lat": 32.887826,
      "lng": -96.723166,
      "entity": "WH1 LLC"
    },
    {
      "propertyId": null,
      "attomId": 13646948,
      "offerDate": "2025-12-19T06:00:00.000Z",
      "offerPrice": 570000,
      "status": "recorded",
      "isRebuilt": false,
      "address": "5572 HORSESHOE WAY, FONTANA CA",
      "city": "FONTANA",
      "state": "CA",
      "beds": 4,
      "baths": 2,
      "sqft": 1463,
      "lotSize": 0.1579431,
      "lat": 34.152817,
      "lng": -117.481282,
      "entity": "WH1 LLC"
    },
    {
      "propertyId": null,
      "attomId": 17482997,
      "offerDate": "2025-12-17T06:00:00.000Z",
      "offerPrice": 296000,
      "status": "recorded",
      "isRebuilt": false,
      "address": "821 W FAIRMONT AVE, CLOVIS CA",
      "city": "CLOVIS",
      "state": "CA",
      "beds": 3,
      "baths": 1,
      "sqft": 1288,
      "lotSize": 0.137741,
      "lat": 36.806582,
      "lng": -119.727933,
      "entity": "WH1 LLC"
    },
    {
      "propertyId": null,
      "attomId": 23297245,
      "offerDate": "2025-12-11T06:00:00.000Z",
      "offerPrice": 520000,
      "status": "recorded",
      "isRebuilt": false,
      "address": "27668 LONGMEADOW CT, MORENO VALLEY CA",
      "city": "MORENO VALLEY",
      "state": "CA",
      "beds": 3,
      "baths": 3,
      "sqft": 2841,
      "lotSize": 0.2099862,
      "lat": 33.903661,
      "lng": -117.179547,
      "entity": "WH1 LLC"
    },
    {
      "propertyId": null,
      "attomId": 13908623,
      "offerDate": "2025-12-11T06:00:00.000Z",
      "offerPrice": 560000,
      "status": "recorded",
      "isRebuilt": false,
      "address": "1254 MARJORIE PL, ESCONDIDO CA",
      "city": "ESCONDIDO",
      "state": "CA",
      "beds": 3,
      "baths": 2,
      "sqft": 1152,
      "lotSize": 0.1400367,
      "lat": 33.1441,
      "lng": -117.074423,
      "entity": "WH1 LLC"
    },
    {
      "propertyId": null,
      "attomId": 10341675,
      "offerDate": "2025-12-10T06:00:00.000Z",
      "offerPrice": 290000,
      "status": "recorded",
      "isRebuilt": false,
      "address": "505 W PICO AVE, CLOVIS CA",
      "city": "CLOVIS",
      "state": "CA",
      "beds": 3,
      "baths": 1,
      "sqft": 1316,
      "lotSize": 0.137741,
      "lat": 36.802958,
      "lng": -119.720634,
      "entity": "WH1 LLC"
    },
    {
      "propertyId": null,
      "attomId": 42809419,
      "offerDate": "2025-12-05T06:00:00.000Z",
      "offerPrice": 310000,
      "status": "recorded",
      "isRebuilt": false,
      "address": "6709 RIO SANDS CT, LAS VEGAS NV",
      "city": "LAS VEGAS",
      "state": "NV",
      "beds": 3,
      "baths": 2,
      "sqft": 1272,
      "lotSize": 0.1100092,
      "lat": 36.257401,
      "lng": -115.242948,
      "entity": "WH1 LLC"
    },
    {
      "propertyId": null,
      "attomId": 148058379,
      "offerDate": "2025-12-05T06:00:00.000Z",
      "offerPrice": 272000,
      "status": "recorded",
      "isRebuilt": false,
      "address": "3640 TACK ST, LAS VEGAS NV",
      "city": "LAS VEGAS",
      "state": "NV",
      "beds": 3,
      "baths": 2,
      "sqft": 1718,
      "lotSize": 0.1199954,
      "lat": 36.123564,
      "lng": -115.038455,
      "entity": "WH1 LLC"
    },
    {
      "propertyId": null,
      "attomId": 165629656,
      "offerDate": "2025-12-04T06:00:00.000Z",
      "offerPrice": 0,
      "status": "recorded",
      "isRebuilt": false,
      "address": "2420 CORBY DR, PLANO TX",
      "city": "PLANO",
      "state": "TX",
      "beds": 0,
      "baths": null,
      "sqft": 2522,
      "lotSize": 0,
      "lat": 33.077267,
      "lng": -96.743837,
      "entity": "WH1 LLC"
    },
    {
      "propertyId": null,
      "attomId": 165126918,
      "offerDate": "2025-12-03T06:00:00.000Z",
      "offerPrice": 0,
      "status": "recorded",
      "isRebuilt": false,
      "address": "408 FOREST GROVE DR, RICHARDSON TX",
      "city": "RICHARDSON",
      "state": "TX",
      "beds": 0,
      "baths": 2,
      "sqft": 2041,
      "lotSize": 0,
      "lat": 32.99705,
      "lng": -96.722821,
      "entity": "WH1 LLC"
    },
    {
      "propertyId": null,
      "attomId": 32417626,
      "offerDate": "2025-12-03T06:00:00.000Z",
      "offerPrice": 515000,
      "status": "recorded",
      "isRebuilt": false,
      "address": "5104 CARRIAGE WAY, ANTIOCH CA",
      "city": "ANTIOCH",
      "state": "CA",
      "beds": 4,
      "baths": 3,
      "sqft": 2421,
      "lotSize": 0.1671258,
      "lat": 37.971105,
      "lng": -121.757495,
      "entity": "WH1 LLC"
    },
    {
      "propertyId": null,
      "attomId": 4041041,
      "offerDate": "2025-12-01T06:00:00.000Z",
      "offerPrice": 0,
      "status": "recorded",
      "isRebuilt": false,
      "address": "3701 E 3600 N, EDEN UT",
      "city": "EDEN",
      "state": "UT",
      "beds": 6,
      "baths": 2,
      "sqft": 2854,
      "lotSize": 2.3,
      "lat": 41.323186,
      "lng": -111.859468,
      "entity": "WH1 LLC"
    },
    {
      "propertyId": null,
      "attomId": 49476485,
      "offerDate": "2025-12-01T06:00:00.000Z",
      "offerPrice": 600000,
      "status": "recorded",
      "isRebuilt": false,
      "address": "726 ROBINHOOD LN, REDLANDS CA",
      "city": "REDLANDS",
      "state": "CA",
      "beds": 4,
      "baths": 3,
      "sqft": 1746,
      "lotSize": 0.1831956,
      "lat": 34.03654,
      "lng": -117.19017,
      "entity": "WH1 LLC"
    },
    {
      "propertyId": null,
      "attomId": 145635297,
      "offerDate": "2025-11-26T06:00:00.000Z",
      "offerPrice": 660000,
      "status": "recorded",
      "isRebuilt": false,
      "address": "6102 CHARLWOOD ST, LAKEWOOD CA",
      "city": "LAKEWOOD",
      "state": "CA",
      "beds": 3,
      "baths": 2,
      "sqft": 1648,
      "lotSize": 0.1398301,
      "lat": 33.858969,
      "lng": -118.11322,
      "entity": "WH1 LLC"
    },
    {
      "propertyId": null,
      "attomId": 8829239,
      "offerDate": "2025-11-26T06:00:00.000Z",
      "offerPrice": 0,
      "status": "recorded",
      "isRebuilt": false,
      "address": "401 NORTHVIEW DR, RICHARDSON TX",
      "city": "RICHARDSON",
      "state": "TX",
      "beds": 3,
      "baths": 2,
      "sqft": 2306,
      "lotSize": 0,
      "lat": 32.989882,
      "lng": -96.721679,
      "entity": "WH1 LLC"
    },
    {
      "propertyId": null,
      "attomId": 145691451,
      "offerDate": "2025-11-26T06:00:00.000Z",
      "offerPrice": 575000,
      "status": "recorded",
      "isRebuilt": false,
      "address": "11711 HERCULES ST, NORWALK CA",
      "city": "NORWALK",
      "state": "CA",
      "beds": 3,
      "baths": 1,
      "sqft": 1053,
      "lotSize": 0.1462351,
      "lat": 33.923184,
      "lng": -118.083147,
      "entity": "WH1 LLC"
    },
    {
      "propertyId": null,
      "attomId": 156603337,
      "offerDate": "2025-11-26T06:00:00.000Z",
      "offerPrice": 850000,
      "status": "recorded",
      "isRebuilt": false,
      "address": "921 CALLE PINATA, THOUSAND OAKS CA",
      "city": "THOUSAND OAKS",
      "state": "CA",
      "beds": 4,
      "baths": 3,
      "sqft": 2241,
      "lotSize": 0.2,
      "lat": 34.232011,
      "lng": -118.862294,
      "entity": "WH1 LLC"
    },
    {
      "propertyId": null,
      "attomId": 19787912,
      "offerDate": "2025-11-25T06:00:00.000Z",
      "offerPrice": 600000,
      "status": "recorded",
      "isRebuilt": false,
      "address": "13513 POLK ST, SYLMAR CA",
      "city": "SYLMAR",
      "state": "CA",
      "beds": 3,
      "baths": 2,
      "sqft": 1425,
      "lotSize": 0.1846878,
      "lat": 34.327008,
      "lng": -118.429925,
      "entity": "WH1 LLC"
    },
    {
      "propertyId": null,
      "attomId": 52253347,
      "offerDate": "2025-11-24T06:00:00.000Z",
      "offerPrice": 620000,
      "status": "recorded",
      "isRebuilt": false,
      "address": "724 S TAYLOR AVE, MONTEBELLO CA",
      "city": "MONTEBELLO",
      "state": "CA",
      "beds": 3,
      "baths": 1,
      "sqft": 1038,
      "lotSize": 0.1149679,
      "lat": 34.001314,
      "lng": -118.118494,
      "entity": "WH1 LLC"
    },
    {
      "propertyId": null,
      "attomId": 18185345,
      "offerDate": "2025-11-24T06:00:00.000Z",
      "offerPrice": 385000,
      "status": "recorded",
      "isRebuilt": false,
      "address": "2107 STAR THISTLE LN, PERRIS CA",
      "city": "PERRIS",
      "state": "CA",
      "beds": 3,
      "baths": 2,
      "sqft": 1391,
      "lotSize": 0.0899908,
      "lat": 33.810439,
      "lng": -117.215456,
      "entity": "WH1 LLC"
    },
    {
      "propertyId": null,
      "attomId": 16572145,
      "offerDate": "2025-11-21T06:00:00.000Z",
      "offerPrice": 605000,
      "status": "recorded",
      "isRebuilt": false,
      "address": "8923 ETIWANDA AVE, NORTHRIDGE CA",
      "city": "NORTHRIDGE",
      "state": "CA",
      "beds": 3,
      "baths": 2,
      "sqft": 1850,
      "lotSize": 0.1600092,
      "lat": 34.232611,
      "lng": -118.532042,
      "entity": "WH1 LLC"
    },
    {
      "propertyId": null,
      "attomId": 22607394,
      "offerDate": "2025-11-21T06:00:00.000Z",
      "offerPrice": 272500,
      "status": "recorded",
      "isRebuilt": false,
      "address": "11724 JAMACHA RD, APPLE VALLEY CA",
      "city": "APPLE VALLEY",
      "state": "CA",
      "beds": 3,
      "baths": 2,
      "sqft": 1328,
      "lotSize": 0.4132231,
      "lat": 34.464856,
      "lng": -117.195719,
      "entity": "WH1 LLC"
    },
    {
      "propertyId": null,
      "attomId": 52209966,
      "offerDate": "2025-11-20T06:00:00.000Z",
      "offerPrice": 400000,
      "status": "recorded",
      "isRebuilt": false,
      "address": "3720 LA HACIENDA DR, SAN BERNARDINO CA",
      "city": "SAN BERNARDINO",
      "state": "CA",
      "beds": 3,
      "baths": 2,
      "sqft": 1678,
      "lotSize": 0.2221074,
      "lat": 34.158005,
      "lng": -117.255007,
      "entity": "WH1 LLC"
    },
    {
      "propertyId": null,
      "attomId": 146206841,
      "offerDate": "2025-11-20T06:00:00.000Z",
      "offerPrice": 440000,
      "status": "recorded",
      "isRebuilt": false,
      "address": "14426 S CAHITA AVE, COMPTON CA",
      "city": "COMPTON",
      "state": "CA",
      "beds": 2,
      "baths": 1,
      "sqft": 921,
      "lotSize": 0.1306244,
      "lat": 33.900622,
      "lng": -118.258657,
      "entity": "WH1 LLC"
    },
    {
      "propertyId": null,
      "attomId": 154656636,
      "offerDate": "2025-11-18T06:00:00.000Z",
      "offerPrice": 523000,
      "status": "recorded",
      "isRebuilt": false,
      "address": "2037 W 64TH ST, LOS ANGELES CA",
      "city": "LOS ANGELES",
      "state": "CA",
      "beds": 2,
      "baths": 1,
      "sqft": 1170,
      "lotSize": 0.0943067,
      "lat": 33.981638,
      "lng": -118.314671,
      "entity": "WH1 LLC"
    },
    {
      "propertyId": null,
      "attomId": 3793540,
      "offerDate": "2025-11-17T06:00:00.000Z",
      "offerPrice": 305000,
      "status": "recorded",
      "isRebuilt": false,
      "address": "14441 LINDEN ST, HESPERIA CA",
      "city": "HESPERIA",
      "state": "CA",
      "beds": 4,
      "baths": 3,
      "sqft": 2202,
      "lotSize": 0.174472,
      "lat": 34.438243,
      "lng": -117.34806,
      "entity": "WH1 LLC"
    },
    {
      "propertyId": null,
      "attomId": 3435292,
      "offerDate": "2025-11-17T06:00:00.000Z",
      "offerPrice": 600000,
      "status": "recorded",
      "isRebuilt": false,
      "address": "10524 58TH ST, JURUPA VALLEY CA",
      "city": "JURUPA VALLEY",
      "state": "CA",
      "beds": 3,
      "baths": 2,
      "sqft": 2683,
      "lotSize": 0.4699954,
      "lat": 33.982333,
      "lng": -117.514442,
      "entity": "WH1 LLC"
    },
    {
      "propertyId": null,
      "attomId": 1382840,
      "offerDate": "2025-11-17T06:00:00.000Z",
      "offerPrice": 350000,
      "status": "recorded",
      "isRebuilt": false,
      "address": "201 RACQUET CLUB DR, COMPTON CA",
      "city": "COMPTON",
      "state": "CA",
      "beds": 3,
      "baths": 3,
      "sqft": 1604,
      "lotSize": 0.0376722,
      "lat": 33.892619,
      "lng": -118.221515,
      "entity": "WH1 LLC"
    },
    {
      "propertyId": null,
      "attomId": 37989533,
      "offerDate": "2025-11-17T06:00:00.000Z",
      "offerPrice": 300000,
      "status": "recorded",
      "isRebuilt": false,
      "address": "4559 CHINA ROSE CIR, RENO NV",
      "city": "RENO",
      "state": "NV",
      "beds": 2,
      "baths": 2,
      "sqft": 1008,
      "lotSize": 0.0769972,
      "lat": 39.487419,
      "lng": -119.74523,
      "entity": "WH1 LLC"
    },
    {
      "propertyId": null,
      "attomId": 41418854,
      "offerDate": "2025-11-14T06:00:00.000Z",
      "offerPrice": 772000,
      "status": "recorded",
      "isRebuilt": false,
      "address": "40203 ANTIGUA ROSE TER, FREMONT CA",
      "city": "FREMONT",
      "state": "CA",
      "beds": 4,
      "baths": 4,
      "sqft": 1545,
      "lotSize": 0,
      "lat": 37.533394,
      "lng": -121.974924,
      "entity": "WH1 LLC"
    },
    {
      "propertyId": null,
      "attomId": 1075356,
      "offerDate": "2025-11-12T06:00:00.000Z",
      "offerPrice": 542500,
      "status": "recorded",
      "isRebuilt": false,
      "address": "1106 S WASHINGTON AVE, COMPTON CA",
      "city": "COMPTON",
      "state": "CA",
      "beds": 3,
      "baths": 1,
      "sqft": 1036,
      "lotSize": 0.1151974,
      "lat": 33.886879,
      "lng": -118.19342,
      "entity": "WH1 LLC"
    },
    {
      "propertyId": null,
      "attomId": 25888638,
      "offerDate": "2025-11-12T06:00:00.000Z",
      "offerPrice": 504000,
      "status": "recorded",
      "isRebuilt": false,
      "address": "1270 N ROSALIND AVE, RIALTO CA",
      "city": "RIALTO",
      "state": "CA",
      "beds": 3,
      "baths": 3,
      "sqft": 2150,
      "lotSize": 0.2043159,
      "lat": 34.122799,
      "lng": -117.352617,
      "entity": "WH1 LLC"
    },
    {
      "propertyId": null,
      "attomId": 37930563,
      "offerDate": "2025-11-10T06:00:00.000Z",
      "offerPrice": 400000,
      "status": "recorded",
      "isRebuilt": false,
      "address": "5108 WILD MARIGOLD DR, LAS VEGAS NV",
      "city": "LAS VEGAS",
      "state": "NV",
      "beds": 3,
      "baths": 2,
      "sqft": 1838,
      "lotSize": 0.15,
      "lat": 36.250999,
      "lng": -115.215233,
      "entity": "WH1 LLC"
    },
    {
      "propertyId": null,
      "attomId": 44058793,
      "offerDate": "2025-11-07T06:00:00.000Z",
      "offerPrice": 530000,
      "status": "recorded",
      "isRebuilt": false,
      "address": "951 WILLOWCREEK DR, CORONA CA",
      "city": "CORONA",
      "state": "CA",
      "beds": 3,
      "baths": 2,
      "sqft": 1475,
      "lotSize": 0.1,
      "lat": 33.895985,
      "lng": -117.574807,
      "entity": "WH1 LLC"
    },
    {
      "propertyId": null,
      "attomId": 148645466,
      "offerDate": "2025-11-06T06:00:00.000Z",
      "offerPrice": 390000,
      "status": "recorded",
      "isRebuilt": false,
      "address": "33456 BODIE ST, YUCAIPA CA",
      "city": "YUCAIPA",
      "state": "CA",
      "beds": 3,
      "baths": 2,
      "sqft": 1350,
      "lotSize": 0.1606979,
      "lat": 34.023243,
      "lng": -117.074708,
      "entity": "WH1 LLC"
    },
    {
      "propertyId": null,
      "attomId": 16449427,
      "offerDate": "2025-11-06T06:00:00.000Z",
      "offerPrice": 535000,
      "status": "recorded",
      "isRebuilt": false,
      "address": "1013 W 138TH ST, COMPTON CA",
      "city": "COMPTON",
      "state": "CA",
      "beds": 3,
      "baths": 1,
      "sqft": 1092,
      "lotSize": 0.1148072,
      "lat": 33.906862,
      "lng": -118.245683,
      "entity": "WH1 LLC"
    },
    {
      "propertyId": null,
      "attomId": 25945407,
      "offerDate": "2025-11-05T06:00:00.000Z",
      "offerPrice": 565000,
      "status": "recorded",
      "isRebuilt": false,
      "address": "6404 INDIANA AVE, LONG BEACH CA",
      "city": "LONG BEACH",
      "state": "CA",
      "beds": 2,
      "baths": 1,
      "sqft": 896,
      "lotSize": 0.1247475,
      "lat": 33.871334,
      "lng": -118.153184,
      "entity": "WH1 LLC"
    },
    {
      "propertyId": null,
      "attomId": 54445328,
      "offerDate": "2025-11-05T06:00:00.000Z",
      "offerPrice": 540000,
      "status": "recorded",
      "isRebuilt": false,
      "address": "265 E NORTON ST, LONG BEACH CA",
      "city": "LONG BEACH",
      "state": "CA",
      "beds": 2,
      "baths": 1,
      "sqft": 886,
      "lotSize": 0.1269743,
      "lat": 33.858611,
      "lng": -118.190904,
      "entity": "WH1 LLC"
    },
    {
      "propertyId": null,
      "attomId": 54445329,
      "offerDate": "2025-11-05T06:00:00.000Z",
      "offerPrice": 540000,
      "status": "recorded",
      "isRebuilt": false,
      "address": "273 E NORTON ST, LONG BEACH CA",
      "city": "LONG BEACH",
      "state": "CA",
      "beds": 2,
      "baths": 1,
      "sqft": 816,
      "lotSize": 0.0991736,
      "lat": 33.858612,
      "lng": -118.190762,
      "entity": "WH1 LLC"
    },
    {
      "propertyId": null,
      "attomId": 43112723,
      "offerDate": "2025-11-05T06:00:00.000Z",
      "offerPrice": 220000,
      "status": "recorded",
      "isRebuilt": false,
      "address": "113 DAVIE DR, COLORADO SPRINGS CO",
      "city": "COLORADO SPRINGS",
      "state": "CO",
      "beds": 2,
      "baths": 1,
      "sqft": 1063,
      "lotSize": 0.137741,
      "lat": 38.757729,
      "lng": -104.745851,
      "entity": "WH1 LLC"
    },
    {
      "propertyId": null,
      "attomId": 146655031,
      "offerDate": "2025-11-04T06:00:00.000Z",
      "offerPrice": 602500,
      "status": "recorded",
      "isRebuilt": false,
      "address": "1120 SUNSET DR, ARROYO GRANDE CA",
      "city": "ARROYO GRANDE",
      "state": "CA",
      "beds": 3,
      "baths": 2,
      "sqft": 1256,
      "lotSize": 0.1300046,
      "lat": 35.118828,
      "lng": -120.597364,
      "entity": "WH1 LLC"
    },
    {
      "propertyId": null,
      "attomId": 156208755,
      "offerDate": "2025-11-03T06:00:00.000Z",
      "offerPrice": 1195000,
      "status": "recorded",
      "isRebuilt": false,
      "address": "2245 CHARLESTON AVE, SAN BRUNO CA",
      "city": "SAN BRUNO",
      "state": "CA",
      "beds": 3,
      "baths": 2,
      "sqft": 1290,
      "lotSize": 0.132989,
      "lat": 37.622544,
      "lng": -122.432532,
      "entity": "WH1 LLC"
    },
    {
      "propertyId": null,
      "attomId": 25979531,
      "offerDate": "2025-10-31T05:00:00.000Z",
      "offerPrice": 575000,
      "status": "recorded",
      "isRebuilt": false,
      "address": "1306 S CLIVEDEN AVE, COMPTON CA",
      "city": "COMPTON",
      "state": "CA",
      "beds": 3,
      "baths": 2,
      "sqft": 1512,
      "lotSize": 0.1376951,
      "lat": 33.883308,
      "lng": -118.242969,
      "entity": "WH1 LLC"
    },
    {
      "propertyId": null,
      "attomId": 140057212,
      "offerDate": "2025-10-30T05:00:00.000Z",
      "offerPrice": 340000,
      "status": "recorded",
      "isRebuilt": false,
      "address": "3915 E RENO AVE, LAS VEGAS NV",
      "city": "LAS VEGAS",
      "state": "NV",
      "beds": 3,
      "baths": 2,
      "sqft": 1672,
      "lotSize": 0.1600092,
      "lat": 36.096449,
      "lng": -115.089009,
      "entity": "WH1 LLC"
    },
    {
      "propertyId": null,
      "attomId": 154569661,
      "offerDate": "2025-10-29T05:00:00.000Z",
      "offerPrice": 430000,
      "status": "recorded",
      "isRebuilt": false,
      "address": "12030 ARKANSAS ST, ARTESIA CA",
      "city": "ARTESIA",
      "state": "CA",
      "beds": 2,
      "baths": 1,
      "sqft": 875,
      "lotSize": 0.0878558,
      "lat": 33.879415,
      "lng": -118.075959,
      "entity": "WH1 LLC"
    },
    {
      "propertyId": null,
      "attomId": 165406278,
      "offerDate": "2025-10-24T05:00:00.000Z",
      "offerPrice": 0,
      "status": "recorded",
      "isRebuilt": false,
      "address": "10817 CAPROCK CIR, DALLAS TX",
      "city": "DALLAS",
      "state": "TX",
      "beds": 3,
      "baths": 2,
      "sqft": 1943,
      "lotSize": 0.3105831,
      "lat": 32.855968,
      "lng": -96.69739,
      "entity": "WH1 LLC"
    },
    {
      "propertyId": null,
      "attomId": 4281618,
      "offerDate": "2025-10-23T05:00:00.000Z",
      "offerPrice": 600000,
      "status": "recorded",
      "isRebuilt": false,
      "address": "1118 FALLBROOK DR, CORONA CA",
      "city": "CORONA",
      "state": "CA",
      "beds": 4,
      "baths": 3,
      "sqft": 1748,
      "lotSize": 0.5699954,
      "lat": 33.895368,
      "lng": -117.578042,
      "entity": "WH1 LLC"
    },
    {
      "propertyId": null,
      "attomId": 154828672,
      "offerDate": "2025-10-23T05:00:00.000Z",
      "offerPrice": 565000,
      "status": "recorded",
      "isRebuilt": false,
      "address": "501 S PEARL AVE, COMPTON CA",
      "city": "COMPTON",
      "state": "CA",
      "beds": 3,
      "baths": 1,
      "sqft": 2209,
      "lotSize": 0.1555556,
      "lat": 33.892198,
      "lng": -118.213747,
      "entity": "WH1 LLC"
    },
    {
      "propertyId": null,
      "attomId": 157092521,
      "offerDate": "2025-10-17T05:00:00.000Z",
      "offerPrice": 660000,
      "status": "recorded",
      "isRebuilt": false,
      "address": "7150 CLYDESDALE ST, HIGHLAND CA",
      "city": "HIGHLAND",
      "state": "CA",
      "beds": 4,
      "baths": 3,
      "sqft": 2825,
      "lotSize": 1,
      "lat": 34.123777,
      "lng": -117.182057,
      "entity": "WH1 LLC"
    },
    {
      "propertyId": null,
      "attomId": 24782223,
      "offerDate": "2025-10-16T05:00:00.000Z",
      "offerPrice": 520000,
      "status": "recorded",
      "isRebuilt": false,
      "address": "6843 BECKETT ST, TUJUNGA CA",
      "city": "TUJUNGA",
      "state": "CA",
      "beds": 3,
      "baths": 2,
      "sqft": 1097,
      "lotSize": 0.1519743,
      "lat": 34.253078,
      "lng": -118.280992,
      "entity": "WH1 LLC"
    },
    {
      "propertyId": null,
      "attomId": 1897477,
      "offerDate": "2025-10-15T05:00:00.000Z",
      "offerPrice": 500000,
      "status": "recorded",
      "isRebuilt": false,
      "address": "14016 S ALBERTSON AVE, COMPTON CA",
      "city": "COMPTON",
      "state": "CA",
      "beds": 3,
      "baths": 1,
      "sqft": 1076,
      "lotSize": 0.1148072,
      "lat": 33.90462,
      "lng": -118.25,
      "entity": "WH1 LLC"
    },
    {
      "propertyId": null,
      "attomId": 51135073,
      "offerDate": "2025-10-15T05:00:00.000Z",
      "offerPrice": 370000,
      "status": "recorded",
      "isRebuilt": false,
      "address": "18347 MADRONE ST, HESPERIA CA",
      "city": "HESPERIA",
      "state": "CA",
      "beds": 6,
      "baths": 4,
      "sqft": 3309,
      "lotSize": 0.4132231,
      "lat": 34.412379,
      "lng": -117.262336,
      "entity": "WH1 LLC"
    },
    {
      "propertyId": null,
      "attomId": 157699001,
      "offerDate": "2025-10-15T05:00:00.000Z",
      "offerPrice": 1800000,
      "status": "recorded",
      "isRebuilt": false,
      "address": "47768 WABANA ST, FREMONT CA",
      "city": "FREMONT",
      "state": "CA",
      "beds": 3,
      "baths": 2,
      "sqft": 1964,
      "lotSize": 0.1987603,
      "lat": 37.480445,
      "lng": -121.914531,
      "entity": "WH1 LLC"
    },
    {
      "propertyId": null,
      "attomId": 4401874,
      "offerDate": "2025-10-14T05:00:00.000Z",
      "offerPrice": 520000,
      "status": "recorded",
      "isRebuilt": false,
      "address": "1100 E TICHENOR ST, COMPTON CA",
      "city": "COMPTON",
      "state": "CA",
      "beds": 3,
      "baths": 1,
      "sqft": 1204,
      "lotSize": 0.1188935,
      "lat": 33.885463,
      "lng": -118.21019,
      "entity": "WH1 LLC"
    },
    {
      "propertyId": null,
      "attomId": 29520342,
      "offerDate": "2025-10-14T05:00:00.000Z",
      "offerPrice": 370000,
      "status": "recorded",
      "isRebuilt": false,
      "address": "3516 AMISH AVE, NORTH LAS VEGAS NV",
      "city": "NORTH LAS VEGAS",
      "state": "NV",
      "beds": 4,
      "baths": 2,
      "sqft": 2182,
      "lotSize": 0.15,
      "lat": 36.273201,
      "lng": -115.187234,
      "entity": "WH1 LLC"
    },
    {
      "propertyId": null,
      "attomId": 25088241,
      "offerDate": "2025-10-10T05:00:00.000Z",
      "offerPrice": 528000,
      "status": "recorded",
      "isRebuilt": false,
      "address": "16124 S HOOVER ST, GARDENA CA",
      "city": "GARDENA",
      "state": "CA",
      "beds": 2,
      "baths": 1,
      "sqft": 739,
      "lotSize": 0.0732094,
      "lat": 33.884616,
      "lng": -118.286961,
      "entity": "WH1 LLC"
    },
    {
      "propertyId": null,
      "attomId": 17848026,
      "offerDate": "2025-10-10T05:00:00.000Z",
      "offerPrice": 414500,
      "status": "recorded",
      "isRebuilt": false,
      "address": "28323 STILLWATER DR, MENIFEE CA",
      "city": "MENIFEE",
      "state": "CA",
      "beds": 3,
      "baths": 2,
      "sqft": 1746,
      "lotSize": 0.1,
      "lat": 33.678869,
      "lng": -117.16539,
      "entity": "WH1 LLC"
    },
    {
      "propertyId": null,
      "attomId": 156392584,
      "offerDate": "2025-10-10T05:00:00.000Z",
      "offerPrice": 421000,
      "status": "recorded",
      "isRebuilt": false,
      "address": "730 E LAS FLORES WAY, SANTA MARIA CA",
      "city": "SANTA MARIA",
      "state": "CA",
      "beds": 3,
      "baths": 1,
      "sqft": 1080,
      "lotSize": 0.15,
      "lat": 34.940731,
      "lng": -120.425273,
      "entity": "WH1 LLC"
    },
    {
      "propertyId": null,
      "attomId": 17877878,
      "offerDate": "2025-10-10T05:00:00.000Z",
      "offerPrice": 690000,
      "status": "recorded",
      "isRebuilt": false,
      "address": "1005 CLAREMONT DR, CONCORD CA",
      "city": "CONCORD",
      "state": "CA",
      "beds": 4,
      "baths": 2,
      "sqft": 1568,
      "lotSize": 0.1971534,
      "lat": 37.947599,
      "lng": -122.036297,
      "entity": "WH1 LLC"
    },
    {
      "propertyId": null,
      "attomId": 156010477,
      "offerDate": "2025-10-09T05:00:00.000Z",
      "offerPrice": 1350000,
      "status": "recorded",
      "isRebuilt": false,
      "address": "728 LE MANS WAY, HALF MOON BAY CA",
      "city": "HALF MOON BAY",
      "state": "CA",
      "beds": 4,
      "baths": 3,
      "sqft": 2430,
      "lotSize": 0.1850781,
      "lat": 37.485763,
      "lng": -122.440762,
      "entity": "WH1 LLC"
    },
    {
      "propertyId": null,
      "attomId": 154955900,
      "offerDate": "2025-10-09T05:00:00.000Z",
      "offerPrice": 975000,
      "status": "recorded",
      "isRebuilt": false,
      "address": "1308 DESERT WILLOW LN, DIAMOND BAR CA",
      "city": "DIAMOND BAR",
      "state": "CA",
      "beds": 3,
      "baths": 3,
      "sqft": 2165,
      "lotSize": 0.1976354,
      "lat": 33.998227,
      "lng": -117.819036,
      "entity": "WH1 LLC"
    },
    {
      "propertyId": null,
      "attomId": 16756988,
      "offerDate": "2025-10-08T05:00:00.000Z",
      "offerPrice": 480000,
      "status": "recorded",
      "isRebuilt": false,
      "address": "531 W 107TH ST, LOS ANGELES CA",
      "city": "LOS ANGELES",
      "state": "CA",
      "beds": 3,
      "baths": 1,
      "sqft": 1305,
      "lotSize": 0.1113177,
      "lat": 33.939353,
      "lng": -118.283851,
      "entity": "WH1 LLC"
    },
    {
      "propertyId": null,
      "attomId": 16757497,
      "offerDate": "2025-10-08T05:00:00.000Z",
      "offerPrice": 545500,
      "status": "recorded",
      "isRebuilt": false,
      "address": "1601 W 163RD ST, COMPTON CA",
      "city": "COMPTON",
      "state": "CA",
      "beds": 3,
      "baths": 2,
      "sqft": 1462,
      "lotSize": 0.1262397,
      "lat": 33.884665,
      "lng": -118.245982,
      "entity": "WH1 LLC"
    },
    {
      "propertyId": null,
      "attomId": 49125848,
      "offerDate": "2025-10-07T05:00:00.000Z",
      "offerPrice": 720000,
      "status": "recorded",
      "isRebuilt": false,
      "address": "20414 HAYNES ST, WINNETKA CA",
      "city": "WINNETKA",
      "state": "CA",
      "beds": 4,
      "baths": 2,
      "sqft": 1362,
      "lotSize": 0.1826446,
      "lat": 34.192505,
      "lng": -118.578131,
      "entity": "WH1 LLC"
    },
    {
      "propertyId": null,
      "attomId": 154542288,
      "offerDate": "2025-10-07T05:00:00.000Z",
      "offerPrice": 1442000,
      "status": "recorded",
      "isRebuilt": false,
      "address": "2801 CEILHUNT AVE, LOS ANGELES CA",
      "city": "LOS ANGELES",
      "state": "CA",
      "beds": 4,
      "baths": 2,
      "sqft": 1584,
      "lotSize": 0.121786,
      "lat": 34.025578,
      "lng": -118.436957,
      "entity": "WH1 LLC"
    },
    {
      "propertyId": null,
      "attomId": 43813345,
      "offerDate": "2025-10-07T05:00:00.000Z",
      "offerPrice": 620000,
      "status": "recorded",
      "isRebuilt": false,
      "address": "3210 FIELDCREST DR, SACRAMENTO CA",
      "city": "SACRAMENTO",
      "state": "CA",
      "beds": 4,
      "baths": 3,
      "sqft": 2040,
      "lotSize": 0.3600092,
      "lat": 38.61629,
      "lng": -121.389284,
      "entity": "WH1 LLC"
    },
    {
      "propertyId": null,
      "attomId": 15222467,
      "offerDate": "2025-10-07T05:00:00.000Z",
      "offerPrice": 616100,
      "status": "recorded",
      "isRebuilt": false,
      "address": "8113 SUNSET COVE DR, LAS VEGAS NV",
      "city": "LAS VEGAS",
      "state": "NV",
      "beds": 3,
      "baths": 3,
      "sqft": 2588,
      "lotSize": 0.15,
      "lat": 36.212612,
      "lng": -115.268629,
      "entity": "WH1 LLC"
    },
    {
      "propertyId": null,
      "attomId": 22631478,
      "offerDate": "2025-10-06T05:00:00.000Z",
      "offerPrice": 575000,
      "status": "recorded",
      "isRebuilt": false,
      "address": "415 EDGEHILL LN, OCEANSIDE CA",
      "city": "OCEANSIDE",
      "state": "CA",
      "beds": 3,
      "baths": 1,
      "sqft": 936,
      "lotSize": 0.2272727,
      "lat": 33.203242,
      "lng": -117.34038,
      "entity": "WH1 LLC"
    },
    {
      "propertyId": null,
      "attomId": 15422948,
      "offerDate": "2025-10-06T05:00:00.000Z",
      "offerPrice": 225000,
      "status": "recorded",
      "isRebuilt": false,
      "address": "22090 CHEROKEE AVE, APPLE VALLEY CA",
      "city": "APPLE VALLEY",
      "state": "CA",
      "beds": 2,
      "baths": 2,
      "sqft": 884,
      "lotSize": 0.45,
      "lat": 34.505612,
      "lng": -117.181681,
      "entity": "WH1 LLC"
    },
    {
      "propertyId": null,
      "attomId": 155707489,
      "offerDate": "2025-10-03T05:00:00.000Z",
      "offerPrice": 448000,
      "status": "recorded",
      "isRebuilt": false,
      "address": "7204 LYNNBROOK CT, CARMICHAEL CA",
      "city": "CARMICHAEL",
      "state": "CA",
      "beds": 3,
      "baths": 2,
      "sqft": 1778,
      "lotSize": 0.2399908,
      "lat": 38.633409,
      "lng": -121.296353,
      "entity": "WH1 LLC"
    },
    {
      "propertyId": null,
      "attomId": 183906046,
      "offerDate": "2025-10-02T05:00:00.000Z",
      "offerPrice": 0,
      "status": "recorded",
      "isRebuilt": false,
      "address": "643 W 890 N, TOOELE UT",
      "city": "TOOELE",
      "state": "UT",
      "beds": 0,
      "baths": null,
      "sqft": 2404,
      "lotSize": 0.1600092,
      "lat": 40.548398,
      "lng": -112.318078,
      "entity": "WH1 LLC"
    },
    {
      "propertyId": null,
      "attomId": 3793489,
      "offerDate": "2025-09-30T05:00:00.000Z",
      "offerPrice": 541000,
      "status": "recorded",
      "isRebuilt": false,
      "address": "3722 STRAWBERRY CREEK WAY, ONTARIO CA",
      "city": "ONTARIO",
      "state": "CA",
      "beds": 4,
      "baths": 3,
      "sqft": 1855,
      "lotSize": 0.0835629,
      "lat": 34.01982,
      "lng": -117.568823,
      "entity": "WH1 LLC"
    },
    {
      "propertyId": null,
      "attomId": 20136999,
      "offerDate": "2025-09-24T05:00:00.000Z",
      "offerPrice": 555000,
      "status": "recorded",
      "isRebuilt": false,
      "address": "1428 W 89TH ST, LOS ANGELES CA",
      "city": "LOS ANGELES",
      "state": "CA",
      "beds": 3,
      "baths": 1,
      "sqft": 1274,
      "lotSize": 0.1037649,
      "lat": 33.956425,
      "lng": -118.301381,
      "entity": "WH1 LLC"
    },
    {
      "propertyId": null,
      "attomId": 154800235,
      "offerDate": "2025-09-23T05:00:00.000Z",
      "offerPrice": 1010000,
      "status": "recorded",
      "isRebuilt": false,
      "address": "1010 PEPPERHILL RD, PASADENA CA",
      "city": "PASADENA",
      "state": "CA",
      "beds": 3,
      "baths": 2,
      "sqft": 1264,
      "lotSize": 0.1682966,
      "lat": 34.163706,
      "lng": -118.073117,
      "entity": "WH1 LLC"
    },
    {
      "propertyId": null,
      "attomId": 4984817,
      "offerDate": "2025-09-22T05:00:00.000Z",
      "offerPrice": 585000,
      "status": "recorded",
      "isRebuilt": false,
      "address": "460 LAS BRISAS DR, ESCONDIDO CA",
      "city": "ESCONDIDO",
      "state": "CA",
      "beds": 4,
      "baths": 2,
      "sqft": 1692,
      "lotSize": 0.1312902,
      "lat": 33.148765,
      "lng": -117.036037,
      "entity": "WH1 LLC"
    },
    {
      "propertyId": null,
      "attomId": 143143218,
      "offerDate": "2025-09-19T05:00:00.000Z",
      "offerPrice": 705000,
      "status": "recorded",
      "isRebuilt": false,
      "address": "10579 LEV AVE, MISSION HILLS CA",
      "city": "MISSION HILLS",
      "state": "CA",
      "beds": 3,
      "baths": 2,
      "sqft": 1358,
      "lotSize": 0.1635904,
      "lat": 34.262791,
      "lng": -118.44695,
      "entity": "WH1 LLC"
    },
    {
      "propertyId": null,
      "attomId": 16533021,
      "offerDate": "2025-09-18T05:00:00.000Z",
      "offerPrice": 550000,
      "status": "recorded",
      "isRebuilt": false,
      "address": "1644 E 122ND ST, LOS ANGELES CA",
      "city": "LOS ANGELES",
      "state": "CA",
      "beds": 3,
      "baths": 2,
      "sqft": 1449,
      "lotSize": 0.1435491,
      "lat": 33.921472,
      "lng": -118.244602,
      "entity": "WH1 LLC"
    },
    {
      "propertyId": null,
      "attomId": 20311647,
      "offerDate": "2025-09-17T05:00:00.000Z",
      "offerPrice": 280000,
      "status": "recorded",
      "isRebuilt": false,
      "address": "8617 PITCH FORK AVE, LAS VEGAS NV",
      "city": "LAS VEGAS",
      "state": "NV",
      "beds": 3,
      "baths": 3,
      "sqft": 1185,
      "lotSize": 0.0800046,
      "lat": 36.306782,
      "lng": -115.283637,
      "entity": "WH1 LLC"
    },
    {
      "propertyId": null,
      "attomId": 158140383,
      "offerDate": "2025-09-16T05:00:00.000Z",
      "offerPrice": 1000000,
      "status": "recorded",
      "isRebuilt": false,
      "address": "35875 ARGONNE ST, NEWARK CA",
      "city": "NEWARK",
      "state": "CA",
      "beds": 3,
      "baths": 2,
      "sqft": 1384,
      "lotSize": 0.2024793,
      "lat": 37.542526,
      "lng": -122.04615,
      "entity": "WH1 LLC"
    },
    {
      "propertyId": null,
      "attomId": 154455738,
      "offerDate": "2025-09-15T05:00:00.000Z",
      "offerPrice": 760000,
      "status": "recorded",
      "isRebuilt": false,
      "address": "20630 CHASE ST, WINNETKA CA",
      "city": "WINNETKA",
      "state": "CA",
      "beds": 4,
      "baths": 2,
      "sqft": 1839,
      "lotSize": 0.1769743,
      "lat": 34.224348,
      "lng": -118.5833,
      "entity": "WH1 LLC"
    },
    {
      "propertyId": null,
      "attomId": 16246037,
      "offerDate": "2025-09-15T05:00:00.000Z",
      "offerPrice": 232000,
      "status": "recorded",
      "isRebuilt": false,
      "address": "429 S JUANITA ST, HEMET CA",
      "city": "HEMET",
      "state": "CA",
      "beds": 2,
      "baths": 1,
      "sqft": 1112,
      "lotSize": 0.2299816,
      "lat": 33.741304,
      "lng": -116.968685,
      "entity": "WH1 LLC"
    },
    {
      "propertyId": null,
      "attomId": 24865205,
      "offerDate": "2025-09-11T05:00:00.000Z",
      "offerPrice": 600000,
      "status": "recorded",
      "isRebuilt": false,
      "address": "1410 W STOCKWELL ST, COMPTON CA",
      "city": "COMPTON",
      "state": "CA",
      "beds": 5,
      "baths": 2,
      "sqft": 1820,
      "lotSize": 0.1176997,
      "lat": 33.909212,
      "lng": -118.249302,
      "entity": "WH1 LLC"
    },
    {
      "propertyId": null,
      "attomId": 140176946,
      "offerDate": "2025-09-09T05:00:00.000Z",
      "offerPrice": 0,
      "status": "recorded",
      "isRebuilt": false,
      "address": "3525 SAILMAKER LN, PLANO TX",
      "city": "PLANO",
      "state": "TX",
      "beds": 4,
      "baths": 2,
      "sqft": 2202,
      "lotSize": 0,
      "lat": 33.063603,
      "lng": -96.762291,
      "entity": "WH1 LLC"
    },
    {
      "propertyId": null,
      "attomId": 183757893,
      "offerDate": "2025-09-08T05:00:00.000Z",
      "offerPrice": 0,
      "status": "recorded",
      "isRebuilt": false,
      "address": "237 W 300 N, HEBER CITY UT",
      "city": "HEBER CITY",
      "state": "UT",
      "beds": 0,
      "baths": null,
      "sqft": 1050,
      "lotSize": 0.1199954,
      "lat": 40.511441,
      "lng": -111.417534,
      "entity": "WH1 LLC"
    },
    {
      "propertyId": null,
      "attomId": 19024081,
      "offerDate": "2025-09-08T05:00:00.000Z",
      "offerPrice": 0,
      "status": "recorded",
      "isRebuilt": false,
      "address": "6716 RAPPAHANNOCK WAY, CARMICHAEL CA",
      "city": "CARMICHAEL",
      "state": "CA",
      "beds": 3,
      "baths": 2,
      "sqft": 1792,
      "lotSize": 0.1997245,
      "lat": 38.647939,
      "lng": -121.307387,
      "entity": "WH1 LLC"
    },
    {
      "propertyId": null,
      "attomId": 45760707,
      "offerDate": "2025-09-05T05:00:00.000Z",
      "offerPrice": 295000,
      "status": "recorded",
      "isRebuilt": false,
      "address": "997 EPHEDRA LN, SPARKS NV",
      "city": "SPARKS",
      "state": "NV",
      "beds": 2,
      "baths": 2,
      "sqft": 1096,
      "lotSize": 0.119146,
      "lat": 39.587581,
      "lng": -119.726803,
      "entity": "WH1 LLC"
    },
    {
      "propertyId": null,
      "attomId": 184092852,
      "offerDate": "2025-09-02T05:00:00.000Z",
      "offerPrice": 500000,
      "status": "recorded",
      "isRebuilt": false,
      "address": "2181 MEL DR, GARDNERVILLE NV",
      "city": "GARDNERVILLE",
      "state": "NV",
      "beds": 0,
      "baths": null,
      "sqft": 1752,
      "lotSize": 2.96,
      "lat": 38.933222,
      "lng": -119.663205,
      "entity": "WH1 LLC"
    },
    {
      "propertyId": null,
      "attomId": 19092483,
      "offerDate": "2025-08-29T05:00:00.000Z",
      "offerPrice": 955000,
      "status": "recorded",
      "isRebuilt": false,
      "address": "437 COLEMAN CT, PLEASANT HILL CA",
      "city": "PLEASANT HILL",
      "state": "CA",
      "beds": 3,
      "baths": 2,
      "sqft": 1576,
      "lotSize": 0.2577365,
      "lat": 37.946445,
      "lng": -122.074606,
      "entity": "WH1 LLC"
    },
    {
      "propertyId": null,
      "attomId": 166817606,
      "offerDate": "2025-08-25T05:00:00.000Z",
      "offerPrice": 0,
      "status": "recorded",
      "isRebuilt": false,
      "address": "4901 TRANSIT CIR, AUSTIN TX",
      "city": "AUSTIN",
      "state": "TX",
      "beds": 0,
      "baths": 3,
      "sqft": 1553,
      "lotSize": 0.190404,
      "lat": 30.429305,
      "lng": -97.724667,
      "entity": "WH1 LLC"
    },
    {
      "propertyId": null,
      "attomId": 26047961,
      "offerDate": "2025-08-22T05:00:00.000Z",
      "offerPrice": 278000,
      "status": "recorded",
      "isRebuilt": false,
      "address": "8602 STRUTTER WAY, RENO NV",
      "city": "RENO",
      "state": "NV",
      "beds": 3,
      "baths": 2,
      "sqft": 1566,
      "lotSize": 0.1570018,
      "lat": 39.631084,
      "lng": -119.899991,
      "entity": "WH1 LLC"
    },
    {
      "propertyId": null,
      "attomId": 23702614,
      "offerDate": "2025-08-22T05:00:00.000Z",
      "offerPrice": 250000,
      "status": "recorded",
      "isRebuilt": false,
      "address": "8651 BEECHCRAFT DR, RENO NV",
      "city": "RENO",
      "state": "NV",
      "beds": 4,
      "baths": 2,
      "sqft": 1400,
      "lotSize": 0.1469927,
      "lat": 39.631053,
      "lng": -119.905061,
      "entity": "WH1 LLC"
    },
    {
      "propertyId": null,
      "attomId": 19564933,
      "offerDate": "2025-08-21T05:00:00.000Z",
      "offerPrice": 200000,
      "status": "recorded",
      "isRebuilt": false,
      "address": "2240 OSCEOLA CT, RENO NV",
      "city": "RENO",
      "state": "NV",
      "beds": 3,
      "baths": 2,
      "sqft": 1178,
      "lotSize": 0.6210055,
      "lat": 39.605272,
      "lng": -119.868454,
      "entity": "WH1 LLC"
    },
    {
      "propertyId": null,
      "attomId": 156521691,
      "offerDate": "2025-08-21T05:00:00.000Z",
      "offerPrice": 230000,
      "status": "recorded",
      "isRebuilt": false,
      "address": "524 E CYPRESS AVE, VISALIA CA",
      "city": "VISALIA",
      "state": "CA",
      "beds": 3,
      "baths": 2,
      "sqft": 1412,
      "lotSize": 0.1612489,
      "lat": 36.324006,
      "lng": -119.287106,
      "entity": "WH1 LLC"
    },
    {
      "propertyId": null,
      "attomId": 17378254,
      "offerDate": "2025-08-20T05:00:00.000Z",
      "offerPrice": 305000,
      "status": "recorded",
      "isRebuilt": false,
      "address": "13087 CYPRESS AVE, VICTORVILLE CA",
      "city": "VICTORVILLE",
      "state": "CA",
      "beds": 4,
      "baths": 3,
      "sqft": 1995,
      "lotSize": 0.1721763,
      "lat": 34.488721,
      "lng": -117.31655,
      "entity": "WH1 LLC"
    },
    {
      "propertyId": null,
      "attomId": 16175472,
      "offerDate": "2025-08-18T05:00:00.000Z",
      "offerPrice": 272500,
      "status": "recorded",
      "isRebuilt": false,
      "address": "11080 MOHAWK RD, APPLE VALLEY CA",
      "city": "APPLE VALLEY",
      "state": "CA",
      "beds": 3,
      "baths": 2,
      "sqft": 1122,
      "lotSize": 0.4132231,
      "lat": 34.45304,
      "lng": -117.200174,
      "entity": "WH1 LLC"
    },
    {
      "propertyId": null,
      "attomId": 26310132,
      "offerDate": "2025-08-15T05:00:00.000Z",
      "offerPrice": 370000,
      "status": "recorded",
      "isRebuilt": false,
      "address": "44810 ROCK ISLAND DR, LANCASTER CA",
      "city": "LANCASTER",
      "state": "CA",
      "beds": 3,
      "baths": 3,
      "sqft": 1717,
      "lotSize": 0.3504362,
      "lat": 34.697127,
      "lng": -118.102849,
      "entity": "WH1 LLC"
    },
    {
      "propertyId": null,
      "attomId": 184136102,
      "offerDate": "2025-08-15T05:00:00.000Z",
      "offerPrice": 285000,
      "status": "recorded",
      "isRebuilt": false,
      "address": "4521 NIGHT DANCE CT, LAS VEGAS NV",
      "city": "LAS VEGAS",
      "state": "NV",
      "beds": 3,
      "baths": 3,
      "sqft": 1429,
      "lotSize": 0.0600092,
      "lat": 36.2425,
      "lng": -115.226867,
      "entity": "WH1 LLC"
    },
    {
      "propertyId": null,
      "attomId": 27410207,
      "offerDate": "2025-08-08T05:00:00.000Z",
      "offerPrice": 855000,
      "status": "recorded",
      "isRebuilt": false,
      "address": "1844 N 1ST AVE, UPLAND CA",
      "city": "UPLAND",
      "state": "CA",
      "beds": 4,
      "baths": 2,
      "sqft": 2432,
      "lotSize": 0.3471074,
      "lat": 34.130477,
      "lng": -117.649445,
      "entity": "WH1 LLC"
    },
    {
      "propertyId": null,
      "attomId": 184054211,
      "offerDate": "2025-08-04T05:00:00.000Z",
      "offerPrice": 480000,
      "status": "recorded",
      "isRebuilt": false,
      "address": "4383 SETTING SUN CT, SPARKS NV",
      "city": "SPARKS",
      "state": "NV",
      "beds": 4,
      "baths": 3,
      "sqft": 2902,
      "lotSize": 0.2853076,
      "lat": 39.573097,
      "lng": -119.70137,
      "entity": "WH1 LLC"
    },
    {
      "propertyId": null,
      "attomId": 165653266,
      "offerDate": "2025-08-04T05:00:00.000Z",
      "offerPrice": 0,
      "status": "recorded",
      "isRebuilt": false,
      "address": "3796 WALDORF DR, DALLAS TX",
      "city": "DALLAS",
      "state": "TX",
      "beds": 4,
      "baths": 4,
      "sqft": 3539,
      "lotSize": 0.4111111,
      "lat": 32.89687,
      "lng": -96.851764,
      "entity": "WH1 LLC"
    },
    {
      "propertyId": null,
      "attomId": 7462533,
      "offerDate": "2025-08-01T05:00:00.000Z",
      "offerPrice": 348500,
      "status": "recorded",
      "isRebuilt": false,
      "address": "13383 BUENA VISTA DR, HESPERIA CA",
      "city": "HESPERIA",
      "state": "CA",
      "beds": 3,
      "baths": 2,
      "sqft": 1720,
      "lotSize": 0.2169421,
      "lat": 34.405525,
      "lng": -117.370607,
      "entity": "WH1 LLC"
    },
    {
      "propertyId": null,
      "attomId": 157785120,
      "offerDate": "2025-08-01T05:00:00.000Z",
      "offerPrice": 1150000,
      "status": "recorded",
      "isRebuilt": false,
      "address": "25232 EARHART RD, LAGUNA HILLS CA",
      "city": "LAGUNA HILLS",
      "state": "CA",
      "beds": 4,
      "baths": 3,
      "sqft": 2007,
      "lotSize": 0.2086318,
      "lat": 33.595438,
      "lng": -117.689323,
      "entity": "WH1 LLC"
    },
    {
      "propertyId": null,
      "attomId": 20200901,
      "offerDate": "2025-07-31T05:00:00.000Z",
      "offerPrice": 612000,
      "status": "recorded",
      "isRebuilt": false,
      "address": "6324 ORIOLE ST, VENTURA CA",
      "city": "VENTURA",
      "state": "CA",
      "beds": 4,
      "baths": 3,
      "sqft": 2102,
      "lotSize": 0.1399908,
      "lat": 34.262207,
      "lng": -119.206974,
      "entity": "WH1 LLC"
    },
    {
      "propertyId": null,
      "attomId": 23613503,
      "offerDate": "2025-07-31T05:00:00.000Z",
      "offerPrice": 290000,
      "status": "recorded",
      "isRebuilt": false,
      "address": "14845 TONIKAN LN, APPLE VALLEY CA",
      "city": "APPLE VALLEY",
      "state": "CA",
      "beds": 4,
      "baths": 2,
      "sqft": 1993,
      "lotSize": 0.4775023,
      "lat": 34.521101,
      "lng": -117.177147,
      "entity": "WH1 LLC"
    },
    {
      "propertyId": null,
      "attomId": 24881827,
      "offerDate": "2025-07-30T05:00:00.000Z",
      "offerPrice": 615000,
      "status": "recorded",
      "isRebuilt": false,
      "address": "12031 PIERCE ST, SYLMAR CA",
      "city": "SYLMAR",
      "state": "CA",
      "beds": 3,
      "baths": 2,
      "sqft": 1254,
      "lotSize": 0.1721763,
      "lat": 34.2807,
      "lng": -118.395287,
      "entity": "WH1 LLC"
    },
    {
      "propertyId": null,
      "attomId": 308053270,
      "offerDate": "2025-07-29T05:00:00.000Z",
      "offerPrice": 0,
      "status": "recorded",
      "isRebuilt": false,
      "address": "175 E 500 S, HYRUM UT",
      "city": "HYRUM",
      "state": "UT",
      "beds": 0,
      "baths": null,
      "sqft": 1526,
      "lotSize": 0.2800046,
      "lat": 41.623789,
      "lng": -111.851084,
      "entity": "WH1 LLC"
    },
    {
      "propertyId": null,
      "attomId": 147713935,
      "offerDate": "2025-07-28T05:00:00.000Z",
      "offerPrice": 510000,
      "status": "recorded",
      "isRebuilt": false,
      "address": "8755 COLBATH AVE, PANORAMA CITY CA",
      "city": "PANORAMA CITY",
      "state": "CA",
      "beds": 3,
      "baths": 1,
      "sqft": 1014,
      "lotSize": 0.155877,
      "lat": 34.229489,
      "lng": -118.440515,
      "entity": "WH1 LLC"
    },
    {
      "propertyId": null,
      "attomId": 141316368,
      "offerDate": "2025-07-25T05:00:00.000Z",
      "offerPrice": 670000,
      "status": "recorded",
      "isRebuilt": false,
      "address": "15712 STARE ST, NORTH HILLS CA",
      "city": "NORTH HILLS",
      "state": "CA",
      "beds": 3,
      "baths": 2,
      "sqft": 1292,
      "lotSize": 0.1519743,
      "lat": 34.252558,
      "lng": -118.474489,
      "entity": "WH1 LLC"
    },
    {
      "propertyId": null,
      "attomId": 15749262,
      "offerDate": "2025-07-25T05:00:00.000Z",
      "offerPrice": 345000,
      "status": "recorded",
      "isRebuilt": false,
      "address": "6735 MERITO AVE, SAN BERNARDINO CA",
      "city": "SAN BERNARDINO",
      "state": "CA",
      "beds": 3,
      "baths": 2,
      "sqft": 1248,
      "lotSize": 0.1652893,
      "lat": 34.131672,
      "lng": -117.245585,
      "entity": "WH1 LLC"
    },
    {
      "propertyId": null,
      "attomId": 149858441,
      "offerDate": "2025-07-25T05:00:00.000Z",
      "offerPrice": 530000,
      "status": "recorded",
      "isRebuilt": false,
      "address": "22134 ORANGE AVE, CASTRO VALLEY CA",
      "city": "CASTRO VALLEY",
      "state": "CA",
      "beds": 2,
      "baths": 1,
      "sqft": 1018,
      "lotSize": 0.1095041,
      "lat": 37.683444,
      "lng": -122.079236,
      "entity": "WH1 LLC"
    },
    {
      "propertyId": null,
      "attomId": 156716868,
      "offerDate": "2025-07-23T05:00:00.000Z",
      "offerPrice": 886000,
      "status": "recorded",
      "isRebuilt": false,
      "address": "958 BERKSHIRE CT, ESCONDIDO CA",
      "city": "ESCONDIDO",
      "state": "CA",
      "beds": 4,
      "baths": 2,
      "sqft": 2252,
      "lotSize": 0.5071855,
      "lat": 33.099227,
      "lng": -117.084769,
      "entity": "WH1 LLC"
    },
    {
      "propertyId": null,
      "attomId": 42561890,
      "offerDate": "2025-07-22T05:00:00.000Z",
      "offerPrice": 500000,
      "status": "recorded",
      "isRebuilt": false,
      "address": "24345 MOONRAKER LN, MORENO VALLEY CA",
      "city": "MORENO VALLEY",
      "state": "CA",
      "beds": 4,
      "baths": 1,
      "sqft": 1683,
      "lotSize": 0.1699954,
      "lat": 33.952255,
      "lng": -117.237677,
      "entity": "WH1 LLC"
    },
    {
      "propertyId": null,
      "attomId": 155851738,
      "offerDate": "2025-07-21T05:00:00.000Z",
      "offerPrice": 500000,
      "status": "recorded",
      "isRebuilt": false,
      "address": "11386 NEW ENGLAND PL, GOLD RIVER CA",
      "city": "GOLD RIVER",
      "state": "CA",
      "beds": 4,
      "baths": 2,
      "sqft": 2077,
      "lotSize": 0.3152204,
      "lat": 38.620347,
      "lng": -121.256627,
      "entity": "WH1 LLC"
    },
    {
      "propertyId": null,
      "attomId": 140097917,
      "offerDate": "2025-07-18T05:00:00.000Z",
      "offerPrice": 0,
      "status": "recorded",
      "isRebuilt": false,
      "address": "4161 W 5615 S, SALT LAKE CITY UT",
      "city": "SALT LAKE CITY",
      "state": "UT",
      "beds": 3,
      "baths": 1,
      "sqft": 1002,
      "lotSize": 0.1600092,
      "lat": 40.648933,
      "lng": -111.990275,
      "entity": "WH1 LLC"
    },