{
  "investor": {
    "id": "af2ce229-6fbf-4216-b1f4-9d3c8598d78f",
    "name": "Jarell Keys",
    "email": "jarell@jandsrealtyco.com",
    "phone": "+1 (281) 509-1961",
    "totalWon": 1,
    "totalBids": 1,
    "ytdWon": 0,
    "ytdBids": 0,
    "entities": [
      "WH1 LLC"
    ]
  },
  "stats": {
    "totalTransactions2025": 156,
    "rebuiltTransactions": 1,
    "recorderTransactions": 313,
    "quarterlyStats": {
      "2024-Q3": {
        "rebuilt": 1,
        "total": 48
      },
      "2024-Q4": {
        "rebuilt": 0,
        "total": 45
      },
      "2025-Q1": {
        "rebuilt": 0,
        "total": 9
      },
      "2025-Q2": {
        "rebuilt": 0,
        "total": 20
      },
      "2025-Q3": {
        "rebuilt": 0,
        "total": 46
      },
      "2025-Q4": {
        "rebuilt": 0,
        "total": 81
      },
      "2026-Q1": {
        "rebuilt": 0,
        "total": 65
      }
    }
  },
  "properties": [
    {
      "propertyId": null,
      "attomId": 166334455,
      "offerDate": "2024-09-09",
      "offerPrice": 370000.0,
      "status": "won",
      "isRebuilt": true,
      "address": "5504 AMESWOOD DR, AUSTIN tx",
      "city": "AUSTIN",
      "state": "tx",
      "beds": null,
      "baths": null,
      "sqft": null,
      "lotSize": null,
      "lat": 30.300721,
      "lng": -97.678579
    },
    {
      "propertyId": null,
      "attomId": 327145681,
      "offerDate": "2026-03-25",
      "offerPrice": 560500,
      "status": "recorder",
      "isRebuilt": false,
      "address": "1339 PALOMAR CIR, SACRAMENTO CA",
      "city": "SACRAMENTO",
      "state": "CA",
      "beds": null,
      "baths": null,
      "sqft": null,
      "lotSize": null,
      "lat": 38.498359,
      "lng": -121.507861
    },
    {
      "propertyId": null,
      "attomId": 156193493,
      "offerDate": "2026-03-25",
      "offerPrice": 1150000,
      "status": "recorder",
      "isRebuilt": false,
      "address": "4768 STERLING WAY, CARPINTERIA CA",
      "city": "CARPINTERIA",
      "state": "CA",
      "beds": null,
      "baths": null,
      "sqft": null,
      "lotSize": null,
      "lat": 34.404782,
      "lng": -119.520748
    },
    {
      "propertyId": null,
      "attomId": 53713016,
      "offerDate": "2026-03-23",
      "offerPrice": 341000,
      "status": "recorder",
      "isRebuilt": false,
      "address": "6920 WAXWING WAY, SACRAMENTO CA",
      "city": "SACRAMENTO",
      "state": "CA",
      "beds": null,
      "baths": null,
      "sqft": null,
      "lotSize": null,
      "lat": 38.692094,
      "lng": -121.350922
    },
    {
      "propertyId": null,
      "attomId": 30991595,
      "offerDate": "2026-03-20",
      "offerPrice": 640000,
      "status": "recorder",
      "isRebuilt": false,
      "address": "5130 N CLYDEBANK AVE, COVINA CA",
      "city": "COVINA",
      "state": "CA",
      "beds": null,
      "baths": null,
      "sqft": null,
      "lotSize": null,
      "lat": 34.106029,
      "lng": -117.919745
    },
    {
      "propertyId": null,
      "attomId": 1317193,
      "offerDate": "2026-03-20",
      "offerPrice": 800000,
      "status": "recorder",
      "isRebuilt": false,
      "address": "1878 DUNCAN WAY, CORONA CA",
      "city": "CORONA",
      "state": "CA",
      "beds": null,
      "baths": null,
      "sqft": null,
      "lotSize": null,
      "lat": 33.82287,
      "lng": -117.53173
    },
    {
      "propertyId": null,
      "attomId": 19895979,
      "offerDate": "2026-03-18",
      "offerPrice": 410000,
      "status": "recorder",
      "isRebuilt": false,
      "address": "25886 FAIRCREST CIR, HEMET CA",
      "city": "HEMET",
      "state": "CA",
      "beds": null,
      "baths": null,
      "sqft": null,
      "lotSize": null,
      "lat": 33.745953,
      "lng": -116.88253
    },
    {
      "propertyId": null,
      "attomId": 778827,
      "offerDate": "2026-03-17",
      "offerPrice": 400000,
      "status": "recorder",
      "isRebuilt": false,
      "address": "1092 DESERT SHALE AVE, LAS VEGAS NV",
      "city": "LAS VEGAS",
      "state": "NV",
      "beds": null,
      "baths": null,
      "sqft": null,
      "lotSize": null,
      "lat": 36.025666,
      "lng": -115.138941
    },
    {
      "propertyId": null,
      "attomId": 150586329,
      "offerDate": "2026-03-17",
      "offerPrice": 415000,
      "status": "recorder",
      "isRebuilt": false,
      "address": "3415 EVENING SUN DR, LAS VEGAS NV",
      "city": "LAS VEGAS",
      "state": "NV",
      "beds": null,
      "baths": null,
      "sqft": null,
      "lotSize": null,
      "lat": 36.127396,
      "lng": -115.285524
    },
    {
      "propertyId": null,
      "attomId": 25430149,
      "offerDate": "2026-03-17",
      "offerPrice": 575000,
      "status": "recorder",
      "isRebuilt": false,
      "address": "13310 REMINGTON ST, PACOIMA CA",
      "city": "PACOIMA",
      "state": "CA",
      "beds": null,
      "baths": null,
      "sqft": null,
      "lotSize": null,
      "lat": 34.256231,
      "lng": -118.422552
    },
    {
      "propertyId": null,
      "attomId": 140544764,
      "offerDate": "2026-03-17",
      "offerPrice": 950000,
      "status": "recorder",
      "isRebuilt": false,
      "address": "1505 TEN PALMS CT, LAS VEGAS NV",
      "city": "LAS VEGAS",
      "state": "NV",
      "beds": null,
      "baths": null,
      "sqft": null,
      "lotSize": null,
      "lat": 36.153887,
      "lng": -115.259153
    },
    {
      "propertyId": null,
      "attomId": 145959135,
      "offerDate": "2026-03-13",
      "offerPrice": 580000,
      "status": "recorder",
      "isRebuilt": false,
      "address": "910 N TAJAUTA AVE, COMPTON CA",
      "city": "COMPTON",
      "state": "CA",
      "beds": null,
      "baths": null,
      "sqft": null,
      "lotSize": null,
      "lat": 33.902414,
      "lng": -118.246406
    },
    {
      "propertyId": null,
      "attomId": 156286105,
      "offerDate": "2026-03-13",
      "offerPrice": 843000,
      "status": "recorder",
      "isRebuilt": false,
      "address": "2219 GOLDSMITH AVE, THOUSAND OAKS CA",
      "city": "THOUSAND OAKS",
      "state": "CA",
      "beds": null,
      "baths": null,
      "sqft": null,
      "lotSize": null,
      "lat": 34.209076,
      "lng": -118.873361
    },
    {
      "propertyId": null,
      "attomId": 52989434,
      "offerDate": "2026-03-12",
      "offerPrice": 450000,
      "status": "recorder",
      "isRebuilt": false,
      "address": "8901 GLENCOE DR, RIVERSIDE CA",
      "city": "RIVERSIDE",
      "state": "CA",
      "beds": null,
      "baths": null,
      "sqft": null,
      "lotSize": null,
      "lat": 33.939934,
      "lng": -117.446302
    },
    {
      "propertyId": null,
      "attomId": 53442505,
      "offerDate": "2026-03-11",
      "offerPrice": 402500,
      "status": "recorder",
      "isRebuilt": false,
      "address": "744 W PALO ALTO AVE, FRESNO CA",
      "city": "FRESNO",
      "state": "CA",
      "beds": null,
      "baths": null,
      "sqft": null,
      "lotSize": null,
      "lat": 36.833481,
      "lng": -119.80704
    },
    {
      "propertyId": null,
      "attomId": 21916524,
      "offerDate": "2026-03-11",
      "offerPrice": 475000,
      "status": "recorder",
      "isRebuilt": false,
      "address": "760 KELVIN RD, EL SOBRANTE CA",
      "city": "EL SOBRANTE",
      "state": "CA",
      "beds": null,
      "baths": null,
      "sqft": null,
      "lotSize": null,
      "lat": 37.982243,
      "lng": -122.301264
    },
    {
      "propertyId": null,
      "attomId": 154673273,
      "offerDate": "2026-03-11",
      "offerPrice": 600000,
      "status": "recorder",
      "isRebuilt": false,
      "address": "7338 PASSONS BLVD, PICO RIVERA CA",
      "city": "PICO RIVERA",
      "state": "CA",
      "beds": null,
      "baths": null,
      "sqft": null,
      "lotSize": null,
      "lat": 33.973484,
      "lng": -118.093844
    },
    {
      "propertyId": null,
      "attomId": 154716141,
      "offerDate": "2026-03-11",
      "offerPrice": 550000,
      "status": "recorder",
      "isRebuilt": false,
      "address": "11415 MAPLEDALE ST, NORWALK CA",
      "city": "NORWALK",
      "state": "CA",
      "beds": null,
      "baths": null,
      "sqft": null,
      "lotSize": null,
      "lat": 33.898732,
      "lng": -118.090727
    },
    {
      "propertyId": null,
      "attomId": 21193674,
      "offerDate": "2026-03-10",
      "offerPrice": 702500,
      "status": "recorder",
      "isRebuilt": false,
      "address": "8101 E TIMOR ST, LONG BEACH CA",
      "city": "LONG BEACH",
      "state": "CA",
      "beds": null,
      "baths": null,
      "sqft": null,
      "lotSize": null,
      "lat": 33.819531,
      "lng": -118.071012
    },
    {
      "propertyId": null,
      "attomId": 15634773,
      "offerDate": "2026-03-09",
      "offerPrice": 560000,
      "status": "recorder",
      "isRebuilt": false,
      "address": "1227 JADESTONE LN, CORONA CA",
      "city": "CORONA",
      "state": "CA",
      "beds": null,
      "baths": null,
      "sqft": null,
      "lotSize": null,
      "lat": 33.870217,
      "lng": -117.598862
    },
    {
      "propertyId": null,
      "attomId": 230384137,
      "offerDate": "2026-03-06",
      "offerPrice": 400000,
      "status": "recorder",
      "isRebuilt": false,
      "address": "1333 SKYRIDGE DR, FALLON NV",
      "city": "FALLON",
      "state": "NV",
      "beds": null,
      "baths": null,
      "sqft": null,
      "lotSize": null,
      "lat": 39.496321,
      "lng": -118.870452
    },
    {
      "propertyId": null,
      "attomId": 20340732,
      "offerDate": "2026-03-04",
      "offerPrice": 650000,
      "status": "recorder",
      "isRebuilt": false,
      "address": "6140 FULCHER AVE, NORTH HOLLYWOOD CA",
      "city": "NORTH HOLLYWOOD",
      "state": "CA",
      "beds": null,
      "baths": null,
      "sqft": null,
      "lotSize": null,
      "lat": 34.182356,
      "lng": -118.372914
    },
    {
      "propertyId": null,
      "attomId": 149977295,
      "offerDate": "2026-02-27",
      "offerPrice": 280000,
      "status": "recorder",
      "isRebuilt": false,
      "address": "2554 HARVARD AVE, CLOVIS CA",
      "city": "CLOVIS",
      "state": "CA",
      "beds": null,
      "baths": null,
      "sqft": null,
      "lotSize": null,
      "lat": 36.803216,
      "lng": -119.705022
    },
    {
      "propertyId": null,
      "attomId": 140950140,
      "offerDate": "2026-02-26",
      "offerPrice": 563000,
      "status": "recorder",
      "isRebuilt": false,
      "address": "7137 OLIVE AVE, LONG BEACH CA",
      "city": "LONG BEACH",
      "state": "CA",
      "beds": null,
      "baths": null,
      "sqft": null,
      "lotSize": null,
      "lat": 33.88435,
      "lng": -118.183088
    },
    {
      "propertyId": null,
      "attomId": 141474435,
      "offerDate": "2026-02-26",
      "offerPrice": 835000,
      "status": "recorder",
      "isRebuilt": false,
      "address": "19708 GRIDLEY RD, CERRITOS CA",
      "city": "CERRITOS",
      "state": "CA",
      "beds": null,
      "baths": null,
      "sqft": null,
      "lotSize": null,
      "lat": 33.851373,
      "lng": -118.090522
    },
    {
      "propertyId": null,
      "attomId": 34880960,
      "offerDate": "2026-02-25",
      "offerPrice": 450000,
      "status": "recorder",
      "isRebuilt": false,
      "address": "516 N BEGONIA AVE, ONTARIO CA",
      "city": "ONTARIO",
      "state": "CA",
      "beds": null,
      "baths": null,
      "sqft": null,
      "lotSize": null,
      "lat": 34.069262,
      "lng": -117.671301
    },
    {
      "propertyId": null,
      "attomId": 27280825,
      "offerDate": "2026-02-25",
      "offerPrice": 566000,
      "status": "recorder",
      "isRebuilt": false,
      "address": "2065 W 65TH ST, LOS ANGELES CA",
      "city": "LOS ANGELES",
      "state": "CA",
      "beds": null,
      "baths": null,
      "sqft": null,
      "lotSize": null,
      "lat": 33.980852,
      "lng": -118.315531
    },
    {
      "propertyId": null,
      "attomId": 8403807,
      "offerDate": "2026-02-23",
      "offerPrice": 510000,
      "status": "recorder",
      "isRebuilt": false,
      "address": "730 GRAPE CIR, COMPTON CA",
      "city": "COMPTON",
      "state": "CA",
      "beds": null,
      "baths": null,
      "sqft": null,
      "lotSize": null,
      "lat": 33.89041,
      "lng": -118.235149
    },
    {
      "propertyId": null,
      "attomId": 156268380,
      "offerDate": "2026-02-20",
      "offerPrice": 535000,
      "status": "recorder",
      "isRebuilt": false,
      "address": "1521 SARKESIAN DR, PETALUMA CA",
      "city": "PETALUMA",
      "state": "CA",
      "beds": null,
      "baths": null,
      "sqft": null,
      "lotSize": null,
      "lat": 38.246708,
      "lng": -122.614221
    },
    {
      "propertyId": null,
      "attomId": 20648418,
      "offerDate": "2026-02-20",
      "offerPrice": 495000,
      "status": "recorder",
      "isRebuilt": false,
      "address": "1412 VIA ARBOLITOS, SANTA MARIA CA",
      "city": "SANTA MARIA",
      "state": "CA",
      "beds": null,
      "baths": null,
      "sqft": null,
      "lotSize": null,
      "lat": 34.921088,
      "lng": -120.460773
    },
    {
      "propertyId": null,
      "attomId": 20841889,
      "offerDate": "2026-02-19",
      "offerPrice": 500000,
      "status": "recorder",
      "isRebuilt": false,
      "address": "11740 MINUTEMAN DR, RIVERSIDE CA",
      "city": "RIVERSIDE",
      "state": "CA",
      "beds": null,
      "baths": null,
      "sqft": null,
      "lotSize": null,
      "lat": 33.891215,
      "lng": -117.484473
    },
    {
      "propertyId": null,
      "attomId": 157180258,
      "offerDate": "2026-02-17",
      "offerPrice": 635000,
      "status": "recorder",
      "isRebuilt": false,
      "address": "101 MONTICITO CT, ROSEVILLE CA",
      "city": "ROSEVILLE",
      "state": "CA",
      "beds": null,
      "baths": null,
      "sqft": null,
      "lotSize": null,
      "lat": 38.771953,
      "lng": -121.297818
    },
    {
      "propertyId": null,
      "attomId": 25700726,
      "offerDate": "2026-02-17",
      "offerPrice": 400000,
      "status": "recorder",
      "isRebuilt": false,
      "address": "12013 ROCKRIDGE DR, FONTANA CA",
      "city": "FONTANA",
      "state": "CA",
      "beds": null,
      "baths": null,
      "sqft": null,
      "lotSize": null,
      "lat": 34.035252,
      "lng": -117.480546
    },
    {
      "propertyId": null,
      "attomId": 147687719,
      "offerDate": "2026-02-17",
      "offerPrice": 500000,
      "status": "recorder",
      "isRebuilt": false,
      "address": "4661 DRIFTWOOD CT, EL SOBRANTE CA",
      "city": "EL SOBRANTE",
      "state": "CA",
      "beds": null,
      "baths": null,
      "sqft": null,
      "lotSize": null,
      "lat": 37.975199,
      "lng": -122.304086
    },
    {
      "propertyId": null,
      "attomId": 157256584,
      "offerDate": "2026-02-17",
      "offerPrice": 1000000,
      "status": "recorder",
      "isRebuilt": false,
      "address": "457 NORA CT, WALNUT CREEK CA",
      "city": "WALNUT CREEK",
      "state": "CA",
      "beds": null,
      "baths": null,
      "sqft": null,
      "lotSize": null,
      "lat": 37.934951,
      "lng": -122.048579
    },
    {
      "propertyId": null,
      "attomId": 156340277,
      "offerDate": "2026-02-13",
      "offerPrice": 900000,
      "status": "recorder",
      "isRebuilt": false,
      "address": "13052 VIA CABALLO ROJO, SAN DIEGO CA",
      "city": "SAN DIEGO",
      "state": "CA",
      "beds": null,
      "baths": null,
      "sqft": null,
      "lotSize": null,
      "lat": 32.954413,
      "lng": -117.110448
    },
    {
      "propertyId": null,
      "attomId": 46651011,
      "offerDate": "2026-02-13",
      "offerPrice": 401000,
      "status": "recorder",
      "isRebuilt": false,
      "address": "364 E MARWOOD LN, FRESNO CA",
      "city": "FRESNO",
      "state": "CA",
      "beds": null,
      "baths": null,
      "sqft": null,
      "lotSize": null,
      "lat": 36.86771,
      "lng": -119.776863
    },
    {
      "propertyId": null,
      "attomId": 221660893,
      "offerDate": "2026-02-13",
      "offerPrice": 706000,
      "status": "recorder",
      "isRebuilt": false,
      "address": "302 GRIFFIN CT, STATELINE NV",
      "city": "STATELINE",
      "state": "NV",
      "beds": null,
      "baths": null,
      "sqft": null,
      "lotSize": null,
      "lat": 38.991062,
      "lng": -119.897236
    },
    {
      "propertyId": null,
      "attomId": 153555746,
      "offerDate": "2026-02-11",
      "offerPrice": 570000,
      "status": "recorder",
      "isRebuilt": false,
      "address": "7523 DALTON AVE, LOS ANGELES CA",
      "city": "LOS ANGELES",
      "state": "CA",
      "beds": null,
      "baths": null,
      "sqft": null,
      "lotSize": null,
      "lat": 33.971312,
      "lng": -118.303848
    },
    {
      "propertyId": null,
      "attomId": 155840488,
      "offerDate": "2026-02-11",
      "offerPrice": 557000,
      "status": "recorder",
      "isRebuilt": false,
      "address": "1756 VALLEJO WAY, SACRAMENTO CA",
      "city": "SACRAMENTO",
      "state": "CA",
      "beds": null,
      "baths": null,
      "sqft": null,
      "lotSize": null,
      "lat": 38.551811,
      "lng": -121.493043
    },
    {
      "propertyId": null,
      "attomId": 154504508,
      "offerDate": "2026-02-06",
      "offerPrice": 1295000,
      "status": "recorder",
      "isRebuilt": false,
      "address": "803 EUCALYPTUS DR, EL SEGUNDO CA",
      "city": "EL SEGUNDO",
      "state": "CA",
      "beds": null,
      "baths": null,
      "sqft": null,
      "lotSize": null,
      "lat": 33.927136,
      "lng": -118.413869
    },
    {
      "propertyId": null,
      "attomId": 14081732,
      "offerDate": "2026-02-05",
      "offerPrice": 715000,
      "status": "recorder",
      "isRebuilt": false,
      "address": "1800 GILARDY DR, CONCORD CA",
      "city": "CONCORD",
      "state": "CA",
      "beds": null,
      "baths": null,
      "sqft": null,
      "lotSize": null,
      "lat": 37.947111,
      "lng": -122.039644
    },
    {
      "propertyId": null,
      "attomId": 140287937,
      "offerDate": "2026-02-05",
      "offerPrice": 605000,
      "status": "recorder",
      "isRebuilt": false,
      "address": "1179 TEMPLE DR, PACHECO CA",
      "city": "PACHECO",
      "state": "CA",
      "beds": null,
      "baths": null,
      "sqft": null,
      "lotSize": null,
      "lat": 37.987903,
      "lng": -122.075751
    },
    {
      "propertyId": null,
      "attomId": 154695493,
      "offerDate": "2026-02-04",
      "offerPrice": 938000,
      "status": "recorder",
      "isRebuilt": false,
      "address": "24005 FULMAR AVE, TORRANCE CA",
      "city": "TORRANCE",
      "state": "CA",
      "beds": null,
      "baths": null,
      "sqft": null,
      "lotSize": null,
      "lat": 33.807011,
      "lng": -118.309125
    },
    {
      "propertyId": null,
      "attomId": 1460682,
      "offerDate": "2026-02-03",
      "offerPrice": 500000,
      "status": "recorder",
      "isRebuilt": false,
      "address": "13902 S TAJAUTA AVE, COMPTON CA",
      "city": "COMPTON",
      "state": "CA",
      "beds": null,
      "baths": null,
      "sqft": null,
      "lotSize": null,
      "lat": 33.90578,
      "lng": -118.246589
    },
    {
      "propertyId": null,
      "attomId": 52142088,
      "offerDate": "2026-02-02",
      "offerPrice": 502000,
      "status": "recorder",
      "isRebuilt": false,
      "address": "526 W PALMER ST, COMPTON CA",
      "city": "COMPTON",
      "state": "CA",
      "beds": null,
      "baths": null,
      "sqft": null,
      "lotSize": null,
      "lat": 33.898189,
      "lng": -118.233149
    },
    {
      "propertyId": null,
      "attomId": 141325901,
      "offerDate": "2026-01-30",
      "offerPrice": 600000,
      "status": "recorder",
      "isRebuilt": false,
      "address": "3702 GRAND AVE, HUNTINGTON PARK CA",
      "city": "HUNTINGTON PARK",
      "state": "CA",
      "beds": null,
      "baths": null,
      "sqft": null,
      "lotSize": null,
      "lat": 33.966474,
      "lng": -118.201673
    },
    {
      "propertyId": null,
      "attomId": 16306177,
      "offerDate": "2026-01-30",
      "offerPrice": 500000,
      "status": "recorder",
      "isRebuilt": false,
      "address": "15849 FIRETHORN RD, FONTANA CA",
      "city": "FONTANA",
      "state": "CA",
      "beds": null,
      "baths": null,
      "sqft": null,
      "lotSize": null,
      "lat": 34.043684,
      "lng": -117.458992
    },
    {
      "propertyId": null,
      "attomId": 329097889,
      "offerDate": "2026-01-29",
      "offerPrice": 425500,
      "status": "recorder",
      "isRebuilt": false,
      "address": "453 CIMARRON DR, PERRIS CA",
      "city": "PERRIS",
      "state": "CA",
      "beds": null,
      "baths": null,
      "sqft": null,
      "lotSize": null,
      "lat": 33.74351,
      "lng": -117.216287
    },
    {
      "propertyId": null,
      "attomId": 148455919,
      "offerDate": "2026-01-27",
      "offerPrice": 397000,
      "status": "recorder",
      "isRebuilt": false,
      "address": "30211 WESTLAKE DR, MENIFEE CA",
      "city": "MENIFEE",
      "state": "CA",
      "beds": null,
      "baths": null,
      "sqft": null,
      "lotSize": null,
      "lat": 33.682083,
      "lng": -117.167319
    },
    {
      "propertyId": null,
      "attomId": 100005183,
      "offerDate": "2026-01-23",
      "offerPrice": 535000,
      "status": "recorder",
      "isRebuilt": false,
      "address": "2674 LA MORADA DR, RIALTO CA",
      "city": "RIALTO",
      "state": "CA",
      "beds": null,
      "baths": null,
      "sqft": null,
      "lotSize": null,
      "lat": 34.165509,
      "lng": -117.426824
    },
    {
      "propertyId": null,
      "attomId": 147642576,
      "offerDate": "2026-01-23",
      "offerPrice": 280000,
      "status": "recorder",
      "isRebuilt": false,
      "address": "10139 ROCKY TREE ST, LAS VEGAS NV",
      "city": "LAS VEGAS",
      "state": "NV",
      "beds": null,
      "baths": null,
      "sqft": null,
      "lotSize": null,
      "lat": 36.005729,
      "lng": -115.151226
    },
    {
      "propertyId": null,
      "attomId": 156284345,
      "offerDate": "2026-01-22",
      "offerPrice": 511000,
      "status": "recorder",
      "isRebuilt": false,
      "address": "2400 W HEMLOCK ST, OXNARD CA",
      "city": "OXNARD",
      "state": "CA",
      "beds": null,
      "baths": null,
      "sqft": null,
      "lotSize": null,
      "lat": 34.180946,
      "lng": -119.203972
    },
    {
      "propertyId": null,
      "attomId": 144500494,
      "offerDate": "2026-01-21",
      "offerPrice": 1130000,
      "status": "recorder",
      "isRebuilt": false,
      "address": "3531 LA MESA DR, HAYWARD CA",
      "city": "HAYWARD",
      "state": "CA",
      "beds": null,
      "baths": null,
      "sqft": null,
      "lotSize": null,
      "lat": 37.653405,
      "lng": -122.02998
    },
    {
      "propertyId": null,
      "attomId": 52248565,
      "offerDate": "2026-01-16",
      "offerPrice": 371000,
      "status": "recorder",
      "isRebuilt": false,
      "address": "24169 MARLEY CIR, MENIFEE CA",
      "city": "MENIFEE",
      "state": "CA",
      "beds": null,
      "baths": null,
      "sqft": null,
      "lotSize": null,
      "lat": 33.769465,
      "lng": -117.161672
    },
    {
      "propertyId": null,
      "attomId": 21173801,
      "offerDate": "2026-01-15",
      "offerPrice": 640000,
      "status": "recorder",
      "isRebuilt": false,
      "address": "16150 E QUEENSIDE DR, COVINA CA",
      "city": "COVINA",
      "state": "CA",
      "beds": null,
      "baths": null,
      "sqft": null,
      "lotSize": null,
      "lat": 34.093326,
      "lng": -117.930364
    },
    {
      "propertyId": null,
      "attomId": 27212019,
      "offerDate": "2026-01-13",
      "offerPrice": 430000,
      "status": "recorder",
      "isRebuilt": false,
      "address": "2025 TRUMAN LN, OAKLEY CA",
      "city": "OAKLEY",
      "state": "CA",
      "beds": null,
      "baths": null,
      "sqft": null,
      "lotSize": null,
      "lat": 37.987075,
      "lng": -121.733837
    },
    {
      "propertyId": null,
      "attomId": 53953419,
      "offerDate": "2026-01-12",
      "offerPrice": 312000,
      "status": "recorder",
      "isRebuilt": false,
      "address": "4490 CIRCUIT CT, ROCKLIN CA",
      "city": "ROCKLIN",
      "state": "CA",
      "beds": null,
      "baths": null,
      "sqft": null,
      "lotSize": null,
      "lat": 38.798112,
      "lng": -121.225738
    },
    {
      "propertyId": null,
      "attomId": 52258851,
      "offerDate": "2026-01-09",
      "offerPrice": 1031000,
      "status": "recorder",
      "isRebuilt": false,
      "address": "18717 DE VOSS AVE, CERRITOS CA",
      "city": "CERRITOS",
      "state": "CA",
      "beds": null,
      "baths": null,
      "sqft": null,
      "lotSize": null,
      "lat": 33.861267,
      "lng": -118.061317
    },
    {
      "propertyId": null,
      "attomId": 5010181,
      "offerDate": "2026-01-08",
      "offerPrice": 335000,
      "status": "recorder",
      "isRebuilt": false,
      "address": "331 STEFFAN ST, VALLEJO CA",
      "city": "VALLEJO",
      "state": "CA",
      "beds": null,
      "baths": null,
      "sqft": null,
      "lotSize": null,
      "lat": 38.094507,
      "lng": -122.226461
    },
    {
      "propertyId": null,
      "attomId": 7428277,
      "offerDate": "2026-01-08",
      "offerPrice": 395000,
      "status": "recorder",
      "isRebuilt": false,
      "address": "177 MYRTLEWOOD DR, CALIMESA CA",
      "city": "CALIMESA",
      "state": "CA",
      "beds": null,
      "baths": null,
      "sqft": null,
      "lotSize": null,
      "lat": 33.99681,
      "lng": -117.042089
    },
    {
      "propertyId": null,
      "attomId": 52179059,
      "offerDate": "2026-01-08",
      "offerPrice": 560000,
      "status": "recorder",
      "isRebuilt": false,
      "address": "12630 S HALO DR, COMPTON CA",
      "city": "COMPTON",
      "state": "CA",
      "beds": null,
      "baths": null,
      "sqft": null,
      "lotSize": null,
      "lat": 33.906067,
      "lng": -118.188313
    },
    {
      "propertyId": null,
      "attomId": 156433994,
      "offerDate": "2026-01-07",
      "offerPrice": 311000,
      "status": "recorder",
      "isRebuilt": false,
      "address": "18515 KALIN RANCH DR, VICTORVILLE CA",
      "city": "VICTORVILLE",
      "state": "CA",
      "beds": null,
      "baths": null,
      "sqft": null,
      "lotSize": null,
      "lat": 34.483358,
      "lng": -117.259663
    },
    {
      "propertyId": null,
      "attomId": 15019986,
      "offerDate": "2026-01-05",
      "offerPrice": 465000,
      "status": "recorder",
      "isRebuilt": false,
      "address": "705 DOVER DR, SAN BERNARDINO CA",
      "city": "SAN BERNARDINO",
      "state": "CA",
      "beds": null,
      "baths": null,
      "sqft": null,
      "lotSize": null,
      "lat": 34.17825,
      "lng": -117.298567
    },
    {
      "propertyId": null,
      "attomId": 20651022,
      "offerDate": "2026-01-02",
      "offerPrice": 320000,
      "status": "recorder",
      "isRebuilt": false,
      "address": "5201 SIERRA CAVES AVE, BAKERSFIELD CA",
      "city": "BAKERSFIELD",
      "state": "CA",
      "beds": null,
      "baths": null,
      "sqft": null,
      "lotSize": null,
      "lat": 35.306892,
      "lng": -119.083195
    },
    {
      "propertyId": null,
      "attomId": 21986545,
      "offerDate": "2026-01-02",
      "offerPrice": 751000,
      "status": "recorder",
      "isRebuilt": false,
      "address": "1018 N WRIGHT ST, SANTA ANA CA",
      "city": "SANTA ANA",
      "state": "CA",
      "beds": null,
      "baths": null,
      "sqft": null,
      "lotSize": null,
      "lat": 33.754148,
      "lng": -117.846844
    },
    {
      "propertyId": null,
      "attomId": 154456010,
      "offerDate": "2025-12-31",
      "offerPrice": 650000,
      "status": "recorder",
      "isRebuilt": false,
      "address": "8552 JUMILLA AVE, WINNETKA CA",
      "city": "WINNETKA",
      "state": "CA",
      "beds": null,
      "baths": null,
      "sqft": null,
      "lotSize": null,
      "lat": 34.226151,
      "lng": -118.563111
    },
    {
      "propertyId": null,
      "attomId": 17431584,
      "offerDate": "2025-12-31",
      "offerPrice": 465000,
      "status": "recorder",
      "isRebuilt": false,
      "address": "1609 N PEARL AVE, COMPTON CA",
      "city": "COMPTON",
      "state": "CA",
      "beds": null,
      "baths": null,
      "sqft": null,
      "lotSize": null,
      "lat": 33.906722,
      "lng": -118.21498
    },
    {
      "propertyId": null,
      "attomId": 29671771,
      "offerDate": "2025-12-31",
      "offerPrice": 640000,
      "status": "recorder",
      "isRebuilt": false,
      "address": "5984 HIDDEN HIGHLANDS DR, RENO NV",
      "city": "RENO",
      "state": "NV",
      "beds": null,
      "baths": null,
      "sqft": null,
      "lotSize": null,
      "lat": 39.477476,
      "lng": -119.723066
    },
    {
      "propertyId": null,
      "attomId": 154825422,
      "offerDate": "2025-12-30",
      "offerPrice": 560500,
      "status": "recorder",
      "isRebuilt": false,
      "address": "15804 S LORELLA AVE, GARDENA CA",
      "city": "GARDENA",
      "state": "CA",
      "beds": null,
      "baths": null,
      "sqft": null,
      "lotSize": null,
      "lat": 33.888321,
      "lng": -118.268876
    },
    {
      "propertyId": null,
      "attomId": 45371713,
      "offerDate": "2025-12-30",
      "offerPrice": 575000,
      "status": "recorder",
      "isRebuilt": false,
      "address": "10600 OLIVEBRANCH AVE, LAS VEGAS NV",
      "city": "LAS VEGAS",
      "state": "NV",
      "beds": null,
      "baths": null,
      "sqft": null,
      "lotSize": null,
      "lat": 36.184751,
      "lng": -115.32702
    },
    {
      "propertyId": null,
      "attomId": 21797753,
      "offerDate": "2025-12-30",
      "offerPrice": 465000,
      "status": "recorder",
      "isRebuilt": false,
      "address": "26538 PEGASUS WAY, MORENO VALLEY CA",
      "city": "MORENO VALLEY",
      "state": "CA",
      "beds": null,
      "baths": null,
      "sqft": null,
      "lotSize": null,
      "lat": 33.920467,
      "lng": -117.199292
    },
    {
      "propertyId": null,
      "attomId": 154914495,
      "offerDate": "2025-12-30",
      "offerPrice": 1215000,
      "status": "recorder",
      "isRebuilt": false,
      "address": "20526 AVIS AVE, TORRANCE CA",
      "city": "TORRANCE",
      "state": "CA",
      "beds": null,
      "baths": null,
      "sqft": null,
      "lotSize": null,
      "lat": 33.84416,
      "lng": -118.34552
    },
    {
      "propertyId": null,
      "attomId": 25593806,
      "offerDate": "2025-12-26",
      "offerPrice": 455000,
      "status": "recorder",
      "isRebuilt": false,
      "address": "17432 FAIRVIEW RD, FONTANA CA",
      "city": "FONTANA",
      "state": "CA",
      "beds": null,
      "baths": null,
      "sqft": null,
      "lotSize": null,
      "lat": 34.111958,
      "lng": -117.424211
    },
    {
      "propertyId": null,
      "attomId": 311675784,
      "offerDate": "2025-12-23",
      "offerPrice": 940000,
      "status": "recorder",
      "isRebuilt": false,
      "address": "28 BACULO ST, RANCHO MISSION VIEJO CA",
      "city": "RANCHO MISSION VIEJO",
      "state": "CA",
      "beds": null,
      "baths": null,
      "sqft": null,
      "lotSize": null,
      "lat": 33.539324,
      "lng": -117.595266
    },
    {
      "propertyId": null,
      "attomId": 9651869,
      "offerDate": "2025-12-23",
      "offerPrice": 242000,
      "status": "recorder",
      "isRebuilt": false,
      "address": "12192 PACOIMA RD, VICTORVILLE CA",
      "city": "VICTORVILLE",
      "state": "CA",
      "beds": null,
      "baths": null,
      "sqft": null,
      "lotSize": null,
      "lat": 34.472579,
      "lng": -117.356418
    },
    {
      "propertyId": null,
      "attomId": 27408146,
      "offerDate": "2025-12-23",
      "offerPrice": 635000,
      "status": "recorder",
      "isRebuilt": false,
      "address": "3597 FAIR BLUFF ST, LAS VEGAS NV",
      "city": "LAS VEGAS",
      "state": "NV",
      "beds": null,
      "baths": null,
      "sqft": null,
      "lotSize": null,
      "lat": 36.124131,
      "lng": -115.324327
    },
    {
      "propertyId": null,
      "attomId": 21989795,
      "offerDate": "2025-12-22",
      "offerPrice": 350000,
      "status": "recorder",
      "isRebuilt": false,
      "address": "26560 CORNELL ST, HEMET CA",
      "city": "HEMET",
      "state": "CA",
      "beds": null,
      "baths": null,
      "sqft": null,
      "lotSize": null,
      "lat": 33.73595,
      "lng": -116.940866
    },
    {
      "propertyId": null,
      "attomId": 7211914,
      "offerDate": "2025-12-19",
      "offerPrice": 275000,
      "status": "recorder",
      "isRebuilt": false,
      "address": "3915 E HOLLAND AVE, FRESNO CA",
      "city": "FRESNO",
      "state": "CA",
      "beds": null,
      "baths": null,
      "sqft": null,
      "lotSize": null,
      "lat": 36.797571,
      "lng": -119.758357
    },
    {
      "propertyId": null,
      "attomId": 54376198,
      "offerDate": "2025-12-19",
      "offerPrice": 590000,
      "status": "recorder",
      "isRebuilt": false,
      "address": "510 W HACIENDA DR, CORONA CA",
      "city": "CORONA",
      "state": "CA",
      "beds": null,
      "baths": null,
      "sqft": null,
      "lotSize": null,
      "lat": 33.860644,
      "lng": -117.574162
    },
    {
      "propertyId": null,
      "attomId": 42688752,
      "offerDate": "2025-12-19",
      "offerPrice": 660000,
      "status": "recorder",
      "isRebuilt": false,
      "address": "4995 FOXCREEK TRL, RENO NV",
      "city": "RENO",
      "state": "NV",
      "beds": null,
      "baths": null,
      "sqft": null,
      "lotSize": null,
      "lat": 39.48033,
      "lng": -119.859808
    },
    {
      "propertyId": null,
      "attomId": 26654812,
      "offerDate": "2025-12-19",
      "offerPrice": 525000,
      "status": "recorder",
      "isRebuilt": false,
      "address": "2471 WALSH GLEN CT, HENDERSON NV",
      "city": "HENDERSON",
      "state": "NV",
      "beds": null,
      "baths": null,
      "sqft": null,
      "lotSize": null,
      "lat": 35.986801,
      "lng": -115.094169
    },
    {
      "propertyId": null,
      "attomId": 13646948,
      "offerDate": "2025-12-19",
      "offerPrice": 570000,
      "status": "recorder",
      "isRebuilt": false,
      "address": "5572 HORSESHOE WAY, FONTANA CA",
      "city": "FONTANA",
      "state": "CA",
      "beds": null,
      "baths": null,
      "sqft": null,
      "lotSize": null,
      "lat": 34.152817,
      "lng": -117.481282
    },
    {
      "propertyId": null,
      "attomId": 17482997,
      "offerDate": "2025-12-17",
      "offerPrice": 296000,
      "status": "recorder",
      "isRebuilt": false,
      "address": "821 W FAIRMONT AVE, CLOVIS CA",
      "city": "CLOVIS",
      "state": "CA",
      "beds": null,
      "baths": null,
      "sqft": null,
      "lotSize": null,
      "lat": 36.806582,
      "lng": -119.727933
    },
    {
      "propertyId": null,
      "attomId": 23297245,
      "offerDate": "2025-12-11",
      "offerPrice": 520000,
      "status": "recorder",
      "isRebuilt": false,
      "address": "27668 LONGMEADOW CT, MORENO VALLEY CA",
      "city": "MORENO VALLEY",
      "state": "CA",
      "beds": null,
      "baths": null,
      "sqft": null,
      "lotSize": null,
      "lat": 33.903661,
      "lng": -117.179547
    },
    {
      "propertyId": null,
      "attomId": 13908623,
      "offerDate": "2025-12-11",
      "offerPrice": 560000,
      "status": "recorder",
      "isRebuilt": false,
      "address": "1254 MARJORIE PL, ESCONDIDO CA",
      "city": "ESCONDIDO",
      "state": "CA",
      "beds": null,
      "baths": null,
      "sqft": null,
      "lotSize": null,
      "lat": 33.1441,
      "lng": -117.074423
    },
    {
      "propertyId": null,
      "attomId": 10341675,
      "offerDate": "2025-12-10",
      "offerPrice": 290000,
      "status": "recorder",
      "isRebuilt": false,
      "address": "505 W PICO AVE, CLOVIS CA",
      "city": "CLOVIS",
      "state": "CA",
      "beds": null,
      "baths": null,
      "sqft": null,
      "lotSize": null,
      "lat": 36.802958,
      "lng": -119.720634
    },
    {
      "propertyId": null,
      "attomId": 148058379,
      "offerDate": "2025-12-05",
      "offerPrice": 272000,
      "status": "recorder",
      "isRebuilt": false,
      "address": "3640 TACK ST, LAS VEGAS NV",
      "city": "LAS VEGAS",
      "state": "NV",
      "beds": null,
      "baths": null,
      "sqft": null,
      "lotSize": null,
      "lat": 36.123564,
      "lng": -115.038455
    },
    {
      "propertyId": null,
      "attomId": 42809419,
      "offerDate": "2025-12-05",
      "offerPrice": 310000,
      "status": "recorder",
      "isRebuilt": false,
      "address": "6709 RIO SANDS CT, LAS VEGAS NV",
      "city": "LAS VEGAS",
      "state": "NV",
      "beds": null,
      "baths": null,
      "sqft": null,
      "lotSize": null,
      "lat": 36.257401,
      "lng": -115.242948
    },
    {
      "propertyId": null,
      "attomId": 32417626,
      "offerDate": "2025-12-03",
      "offerPrice": 515000,
      "status": "recorder",
      "isRebuilt": false,
      "address": "5104 CARRIAGE WAY, ANTIOCH CA",
      "city": "ANTIOCH",
      "state": "CA",
      "beds": null,
      "baths": null,
      "sqft": null,
      "lotSize": null,
      "lat": 37.971105,
      "lng": -121.757495
    },
    {
      "propertyId": null,
      "attomId": 49476485,
      "offerDate": "2025-12-01",
      "offerPrice": 600000,
      "status": "recorder",
      "isRebuilt": false,
      "address": "726 ROBINHOOD LN, REDLANDS CA",
      "city": "REDLANDS",
      "state": "CA",
      "beds": null,
      "baths": null,
      "sqft": null,
      "lotSize": null,
      "lat": 34.03654,
      "lng": -117.19017
    },
    {
      "propertyId": null,
      "attomId": 145635297,
      "offerDate": "2025-11-26",
      "offerPrice": 660000,
      "status": "recorder",
      "isRebuilt": false,
      "address": "6102 CHARLWOOD ST, LAKEWOOD CA",
      "city": "LAKEWOOD",
      "state": "CA",
      "beds": null,
      "baths": null,
      "sqft": null,
      "lotSize": null,
      "lat": 33.858969,
      "lng": -118.11322
    },
    {
      "propertyId": null,
      "attomId": 145691451,
      "offerDate": "2025-11-26",
      "offerPrice": 575000,
      "status": "recorder",
      "isRebuilt": false,
      "address": "11711 HERCULES ST, NORWALK CA",
      "city": "NORWALK",
      "state": "CA",
      "beds": null,
      "baths": null,
      "sqft": null,
      "lotSize": null,
      "lat": 33.923184,
      "lng": -118.083147
    },
    {
      "propertyId": null,
      "attomId": 156603337,
      "offerDate": "2025-11-26",
      "offerPrice": 850000,
      "status": "recorder",
      "isRebuilt": false,
      "address": "921 CALLE PINATA, THOUSAND OAKS CA",
      "city": "THOUSAND OAKS",
      "state": "CA",
      "beds": null,
      "baths": null,
      "sqft": null,
      "lotSize": null,
      "lat": 34.232011,
      "lng": -118.862294
    },
    {
      "propertyId": null,
      "attomId": 19787912,
      "offerDate": "2025-11-25",
      "offerPrice": 600000,
      "status": "recorder",
      "isRebuilt": false,
      "address": "13513 POLK ST, SYLMAR CA",
      "city": "SYLMAR",
      "state": "CA",
      "beds": null,
      "baths": null,
      "sqft": null,
      "lotSize": null,
      "lat": 34.327008,
      "lng": -118.429925
    },
    {
      "propertyId": null,
      "attomId": 18185345,
      "offerDate": "2025-11-24",
      "offerPrice": 385000,
      "status": "recorder",
      "isRebuilt": false,
      "address": "2107 STAR THISTLE LN, PERRIS CA",
      "city": "PERRIS",
      "state": "CA",
      "beds": null,
      "baths": null,
      "sqft": null,
      "lotSize": null,
      "lat": 33.810439,
      "lng": -117.215456
    },
    {
      "propertyId": null,
      "attomId": 52253347,
      "offerDate": "2025-11-24",
      "offerPrice": 620000,
      "status": "recorder",
      "isRebuilt": false,
      "address": "724 S TAYLOR AVE, MONTEBELLO CA",
      "city": "MONTEBELLO",
      "state": "CA",
      "beds": null,
      "baths": null,
      "sqft": null,
      "lotSize": null,
      "lat": 34.001314,
      "lng": -118.118494
    },
    {
      "propertyId": null,
      "attomId": 16572145,
      "offerDate": "2025-11-21",
      "offerPrice": 605000,
      "status": "recorder",
      "isRebuilt": false,
      "address": "8923 ETIWANDA AVE, NORTHRIDGE CA",
      "city": "NORTHRIDGE",
      "state": "CA",
      "beds": null,
      "baths": null,
      "sqft": null,
      "lotSize": null,
      "lat": 34.232611,
      "lng": -118.532042
    },
    {
      "propertyId": null,
      "attomId": 22607394,
      "offerDate": "2025-11-21",
      "offerPrice": 272500,
      "status": "recorder",
      "isRebuilt": false,
      "address": "11724 JAMACHA RD, APPLE VALLEY CA",
      "city": "APPLE VALLEY",
      "state": "CA",
      "beds": null,
      "baths": null,
      "sqft": null,
      "lotSize": null,
      "lat": 34.464856,
      "lng": -117.195719
    },
    {
      "propertyId": null,
      "attomId": 52209966,
      "offerDate": "2025-11-20",
      "offerPrice": 400000,
      "status": "recorder",
      "isRebuilt": false,
      "address": "3720 LA HACIENDA DR, SAN BERNARDINO CA",
      "city": "SAN BERNARDINO",
      "state": "CA",
      "beds": null,
      "baths": null,
      "sqft": null,
      "lotSize": null,
      "lat": 34.158005,
      "lng": -117.255007
    },
    {
      "propertyId": null,
      "attomId": 146206841,
      "offerDate": "2025-11-20",
      "offerPrice": 440000,
      "status": "recorder",
      "isRebuilt": false,
      "address": "14426 S CAHITA AVE, COMPTON CA",
      "city": "COMPTON",
      "state": "CA",
      "beds": null,
      "baths": null,
      "sqft": null,
      "lotSize": null,
      "lat": 33.900622,
      "lng": -118.258657
    },
    {
      "propertyId": null,
      "attomId": 154656636,
      "offerDate": "2025-11-18",
      "offerPrice": 523000,
      "status": "recorder",
      "isRebuilt": false,
      "address": "2037 W 64TH ST, LOS ANGELES CA",
      "city": "LOS ANGELES",
      "state": "CA",
      "beds": null,
      "baths": null,
      "sqft": null,
      "lotSize": null,
      "lat": 33.981638,
      "lng": -118.314671
    },
    {
      "propertyId": null,
      "attomId": 3435292,
      "offerDate": "2025-11-17",
      "offerPrice": 600000,
      "status": "recorder",
      "isRebuilt": false,
      "address": "10524 58TH ST, JURUPA VALLEY CA",
      "city": "JURUPA VALLEY",
      "state": "CA",
      "beds": null,
      "baths": null,
      "sqft": null,
      "lotSize": null,
      "lat": 33.982333,
      "lng": -117.514442
    },
    {
      "propertyId": null,
      "attomId": 1382840,
      "offerDate": "2025-11-17",
      "offerPrice": 350000,
      "status": "recorder",
      "isRebuilt": false,
      "address": "201 RACQUET CLUB DR, COMPTON CA",
      "city": "COMPTON",
      "state": "CA",
      "beds": null,
      "baths": null,
      "sqft": null,
      "lotSize": null,
      "lat": 33.892619,
      "lng": -118.221515
    },
    {
      "propertyId": null,
      "attomId": 3793540,
      "offerDate": "2025-11-17",
      "offerPrice": 305000,
      "status": "recorder",
      "isRebuilt": false,
      "address": "14441 LINDEN ST, HESPERIA CA",
      "city": "HESPERIA",
      "state": "CA",
      "beds": null,
      "baths": null,
      "sqft": null,
      "lotSize": null,
      "lat": 34.438243,
      "lng": -117.34806
    },
    {
      "propertyId": null,
      "attomId": 37989533,
      "offerDate": "2025-11-17",
      "offerPrice": 300000,
      "status": "recorder",
      "isRebuilt": false,
      "address": "4559 CHINA ROSE CIR, RENO NV",
      "city": "RENO",
      "state": "NV",
      "beds": null,
      "baths": null,
      "sqft": null,
      "lotSize": null,
      "lat": 39.487419,
      "lng": -119.74523
    },
    {
      "propertyId": null,
      "attomId": 41418854,
      "offerDate": "2025-11-14",
      "offerPrice": 772000,
      "status": "recorder",
      "isRebuilt": false,
      "address": "40203 ANTIGUA ROSE TER, FREMONT CA",
      "city": "FREMONT",
      "state": "CA",
      "beds": null,
      "baths": null,
      "sqft": null,
      "lotSize": null,
      "lat": 37.533394,
      "lng": -121.974924
    },
    {
      "propertyId": null,
      "attomId": 1075356,
      "offerDate": "2025-11-12",
      "offerPrice": 542500,
      "status": "recorder",
      "isRebuilt": false,
      "address": "1106 S WASHINGTON AVE, COMPTON CA",
      "city": "COMPTON",
      "state": "CA",
      "beds": null,
      "baths": null,
      "sqft": null,
      "lotSize": null,
      "lat": 33.886879,
      "lng": -118.19342
    },
    {
      "propertyId": null,
      "attomId": 25888638,
      "offerDate": "2025-11-12",
      "offerPrice": 504000,
      "status": "recorder",
      "isRebuilt": false,
      "address": "1270 N ROSALIND AVE, RIALTO CA",
      "city": "RIALTO",
      "state": "CA",
      "beds": null,
      "baths": null,
      "sqft": null,
      "lotSize": null,
      "lat": 34.122799,
      "lng": -117.352617
    },
    {
      "propertyId": null,
      "attomId": 37930563,
      "offerDate": "2025-11-10",
      "offerPrice": 400000,
      "status": "recorder",
      "isRebuilt": false,
      "address": "5108 WILD MARIGOLD DR, LAS VEGAS NV",
      "city": "LAS VEGAS",
      "state": "NV",
      "beds": null,
      "baths": null,
      "sqft": null,
      "lotSize": null,
      "lat": 36.250999,
      "lng": -115.215233
    },
    {
      "propertyId": null,
      "attomId": 44058793,
      "offerDate": "2025-11-07",
      "offerPrice": 530000,
      "status": "recorder",
      "isRebuilt": false,
      "address": "951 WILLOWCREEK DR, CORONA CA",
      "city": "CORONA",
      "state": "CA",
      "beds": null,
      "baths": null,
      "sqft": null,
      "lotSize": null,
      "lat": 33.895985,
      "lng": -117.574807
    },
    {
      "propertyId": null,
      "attomId": 16449427,
      "offerDate": "2025-11-06",
      "offerPrice": 535000,
      "status": "recorder",
      "isRebuilt": false,
      "address": "1013 W 138TH ST, COMPTON CA",
      "city": "COMPTON",
      "state": "CA",
      "beds": null,
      "baths": null,
      "sqft": null,
      "lotSize": null,
      "lat": 33.906862,
      "lng": -118.245683
    },
    {
      "propertyId": null,
      "attomId": 148645466,
      "offerDate": "2025-11-06",
      "offerPrice": 390000,
      "status": "recorder",
      "isRebuilt": false,
      "address": "33456 BODIE ST, YUCAIPA CA",
      "city": "YUCAIPA",
      "state": "CA",
      "beds": null,
      "baths": null,
      "sqft": null,
      "lotSize": null,
      "lat": 34.023243,
      "lng": -117.074708
    },
    {
      "propertyId": null,
      "attomId": 54445328,
      "offerDate": "2025-11-05",
      "offerPrice": 540000,
      "status": "recorder",
      "isRebuilt": false,
      "address": "265 E NORTON ST, LONG BEACH CA",
      "city": "LONG BEACH",
      "state": "CA",
      "beds": null,
      "baths": null,
      "sqft": null,
      "lotSize": null,
      "lat": 33.858611,
      "lng": -118.190904
    },
    {
      "propertyId": null,
      "attomId": 54445329,
      "offerDate": "2025-11-05",
      "offerPrice": 540000,
      "status": "recorder",
      "isRebuilt": false,
      "address": "273 E NORTON ST, LONG BEACH CA",
      "city": "LONG BEACH",
      "state": "CA",
      "beds": null,
      "baths": null,
      "sqft": null,
      "lotSize": null,
      "lat": 33.858612,
      "lng": -118.190762
    },
    {
      "propertyId": null,
      "attomId": 43112723,
      "offerDate": "2025-11-05",
      "offerPrice": 220000,
      "status": "recorder",
      "isRebuilt": false,
      "address": "113 DAVIE DR, COLORADO SPRINGS CO",
      "city": "COLORADO SPRINGS",
      "state": "CO",
      "beds": null,
      "baths": null,
      "sqft": null,
      "lotSize": null,
      "lat": 38.757729,
      "lng": -104.745851
    },
    {
      "propertyId": null,
      "attomId": 25945407,
      "offerDate": "2025-11-05",
      "offerPrice": 565000,
      "status": "recorder",
      "isRebuilt": false,
      "address": "6404 INDIANA AVE, LONG BEACH CA",
      "city": "LONG BEACH",
      "state": "CA",
      "beds": null,
      "baths": null,
      "sqft": null,
      "lotSize": null,
      "lat": 33.871334,
      "lng": -118.153184
    },
    {
      "propertyId": null,
      "attomId": 146655031,
      "offerDate": "2025-11-04",
      "offerPrice": 602500,
      "status": "recorder",
      "isRebuilt": false,
      "address": "1120 SUNSET DR, ARROYO GRANDE CA",
      "city": "ARROYO GRANDE",
      "state": "CA",
      "beds": null,
      "baths": null,
      "sqft": null,
      "lotSize": null,
      "lat": 35.118828,
      "lng": -120.597364
    },
    {
      "propertyId": null,
      "attomId": 156208755,
      "offerDate": "2025-11-03",
      "offerPrice": 1195000,
      "status": "recorder",
      "isRebuilt": false,
      "address": "2245 CHARLESTON AVE, SAN BRUNO CA",
      "city": "SAN BRUNO",
      "state": "CA",
      "beds": null,
      "baths": null,
      "sqft": null,
      "lotSize": null,
      "lat": 37.622544,
      "lng": -122.432532
    },
    {
      "propertyId": null,
      "attomId": 25979531,
      "offerDate": "2025-10-31",
      "offerPrice": 575000,
      "status": "recorder",
      "isRebuilt": false,
      "address": "1306 S CLIVEDEN AVE, COMPTON CA",
      "city": "COMPTON",
      "state": "CA",
      "beds": null,
      "baths": null,
      "sqft": null,
      "lotSize": null,
      "lat": 33.883308,
      "lng": -118.242969
    },
    {
      "propertyId": null,
      "attomId": 140057212,
      "offerDate": "2025-10-30",
      "offerPrice": 340000,
      "status": "recorder",
      "isRebuilt": false,
      "address": "3915 E RENO AVE, LAS VEGAS NV",
      "city": "LAS VEGAS",
      "state": "NV",
      "beds": null,
      "baths": null,
      "sqft": null,
      "lotSize": null,
      "lat": 36.096449,
      "lng": -115.089009
    },
    {
      "propertyId": null,
      "attomId": 184125099,
      "offerDate": "2025-10-30",
      "offerPrice": 600000,
      "status": "recorder",
      "isRebuilt": false,
      "address": "5180 N DAPPLE GRAY RD, LAS VEGAS NV",
      "city": "LAS VEGAS",
      "state": "NV",
      "beds": null,
      "baths": null,
      "sqft": null,
      "lotSize": null,
      "lat": 36.255374,
      "lng": -115.294749
    },
    {
      "propertyId": null,
      "attomId": 154569661,
      "offerDate": "2025-10-29",
      "offerPrice": 430000,
      "status": "recorder",
      "isRebuilt": false,
      "address": "12030 ARKANSAS ST, ARTESIA CA",
      "city": "ARTESIA",
      "state": "CA",
      "beds": null,
      "baths": null,
      "sqft": null,
      "lotSize": null,
      "lat": 33.879415,
      "lng": -118.075959
    },
    {
      "propertyId": null,
      "attomId": 4281618,
      "offerDate": "2025-10-23",
      "offerPrice": 600000,
      "status": "recorder",
      "isRebuilt": false,
      "address": "1118 FALLBROOK DR, CORONA CA",
      "city": "CORONA",
      "state": "CA",
      "beds": null,
      "baths": null,
      "sqft": null,
      "lotSize": null,
      "lat": 33.895368,
      "lng": -117.578042
    },
    {
      "propertyId": null,
      "attomId": 154828672,
      "offerDate": "2025-10-23",
      "offerPrice": 565000,
      "status": "recorder",
      "isRebuilt": false,
      "address": "501 S PEARL AVE, COMPTON CA",
      "city": "COMPTON",
      "state": "CA",
      "beds": null,
      "baths": null,
      "sqft": null,
      "lotSize": null,
      "lat": 33.892198,
      "lng": -118.213747
    },
    {
      "propertyId": null,
      "attomId": 157092521,
      "offerDate": "2025-10-17",
      "offerPrice": 660000,
      "status": "recorder",
      "isRebuilt": false,
      "address": "7150 CLYDESDALE ST, HIGHLAND CA",
      "city": "HIGHLAND",
      "state": "CA",
      "beds": null,
      "baths": null,
      "sqft": null,
      "lotSize": null,
      "lat": 34.123777,
      "lng": -117.182057
    },
    {
      "propertyId": null,
      "attomId": 24782223,
      "offerDate": "2025-10-16",
      "offerPrice": 520000,
      "status": "recorder",
      "isRebuilt": false,
      "address": "6843 BECKETT ST, TUJUNGA CA",
      "city": "TUJUNGA",
      "state": "CA",
      "beds": null,
      "baths": null,
      "sqft": null,
      "lotSize": null,
      "lat": 34.253078,
      "lng": -118.280992
    },
    {
      "propertyId": null,
      "attomId": 51135073,
      "offerDate": "2025-10-15",
      "offerPrice": 370000,
      "status": "recorder",
      "isRebuilt": false,
      "address": "18347 MADRONE ST, HESPERIA CA",
      "city": "HESPERIA",
      "state": "CA",
      "beds": null,
      "baths": null,
      "sqft": null,
      "lotSize": null,
      "lat": 34.412379,
      "lng": -117.262336
    },
    {
      "propertyId": null,
      "attomId": 1897477,
      "offerDate": "2025-10-15",
      "offerPrice": 500000,
      "status": "recorder",
      "isRebuilt": false,
      "address": "14016 S ALBERTSON AVE, COMPTON CA",
      "city": "COMPTON",
      "state": "CA",
      "beds": null,
      "baths": null,
      "sqft": null,
      "lotSize": null,
      "lat": 33.90462,
      "lng": -118.25
    },
    {
      "propertyId": null,
      "attomId": 157699001,
      "offerDate": "2025-10-15",
      "offerPrice": 1800000,
      "status": "recorder",
      "isRebuilt": false,
      "address": "47768 WABANA ST, FREMONT CA",
      "city": "FREMONT",
      "state": "CA",
      "beds": null,
      "baths": null,
      "sqft": null,
      "lotSize": null,
      "lat": 37.480445,
      "lng": -121.914531
    },
    {
      "propertyId": null,
      "attomId": 29520342,
      "offerDate": "2025-10-14",
      "offerPrice": 370000,
      "status": "recorder",
      "isRebuilt": false,
      "address": "3516 AMISH AVE, NORTH LAS VEGAS NV",
      "city": "NORTH LAS VEGAS",
      "state": "NV",
      "beds": null,
      "baths": null,
      "sqft": null,
      "lotSize": null,
      "lat": 36.273201,
      "lng": -115.187234
    },
    {
      "propertyId": null,
      "attomId": 4401874,
      "offerDate": "2025-10-14",
      "offerPrice": 520000,
      "status": "recorder",
      "isRebuilt": false,
      "address": "1100 E TICHENOR ST, COMPTON CA",
      "city": "COMPTON",
      "state": "CA",
      "beds": null,
      "baths": null,
      "sqft": null,
      "lotSize": null,
      "lat": 33.885463,
      "lng": -118.21019
    },
    {
      "propertyId": null,
      "attomId": 17877878,
      "offerDate": "2025-10-10",
      "offerPrice": 690000,
      "status": "recorder",
      "isRebuilt": false,
      "address": "1005 CLAREMONT DR, CONCORD CA",
      "city": "CONCORD",
      "state": "CA",
      "beds": null,
      "baths": null,
      "sqft": null,
      "lotSize": null,
      "lat": 37.947599,
      "lng": -122.036297
    },
    {
      "propertyId": null,
      "attomId": 17848026,
      "offerDate": "2025-10-10",
      "offerPrice": 414500,
      "status": "recorder",
      "isRebuilt": false,
      "address": "28323 STILLWATER DR, MENIFEE CA",
      "city": "MENIFEE",
      "state": "CA",
      "beds": null,
      "baths": null,
      "sqft": null,
      "lotSize": null,
      "lat": 33.678869,
      "lng": -117.16539
    },
    {
      "propertyId": null,
      "attomId": 25088241,
      "offerDate": "2025-10-10",
      "offerPrice": 528000,
      "status": "recorder",
      "isRebuilt": false,
      "address": "16124 S HOOVER ST, GARDENA CA",
      "city": "GARDENA",
      "state": "CA",
      "beds": null,
      "baths": null,
      "sqft": null,
      "lotSize": null,
      "lat": 33.884616,
      "lng": -118.286961
    },
    {
      "propertyId": null,
      "attomId": 156392584,
      "offerDate": "2025-10-10",
      "offerPrice": 421000,
      "status": "recorder",
      "isRebuilt": false,
      "address": "730 E LAS FLORES WAY, SANTA MARIA CA",
      "city": "SANTA MARIA",
      "state": "CA",
      "beds": null,
      "baths": null,
      "sqft": null,
      "lotSize": null,
      "lat": 34.940731,
      "lng": -120.425273
    },
    {
      "propertyId": null,
      "attomId": 156010477,
      "offerDate": "2025-10-09",
      "offerPrice": 1350000,
      "status": "recorder",
      "isRebuilt": false,
      "address": "728 LE MANS WAY, HALF MOON BAY CA",
      "city": "HALF MOON BAY",
      "state": "CA",
      "beds": null,
      "baths": null,
      "sqft": null,
      "lotSize": null,
      "lat": 37.485763,
      "lng": -122.440762
    },
    {
      "propertyId": null,
      "attomId": 154955900,
      "offerDate": "2025-10-09",
      "offerPrice": 975000,
      "status": "recorder",
      "isRebuilt": false,
      "address": "1308 DESERT WILLOW LN, DIAMOND BAR CA",
      "city": "DIAMOND BAR",
      "state": "CA",
      "beds": null,
      "baths": null,
      "sqft": null,
      "lotSize": null,
      "lat": 33.998227,
      "lng": -117.819036
    },
    {
      "propertyId": null,
      "attomId": 16756988,
      "offerDate": "2025-10-08",
      "offerPrice": 480000,
      "status": "recorder",
      "isRebuilt": false,
      "address": "531 W 107TH ST, LOS ANGELES CA",
      "city": "LOS ANGELES",
      "state": "CA",
      "beds": null,
      "baths": null,
      "sqft": null,
      "lotSize": null,
      "lat": 33.939353,
      "lng": -118.283851
    },
    {
      "propertyId": null,
      "attomId": 16757497,
      "offerDate": "2025-10-08",
      "offerPrice": 545500,
      "status": "recorder",
      "isRebuilt": false,
      "address": "1601 W 163RD ST, COMPTON CA",
      "city": "COMPTON",
      "state": "CA",
      "beds": null,
      "baths": null,
      "sqft": null,
      "lotSize": null,
      "lat": 33.884665,
      "lng": -118.245982
    },
    {
      "propertyId": null,
      "attomId": 154542288,
      "offerDate": "2025-10-07",
      "offerPrice": 1442000,
      "status": "recorder",
      "isRebuilt": false,
      "address": "2801 CEILHUNT AVE, LOS ANGELES CA",
      "city": "LOS ANGELES",
      "state": "CA",
      "beds": null,
      "baths": null,
      "sqft": null,
      "lotSize": null,
      "lat": 34.025578,
      "lng": -118.436957
    },
    {
      "propertyId": null,
      "attomId": 49125848,
      "offerDate": "2025-10-07",
      "offerPrice": 720000,
      "status": "recorder",
      "isRebuilt": false,
      "address": "20414 HAYNES ST, WINNETKA CA",
      "city": "WINNETKA",
      "state": "CA",
      "beds": null,
      "baths": null,
      "sqft": null,
      "lotSize": null,
      "lat": 34.192505,
      "lng": -118.578131
    },
    {
      "propertyId": null,
      "attomId": 43813345,
      "offerDate": "2025-10-07",
      "offerPrice": 620000,
      "status": "recorder",
      "isRebuilt": false,
      "address": "3210 FIELDCREST DR, SACRAMENTO CA",
      "city": "SACRAMENTO",
      "state": "CA",
      "beds": null,
      "baths": null,
      "sqft": null,
      "lotSize": null,
      "lat": 38.61629,
      "lng": -121.389284
    },
    {
      "propertyId": null,
      "attomId": 15222467,
      "offerDate": "2025-10-07",
      "offerPrice": 616100,
      "status": "recorder",
      "isRebuilt": false,
      "address": "8113 SUNSET COVE DR, LAS VEGAS NV",
      "city": "LAS VEGAS",
      "state": "NV",
      "beds": null,
      "baths": null,
      "sqft": null,
      "lotSize": null,
      "lat": 36.212612,
      "lng": -115.268629
    },
    {
      "propertyId": null,
      "attomId": 22631478,
      "offerDate": "2025-10-06",
      "offerPrice": 575000,
      "status": "recorder",
      "isRebuilt": false,
      "address": "415 EDGEHILL LN, OCEANSIDE CA",
      "city": "OCEANSIDE",
      "state": "CA",
      "beds": null,
      "baths": null,
      "sqft": null,
      "lotSize": null,
      "lat": 33.203242,
      "lng": -117.34038
    },
    {
      "propertyId": null,
      "attomId": 15422948,
      "offerDate": "2025-10-06",
      "offerPrice": 225000,
      "status": "recorder",
      "isRebuilt": false,
      "address": "22090 CHEROKEE AVE, APPLE VALLEY CA",
      "city": "APPLE VALLEY",
      "state": "CA",
      "beds": null,
      "baths": null,
      "sqft": null,
      "lotSize": null,
      "lat": 34.505612,
      "lng": -117.181681
    },
    {
      "propertyId": null,
      "attomId": 155707489,
      "offerDate": "2025-10-03",
      "offerPrice": 448000,
      "status": "recorder",
      "isRebuilt": false,
      "address": "7204 LYNNBROOK CT, CARMICHAEL CA",
      "city": "CARMICHAEL",
      "state": "CA",
      "beds": null,
      "baths": null,
      "sqft": null,
      "lotSize": null,
      "lat": 38.633409,
      "lng": -121.296353
    },
    {
      "propertyId": null,
      "attomId": 3793489,
      "offerDate": "2025-09-30",
      "offerPrice": 541000,
      "status": "recorder",
      "isRebuilt": false,
      "address": "3722 STRAWBERRY CREEK WAY, ONTARIO CA",
      "city": "ONTARIO",
      "state": "CA",
      "beds": null,
      "baths": null,
      "sqft": null,
      "lotSize": null,
      "lat": 34.01982,
      "lng": -117.568823
    },
    {
      "propertyId": null,
      "attomId": 20136999,
      "offerDate": "2025-09-24",
      "offerPrice": 555000,
      "status": "recorder",
      "isRebuilt": false,
      "address": "1428 W 89TH ST, LOS ANGELES CA",
      "city": "LOS ANGELES",
      "state": "CA",
      "beds": null,
      "baths": null,
      "sqft": null,
      "lotSize": null,
      "lat": 33.956425,
      "lng": -118.301381
    },
    {
      "propertyId": null,
      "attomId": 154800235,
      "offerDate": "2025-09-23",
      "offerPrice": 1010000,
      "status": "recorder",
      "isRebuilt": false,
      "address": "1010 PEPPERHILL RD, PASADENA CA",
      "city": "PASADENA",
      "state": "CA",
      "beds": null,
      "baths": null,
      "sqft": null,
      "lotSize": null,
      "lat": 34.163706,
      "lng": -118.073117
    },
    {
      "propertyId": null,
      "attomId": 4984817,
      "offerDate": "2025-09-22",
      "offerPrice": 585000,
      "status": "recorder",
      "isRebuilt": false,
      "address": "460 LAS BRISAS DR, ESCONDIDO CA",
      "city": "ESCONDIDO",
      "state": "CA",
      "beds": null,
      "baths": null,
      "sqft": null,
      "lotSize": null,
      "lat": 33.148765,
      "lng": -117.036037
    },
    {
      "propertyId": null,
      "attomId": 143143218,
      "offerDate": "2025-09-19",
      "offerPrice": 705000,
      "status": "recorder",
      "isRebuilt": false,
      "address": "10579 LEV AVE, MISSION HILLS CA",
      "city": "MISSION HILLS",
      "state": "CA",
      "beds": null,
      "baths": null,
      "sqft": null,
      "lotSize": null,
      "lat": 34.262791,
      "lng": -118.44695
    },
    {
      "propertyId": null,
      "attomId": 16533021,
      "offerDate": "2025-09-18",
      "offerPrice": 550000,
      "status": "recorder",
      "isRebuilt": false,
      "address": "1644 E 122ND ST, LOS ANGELES CA",
      "city": "LOS ANGELES",
      "state": "CA",
      "beds": null,
      "baths": null,
      "sqft": null,
      "lotSize": null,
      "lat": 33.921472,
      "lng": -118.244602
    },
    {
      "propertyId": null,
      "attomId": 20311647,
      "offerDate": "2025-09-17",
      "offerPrice": 280000,
      "status": "recorder",
      "isRebuilt": false,
      "address": "8617 PITCH FORK AVE, LAS VEGAS NV",
      "city": "LAS VEGAS",
      "state": "NV",
      "beds": null,
      "baths": null,
      "sqft": null,
      "lotSize": null,
      "lat": 36.306782,
      "lng": -115.283637
    },
    {
      "propertyId": null,
      "attomId": 158140383,
      "offerDate": "2025-09-16",
      "offerPrice": 1000000,
      "status": "recorder",
      "isRebuilt": false,
      "address": "35875 ARGONNE ST, NEWARK CA",
      "city": "NEWARK",
      "state": "CA",
      "beds": null,
      "baths": null,
      "sqft": null,
      "lotSize": null,
      "lat": 37.542526,
      "lng": -122.04615
    },
    {
      "propertyId": null,
      "attomId": 16246037,
      "offerDate": "2025-09-15",
      "offerPrice": 232000,
      "status": "recorder",
      "isRebuilt": false,
      "address": "429 S JUANITA ST, HEMET CA",
      "city": "HEMET",
      "state": "CA",
      "beds": null,
      "baths": null,
      "sqft": null,
      "lotSize": null,
      "lat": 33.741304,
      "lng": -116.968685
    },
    {
      "propertyId": null,
      "attomId": 154455738,
      "offerDate": "2025-09-15",
      "offerPrice": 760000,
      "status": "recorder",
      "isRebuilt": false,
      "address": "20630 CHASE ST, WINNETKA CA",
      "city": "WINNETKA",
      "state": "CA",
      "beds": null,
      "baths": null,
      "sqft": null,
      "lotSize": null,
      "lat": 34.224348,
      "lng": -118.5833
    },
    {
      "propertyId": null,
      "attomId": 24865205,
      "offerDate": "2025-09-11",
      "offerPrice": 600000,
      "status": "recorder",
      "isRebuilt": false,
      "address": "1410 W STOCKWELL ST, COMPTON CA",
      "city": "COMPTON",
      "state": "CA",
      "beds": null,
      "baths": null,
      "sqft": null,
      "lotSize": null,
      "lat": 33.909212,
      "lng": -118.249302
    },
    {
      "propertyId": null,
      "attomId": 45760707,
      "offerDate": "2025-09-05",
      "offerPrice": 295000,
      "status": "recorder",
      "isRebuilt": false,
      "address": "997 EPHEDRA LN, SPARKS NV",
      "city": "SPARKS",
      "state": "NV",
      "beds": null,
      "baths": null,
      "sqft": null,
      "lotSize": null,
      "lat": 39.587581,
      "lng": -119.726803
    },
    {
      "propertyId": null,
      "attomId": 184092852,
      "offerDate": "2025-09-02",
      "offerPrice": 500000,
      "status": "recorder",
      "isRebuilt": false,
      "address": "2181 MEL DR, GARDNERVILLE NV",
      "city": "GARDNERVILLE",
      "state": "NV",
      "beds": null,
      "baths": null,
      "sqft": null,
      "lotSize": null,
      "lat": 38.933222,
      "lng": -119.663205
    },
    {
      "propertyId": null,
      "attomId": 19092483,
      "offerDate": "2025-08-29",
      "offerPrice": 955000,
      "status": "recorder",
      "isRebuilt": false,
      "address": "437 COLEMAN CT, PLEASANT HILL CA",
      "city": "PLEASANT HILL",
      "state": "CA",
      "beds": null,
      "baths": null,
      "sqft": null,
      "lotSize": null,
      "lat": 37.946445,
      "lng": -122.074606
    },
    {
      "propertyId": null,
      "attomId": 23702614,
      "offerDate": "2025-08-22",
      "offerPrice": 250000,
      "status": "recorder",
      "isRebuilt": false,
      "address": "8651 BEECHCRAFT DR, RENO NV",
      "city": "RENO",
      "state": "NV",
      "beds": null,
      "baths": null,
      "sqft": null,
      "lotSize": null,
      "lat": 39.631053,
      "lng": -119.905061
    },
    {
      "propertyId": null,
      "attomId": 26047961,
      "offerDate": "2025-08-22",
      "offerPrice": 278000,
      "status": "recorder",
      "isRebuilt": false,
      "address": "8602 STRUTTER WAY, RENO NV",
      "city": "RENO",
      "state": "NV",
      "beds": null,
      "baths": null,
      "sqft": null,
      "lotSize": null,
      "lat": 39.631084,
      "lng": -119.899991
    },
    {
      "propertyId": null,
      "attomId": 19564933,
      "offerDate": "2025-08-21",
      "offerPrice": 200000,
      "status": "recorder",
      "isRebuilt": false,
      "address": "2240 OSCEOLA CT, RENO NV",
      "city": "RENO",
      "state": "NV",
      "beds": null,
      "baths": null,
      "sqft": null,
      "lotSize": null,
      "lat": 39.605272,
      "lng": -119.868454
    },
    {
      "propertyId": null,
      "attomId": 156521691,
      "offerDate": "2025-08-21",
      "offerPrice": 230000,
      "status": "recorder",
      "isRebuilt": false,
      "address": "524 E CYPRESS AVE, VISALIA CA",
      "city": "VISALIA",
      "state": "CA",
      "beds": null,
      "baths": null,
      "sqft": null,
      "lotSize": null,
      "lat": 36.324006,
      "lng": -119.287106
    },
    {
      "propertyId": null,
      "attomId": 17378254,
      "offerDate": "2025-08-20",
      "offerPrice": 305000,
      "status": "recorder",
      "isRebuilt": false,
      "address": "13087 CYPRESS AVE, VICTORVILLE CA",
      "city": "VICTORVILLE",
      "state": "CA",
      "beds": null,
      "baths": null,
      "sqft": null,
      "lotSize": null,
      "lat": 34.488721,
      "lng": -117.31655
    },
    {
      "propertyId": null,
      "attomId": 16175472,
      "offerDate": "2025-08-18",
      "offerPrice": 272500,
      "status": "recorder",
      "isRebuilt": false,
      "address": "11080 MOHAWK RD, APPLE VALLEY CA",
      "city": "APPLE VALLEY",
      "state": "CA",
      "beds": null,
      "baths": null,
      "sqft": null,
      "lotSize": null,
      "lat": 34.45304,
      "lng": -117.200174
    },
    {
      "propertyId": null,
      "attomId": 184136102,
      "offerDate": "2025-08-15",
      "offerPrice": 285000,
      "status": "recorder",
      "isRebuilt": false,
      "address": "4521 NIGHT DANCE CT, LAS VEGAS NV",
      "city": "LAS VEGAS",
      "state": "NV",
      "beds": null,
      "baths": null,
      "sqft": null,
      "lotSize": null,
      "lat": 36.2425,
      "lng": -115.226867
    },
    {
      "propertyId": null,
      "attomId": 26310132,
      "offerDate": "2025-08-15",
      "offerPrice": 370000,
      "status": "recorder",
      "isRebuilt": false,
      "address": "44810 ROCK ISLAND DR, LANCASTER CA",
      "city": "LANCASTER",
      "state": "CA",
      "beds": null,
      "baths": null,
      "sqft": null,
      "lotSize": null,
      "lat": 34.697127,
      "lng": -118.102849
    },
    {
      "propertyId": null,
      "attomId": 27410207,
      "offerDate": "2025-08-08",
      "offerPrice": 855000,
      "status": "recorder",
      "isRebuilt": false,
      "address": "1844 N 1ST AVE, UPLAND CA",
      "city": "UPLAND",
      "state": "CA",
      "beds": null,
      "baths": null,
      "sqft": null,
      "lotSize": null,
      "lat": 34.130477,
      "lng": -117.649445
    },
    {
      "propertyId": null,
      "attomId": 184054211,
      "offerDate": "2025-08-04",
      "offerPrice": 480000,
      "status": "recorder",
      "isRebuilt": false,
      "address": "4383 SETTING SUN CT, SPARKS NV",
      "city": "SPARKS",
      "state": "NV",
      "beds": null,
      "baths": null,
      "sqft": null,
      "lotSize": null,
      "lat": 39.573097,
      "lng": -119.70137
    },
    {
      "propertyId": null,
      "attomId": 7462533,
      "offerDate": "2025-08-01",
      "offerPrice": 348500,
      "status": "recorder",
      "isRebuilt": false,
      "address": "13383 BUENA VISTA DR, HESPERIA CA",
      "city": "HESPERIA",
      "state": "CA",
      "beds": null,
      "baths": null,
      "sqft": null,
      "lotSize": null,
      "lat": 34.405525,
      "lng": -117.370607
    },
    {
      "propertyId": null,
      "attomId": 157785120,
      "offerDate": "2025-08-01",
      "offerPrice": 1150000,
      "status": "recorder",
      "isRebuilt": false,
      "address": "25232 EARHART RD, LAGUNA HILLS CA",
      "city": "LAGUNA HILLS",
      "state": "CA",
      "beds": null,
      "baths": null,
      "sqft": null,
      "lotSize": null,
      "lat": 33.595438,
      "lng": -117.689323
    },
    {
      "propertyId": null,
      "attomId": 23613503,
      "offerDate": "2025-07-31",
      "offerPrice": 290000,
      "status": "recorder",
      "isRebuilt": false,
      "address": "14845 TONIKAN LN, APPLE VALLEY CA",
      "city": "APPLE VALLEY",
      "state": "CA",
      "beds": null,
      "baths": null,
      "sqft": null,
      "lotSize": null,
      "lat": 34.521101,
      "lng": -117.177147
    },
    {
      "propertyId": null,
      "attomId": 20200901,
      "offerDate": "2025-07-31",
      "offerPrice": 612000,
      "status": "recorder",
      "isRebuilt": false,
      "address": "6324 ORIOLE ST, VENTURA CA",
      "city": "VENTURA",
      "state": "CA",
      "beds": null,
      "baths": null,
      "sqft": null,
      "lotSize": null,
      "lat": 34.262207,
      "lng": -119.206974
    },
    {
      "propertyId": null,
      "attomId": 24881827,
      "offerDate": "2025-07-30",
      "offerPrice": 615000,
      "status": "recorder",
      "isRebuilt": false,
      "address": "12031 PIERCE ST, SYLMAR CA",
      "city": "SYLMAR",
      "state": "CA",
      "beds": null,
      "baths": null,
      "sqft": null,
      "lotSize": null,
      "lat": 34.2807,
      "lng": -118.395287
    },
    {
      "propertyId": null,
      "attomId": 147713935,
      "offerDate": "2025-07-28",
      "offerPrice": 510000,
      "status": "recorder",
      "isRebuilt": false,
      "address": "8755 COLBATH AVE, PANORAMA CITY CA",
      "city": "PANORAMA CITY",
      "state": "CA",
      "beds": null,
      "baths": null,
      "sqft": null,
      "lotSize": null,
      "lat": 34.229489,
      "lng": -118.440515
    },
    {
      "propertyId": null,
      "attomId": 15749262,
      "offerDate": "2025-07-25",
      "offerPrice": 345000,
      "status": "recorder",
      "isRebuilt": false,
      "address": "6735 MERITO AVE, SAN BERNARDINO CA",
      "city": "SAN BERNARDINO",
      "state": "CA",
      "beds": null,
      "baths": null,
      "sqft": null,
      "lotSize": null,
      "lat": 34.131672,
      "lng": -117.245585
    },
    {
      "propertyId": null,
      "attomId": 141316368,
      "offerDate": "2025-07-25",
      "offerPrice": 670000,
      "status": "recorder",
      "isRebuilt": false,
      "address": "15712 STARE ST, NORTH HILLS CA",
      "city": "NORTH HILLS",
      "state": "CA",
      "beds": null,
      "baths": null,
      "sqft": null,
      "lotSize": null,
      "lat": 34.252558,
      "lng": -118.474489
    },
    {
      "propertyId": null,
      "attomId": 149858441,
      "offerDate": "2025-07-25",
      "offerPrice": 530000,
      "status": "recorder",
      "isRebuilt": false,
      "address": "22134 ORANGE AVE, CASTRO VALLEY CA",
      "city": "CASTRO VALLEY",
      "state": "CA",
      "beds": null,
      "baths": null,
      "sqft": null,
      "lotSize": null,
      "lat": 37.683444,
      "lng": -122.079236
    },
    {
      "propertyId": null,
      "attomId": 156716868,
      "offerDate": "2025-07-23",
      "offerPrice": 886000,
      "status": "recorder",
      "isRebuilt": false,
      "address": "958 BERKSHIRE CT, ESCONDIDO CA",
      "city": "ESCONDIDO",
      "state": "CA",
      "beds": null,
      "baths": null,
      "sqft": null,
      "lotSize": null,
      "lat": 33.099227,
      "lng": -117.084769
    },
    {
      "propertyId": null,
      "attomId": 42561890,
      "offerDate": "2025-07-22",
      "offerPrice": 500000,
      "status": "recorder",
      "isRebuilt": false,
      "address": "24345 MOONRAKER LN, MORENO VALLEY CA",
      "city": "MORENO VALLEY",
      "state": "CA",
      "beds": null,
      "baths": null,
      "sqft": null,
      "lotSize": null,
      "lat": 33.952255,
      "lng": -117.237677
    },
    {
      "propertyId": null,
      "attomId": 155851738,
      "offerDate": "2025-07-21",
      "offerPrice": 500000,
      "status": "recorder",
      "isRebuilt": false,
      "address": "11386 NEW ENGLAND PL, GOLD RIVER CA",
      "city": "GOLD RIVER",
      "state": "CA",
      "beds": null,
      "baths": null,
      "sqft": null,
      "lotSize": null,
      "lat": 38.620347,
      "lng": -121.256627
    },
    {
      "propertyId": null,
      "attomId": 150149225,
      "offerDate": "2025-07-17",
      "offerPrice": 700000,
      "status": "recorder",
      "isRebuilt": false,
      "address": "13431 LOCHRIN LN, SYLMAR CA",
      "city": "SYLMAR",
      "state": "CA",
      "beds": null,
      "baths": null,
      "sqft": null,
      "lotSize": null,
      "lat": 34.328576,
      "lng": -118.424745
    },
    {
      "propertyId": null,
      "attomId": 499903,
      "offerDate": "2025-07-17",
      "offerPrice": 406000,
      "status": "recorder",
      "isRebuilt": false,
      "address": "16389 VIHO CT, APPLE VALLEY CA",
      "city": "APPLE VALLEY",
      "state": "CA",
      "beds": null,
      "baths": null,
      "sqft": null,
      "lotSize": null,
      "lat": 34.549241,
      "lng": -117.269676
    },
    {
      "propertyId": null,
      "attomId": 646046,
      "offerDate": "2025-07-17",
      "offerPrice": 130000,
      "status": "recorder",
      "isRebuilt": false,
      "address": "650 CHATEAU WAY, BARSTOW CA",
      "city": "BARSTOW",
      "state": "CA",
      "beds": null,
      "baths": null,
      "sqft": null,
      "lotSize": null,
      "lat": 34.881424,
      "lng": -116.9886
    },
    {
      "propertyId": null,
      "attomId": 17862122,
      "offerDate": "2025-07-16",
      "offerPrice": 550000,
      "status": "recorder",
      "isRebuilt": false,
      "address": "895 HUSTON DR, RIVERSIDE CA",
      "city": "RIVERSIDE",
      "state": "CA",
      "beds": null,
      "baths": null,
      "sqft": null,
      "lotSize": null,
      "lat": 33.990354,
      "lng": -117.330673
    },
    {
      "propertyId": null,
      "attomId": 53232973,
      "offerDate": "2025-07-16",
      "offerPrice": 715000,
      "status": "recorder",
      "isRebuilt": false,
      "address": "773 WOODLAND DR, LOS OSOS CA",
      "city": "LOS OSOS",
      "state": "CA",
      "beds": null,
      "baths": null,
      "sqft": null,
      "lotSize": null,
      "lat": 35.310969,
      "lng": -120.837248
    },
    {
      "propertyId": null,
      "attomId": 149833282,
      "offerDate": "2025-07-15",
      "offerPrice": 1165000,
      "status": "recorder",
      "isRebuilt": false,
      "address": "3106 LILLY AVE, LONG BEACH CA",
      "city": "LONG BEACH",
      "state": "CA",
      "beds": null,
      "baths": null,
      "sqft": null,
      "lotSize": null,
      "lat": 33.813113,
      "lng": -118.074088
    },
    {
      "propertyId": null,
      "attomId": 26537280,
      "offerDate": "2025-07-14",
      "offerPrice": 250000,
      "status": "recorder",
      "isRebuilt": false,
      "address": "1005 LEHMBERG BLVD, COLORADO SPRINGS CO",
      "city": "COLORADO SPRINGS",
      "state": "CO",
      "beds": null,
      "baths": null,
      "sqft": null,
      "lotSize": null,
      "lat": 38.847036,
      "lng": -104.731502
    },
    {
      "propertyId": null,
      "attomId": 157262638,
      "offerDate": "2025-07-14",
      "offerPrice": 1350000,
      "status": "recorder",
      "isRebuilt": false,
      "address": "2175 LARIAT LN, WALNUT CREEK CA",
      "city": "WALNUT CREEK",
      "state": "CA",
      "beds": null,
      "baths": null,
      "sqft": null,
      "lotSize": null,
      "lat": 37.870539,
      "lng": -122.034549
    },
    {
      "propertyId": null,
      "attomId": 45851792,
      "offerDate": "2025-07-03",
      "offerPrice": 415000,
      "status": "recorder",
      "isRebuilt": false,
      "address": "40143 CORTE LORCA, MURRIETA CA",
      "city": "MURRIETA",
      "state": "CA",
      "beds": null,
      "baths": null,
      "sqft": null,
      "lotSize": null,
      "lat": 33.580643,
      "lng": -117.199895
    },
    {
      "propertyId": null,
      "attomId": 157086094,
      "offerDate": "2025-07-01",
      "offerPrice": 1300000,
      "status": "recorder",
      "isRebuilt": false,
      "address": "265 DOVER DR, WALNUT CREEK CA",
      "city": "WALNUT CREEK",
      "state": "CA",
      "beds": null,
      "baths": null,
      "sqft": null,
      "lotSize": null,
      "lat": 37.920171,
      "lng": -122.026277
    },
    {
      "propertyId": null,
      "attomId": 158077378,
      "offerDate": "2025-06-30",
      "offerPrice": 425000,
      "status": "recorder",
      "isRebuilt": false,
      "address": "8005 LIVORNA WAY, FAIR OAKS CA",
      "city": "FAIR OAKS",
      "state": "CA",
      "beds": null,
      "baths": null,
      "sqft": null,
      "lotSize": null,
      "lat": 38.650927,
      "lng": -121.268623
    },
    {
      "propertyId": null,
      "attomId": 30658689,
      "offerDate": "2025-06-30",
      "offerPrice": 470000,
      "status": "recorder",
      "isRebuilt": false,
      "address": "29078 LIGHT SAILS CT, MENIFEE CA",
      "city": "MENIFEE",
      "state": "CA",
      "beds": null,
      "baths": null,
      "sqft": null,
      "lotSize": null,
      "lat": 33.714941,
      "lng": -117.152968
    },
    {
      "propertyId": null,
      "attomId": 140454388,
      "offerDate": "2025-06-20",
      "offerPrice": 410000,
      "status": "recorder",
      "isRebuilt": false,
      "address": "12409 POCONO RD, APPLE VALLEY CA",
      "city": "APPLE VALLEY",
      "state": "CA",
      "beds": null,
      "baths": null,
      "sqft": null,
      "lotSize": null,
      "lat": 34.47704,
      "lng": -117.21418
    },
    {
      "propertyId": null,
      "attomId": 1215844,
      "offerDate": "2025-06-18",
      "offerPrice": 450000,
      "status": "recorder",
      "isRebuilt": false,
      "address": "2908 ASTORIA CIR, CORONA CA",
      "city": "CORONA",
      "state": "CA",
      "beds": null,
      "baths": null,
      "sqft": null,
      "lotSize": null,
      "lat": 33.898026,
      "lng": -117.509474
    },
    {
      "propertyId": null,
      "attomId": 29423992,
      "offerDate": "2025-06-16",
      "offerPrice": 510000,
      "status": "recorder",
      "isRebuilt": false,
      "address": "119 WOODSTOCK CIR, VACAVILLE CA",
      "city": "VACAVILLE",
      "state": "CA",
      "beds": null,
      "baths": null,
      "sqft": null,
      "lotSize": null,
      "lat": 38.36297,
      "lng": -121.95081
    },
    {
      "propertyId": null,
      "attomId": 140446300,
      "offerDate": "2025-06-02",
      "offerPrice": 430000,
      "status": "recorder",
      "isRebuilt": false,
      "address": "7035 DELMONICO DR, COLORADO SPRINGS CO",
      "city": "COLORADO SPRINGS",
      "state": "CO",
      "beds": null,
      "baths": null,
      "sqft": null,
      "lotSize": null,
      "lat": 38.933602,
      "lng": -104.8341
    },
    {
      "propertyId": null,
      "attomId": 184260168,
      "offerDate": "2025-05-29",
      "offerPrice": 451000,
      "status": "recorder",
      "isRebuilt": false,
      "address": "9 SEATTLE LN, LONGMONT CO",
      "city": "LONGMONT",
      "state": "CO",
      "beds": null,
      "baths": null,
      "sqft": null,
      "lotSize": null,
      "lat": 40.140188,
      "lng": -105.104333
    },
    {
      "propertyId": null,
      "attomId": 147925050,
      "offerDate": "2025-05-20",
      "offerPrice": 515000,
      "status": "recorder",
      "isRebuilt": false,
      "address": "3001 BRIDGE CREEK ST, LAS VEGAS NV",
      "city": "LAS VEGAS",
      "state": "NV",
      "beds": null,
      "baths": null,
      "sqft": null,
      "lotSize": null,
      "lat": 36.137242,
      "lng": -115.308104
    },
    {
      "propertyId": null,
      "attomId": 52329069,
      "offerDate": "2025-05-12",
      "offerPrice": 406000,
      "status": "recorder",
      "isRebuilt": false,
      "address": "15190 N RED ROCK RD, RENO NV",
      "city": "RENO",
      "state": "NV",
      "beds": null,
      "baths": null,
      "sqft": null,
      "lotSize": null,
      "lat": 39.79087,
      "lng": -119.902198
    },
    {
      "propertyId": null,
      "attomId": 12757585,
      "offerDate": "2025-05-09",
      "offerPrice": 230000,
      "status": "recorder",
      "isRebuilt": false,
      "address": "5000 VALERO CT, PAHRUMP NV",
      "city": "PAHRUMP",
      "state": "NV",
      "beds": null,
      "baths": null,
      "sqft": null,
      "lotSize": null,
      "lat": 36.293581,
      "lng": -116.010711
    },
    {
      "propertyId": null,
      "attomId": 12667946,
      "offerDate": "2025-05-07",
      "offerPrice": 308000,
      "status": "recorder",
      "isRebuilt": false,
      "address": "4547 POWELL POINT WAY, NORTH LAS VEGAS NV",
      "city": "NORTH LAS VEGAS",
      "state": "NV",
      "beds": null,
      "baths": null,
      "sqft": null,
      "lotSize": null,
      "lat": 36.24271,
      "lng": -115.175264
    },
    {
      "propertyId": null,
      "attomId": 184044211,
      "offerDate": "2025-05-02",
      "offerPrice": 360000,
      "status": "recorder",
      "isRebuilt": false,
      "address": "8 ZANE GREY LN, RENO NV",
      "city": "RENO",
      "state": "NV",
      "beds": null,
      "baths": null,
      "sqft": null,
      "lotSize": null,
      "lat": 39.513037,
      "lng": -119.93139
    },
    {
      "propertyId": null,
      "attomId": 27543852,
      "offerDate": "2025-05-02",
      "offerPrice": 362250,
      "status": "recorder",
      "isRebuilt": false,
      "address": "6236 BADGERGLEN PL, NORTH LAS VEGAS NV",
      "city": "NORTH LAS VEGAS",
      "state": "NV",
      "beds": null,
      "baths": null,
      "sqft": null,
      "lotSize": null,
      "lat": 36.274061,
      "lng": -115.160628
    },
    {
      "propertyId": null,
      "attomId": 48701859,
      "offerDate": "2025-04-29",
      "offerPrice": 475000,
      "status": "recorder",
      "isRebuilt": false,
      "address": "9728 DRUMCANNON AVE, LAS VEGAS NV",
      "city": "LAS VEGAS",
      "state": "NV",
      "beds": null,
      "baths": null,
      "sqft": null,
      "lotSize": null,
      "lat": 36.224898,
      "lng": -115.307524
    },
    {
      "propertyId": null,
      "attomId": 5225304,
      "offerDate": "2025-04-28",
      "offerPrice": 350000,
      "status": "recorder",
      "isRebuilt": false,
      "address": "2 MORGANSHIRE DR, BELLA VISTA AR",
      "city": "BELLA VISTA",
      "state": "AR",
      "beds": null,
      "baths": null,
      "sqft": null,
      "lotSize": null,
      "lat": 36.461376,
      "lng": -94.188268
    },
    {
      "propertyId": null,
      "attomId": 25350595,
      "offerDate": "2025-04-22",
      "offerPrice": 400000,
      "status": "recorder",
      "isRebuilt": false,
      "address": "575 NORTHSTAR DR, RENO NV",
      "city": "RENO",
      "state": "NV",
      "beds": null,
      "baths": null,
      "sqft": null,
      "lotSize": null,
      "lat": 39.52924,
      "lng": -119.844991
    },
    {
      "propertyId": null,
      "attomId": 17500231,
      "offerDate": "2025-04-15",
      "offerPrice": 505000,
      "status": "recorder",
      "isRebuilt": false,
      "address": "653 DEL GIORNO ST, LAS VEGAS NV",
      "city": "LAS VEGAS",
      "state": "NV",
      "beds": null,
      "baths": null,
      "sqft": null,
      "lotSize": null,
      "lat": 36.167377,
      "lng": -115.342712
    },
    {
      "propertyId": null,
      "attomId": 4120298,
      "offerDate": "2025-04-15",
      "offerPrice": 304000,
      "status": "recorder",
      "isRebuilt": false,
      "address": "3320 HEIGHTS DR, RENO NV",
      "city": "RENO",
      "state": "NV",
      "beds": null,
      "baths": null,
      "sqft": null,
      "lotSize": null,
      "lat": 39.528742,
      "lng": -119.860546
    },
    {
      "propertyId": null,
      "attomId": 184394771,
      "offerDate": "2025-04-03",
      "offerPrice": 212500,
      "status": "recorder",
      "isRebuilt": false,
      "address": "602 ALEXANDER RD, COLORADO SPRINGS CO",
      "city": "COLORADO SPRINGS",
      "state": "CO",
      "beds": null,
      "baths": null,
      "sqft": null,
      "lotSize": null,
      "lat": 38.841149,
      "lng": -104.786292
    },
    {
      "propertyId": null,
      "attomId": 148808521,
      "offerDate": "2025-04-03",
      "offerPrice": 160000,
      "status": "recorder",
      "isRebuilt": false,
      "address": "1908 E SAINT VRAIN ST, COLORADO SPRINGS CO",
      "city": "COLORADO SPRINGS",
      "state": "CO",
      "beds": null,
      "baths": null,
      "sqft": null,
      "lotSize": null,
      "lat": 38.839905,
      "lng": -104.792499
    },
    {
      "propertyId": null,
      "attomId": 23703413,
      "offerDate": "2025-03-19",
      "offerPrice": 425000,
      "status": "recorder",
      "isRebuilt": false,
      "address": "4594 CABO LN, LAS VEGAS NV",
      "city": "LAS VEGAS",
      "state": "NV",
      "beds": null,
      "baths": null,
      "sqft": null,
      "lotSize": null,
      "lat": 36.105271,
      "lng": -115.111246
    },
    {
      "propertyId": null,
      "attomId": 27037976,
      "offerDate": "2025-03-14",
      "offerPrice": 381500,
      "status": "recorder",
      "isRebuilt": false,
      "address": "11595 FIR DR, RENO NV",
      "city": "RENO",
      "state": "NV",
      "beds": null,
      "baths": null,
      "sqft": null,
      "lotSize": null,
      "lat": 39.686823,
      "lng": -119.832272
    },
    {
      "propertyId": null,
      "attomId": 154500681,
      "offerDate": "2025-03-07",
      "offerPrice": 1325000,
      "status": "recorder",
      "isRebuilt": false,
      "address": "8310 COLEGIO DR, LOS ANGELES CA",
      "city": "LOS ANGELES",
      "state": "CA",
      "beds": null,
      "baths": null,
      "sqft": null,
      "lotSize": null,
      "lat": 33.962004,
      "lng": -118.422021
    },
    {
      "propertyId": null,
      "attomId": 38061010,
      "offerDate": "2025-03-06",
      "offerPrice": 340000,
      "status": "recorder",
      "isRebuilt": false,
      "address": "9545 PARKER SPRINGS CT, LAS VEGAS NV",
      "city": "LAS VEGAS",
      "state": "NV",
      "beds": null,
      "baths": null,
      "sqft": null,
      "lotSize": null,
      "lat": 36.309681,
      "lng": -115.305248
    },
    {
      "propertyId": null,
      "attomId": 184732680,
      "offerDate": "2025-03-05",
      "offerPrice": 297000,
      "status": "recorder",
      "isRebuilt": false,
      "address": "17875 E CAROLINA PL, AURORA CO",
      "city": "AURORA",
      "state": "CO",
      "beds": null,
      "baths": null,
      "sqft": null,
      "lotSize": null,
      "lat": 39.690889,
      "lng": -104.779814
    },
    {
      "propertyId": null,
      "attomId": 15251475,
      "offerDate": "2025-01-21",
      "offerPrice": 1275000,
      "status": "recorder",
      "isRebuilt": false,
      "address": "25663 ELMWOOD LN, VALENCIA CA",
      "city": "VALENCIA",
      "state": "CA",
      "beds": null,
      "baths": null,
      "sqft": null,
      "lotSize": null,
      "lat": 34.412214,
      "lng": -118.587194
    },
    {
      "propertyId": null,
      "attomId": 155589771,
      "offerDate": "2025-01-16",
      "offerPrice": 975000,
      "status": "recorder",
      "isRebuilt": false,
      "address": "3918 CROFTON WAY, SOUTH SAN FRANCISCO CA",
      "city": "SOUTH SAN FRANCISCO",
      "state": "CA",
      "beds": null,
      "baths": null,
      "sqft": null,
      "lotSize": null,
      "lat": 37.649165,
      "lng": -122.461755
    },
    {
      "propertyId": null,
      "attomId": 154926143,
      "offerDate": "2025-01-15",
      "offerPrice": 1784000,
      "status": "recorder",
      "isRebuilt": false,
      "address": "30433 VIA RIVERA, RANCHO PALOS VERDES CA",
      "city": "RANCHO PALOS VERDES",
      "state": "CA",
      "beds": null,
      "baths": null,
      "sqft": null,
      "lotSize": null,
      "lat": 33.757736,
      "lng": -118.406522
    },
    {
      "propertyId": null,
      "attomId": 236754739,
      "offerDate": "2025-01-10",
      "offerPrice": 164000,
      "status": "recorder",
      "isRebuilt": false,
      "address": "200 RED OAK DR, RICHMOND HILL GA",
      "city": "RICHMOND HILL",
      "state": "GA",
      "beds": null,
      "baths": null,
      "sqft": null,
      "lotSize": null,
      "lat": 31.943029,
      "lng": -81.320177
    },
    {
      "propertyId": null,
      "attomId": 2032113,
      "offerDate": "2024-12-20",
      "offerPrice": 1125000,
      "status": "recorder",
      "isRebuilt": false,
      "address": "1858 LAUREL BAY DR, PASADENA CA",
      "city": "PASADENA",
      "state": "CA",
      "beds": null,
      "baths": null,
      "sqft": null,
      "lotSize": null,
      "lat": 34.136391,
      "lng": -118.184399
    },
    {
      "propertyId": null,
      "attomId": 157096301,
      "offerDate": "2024-12-20",
      "offerPrice": 1640000,
      "status": "recorder",
      "isRebuilt": false,
      "address": "1121 CIRCLE RD, PEBBLE BEACH CA",
      "city": "PEBBLE BEACH",
      "state": "CA",
      "beds": null,
      "baths": null,
      "sqft": null,
      "lotSize": null,
      "lat": 36.596161,
      "lng": -121.945556
    },
    {
      "propertyId": null,
      "attomId": 141652313,
      "offerDate": "2024-12-16",
      "offerPrice": 485000,
      "status": "recorder",
      "isRebuilt": false,
      "address": "5322 COLODNY DR UNIT 5, AGOURA HILLS CA",
      "city": "AGOURA HILLS",
      "state": "CA",
      "beds": null,
      "baths": null,
      "sqft": null,
      "lotSize": null,
      "lat": 34.145341,
      "lng": -118.740828
    },
    {
      "propertyId": null,
      "attomId": 149482817,
      "offerDate": "2024-12-12",
      "offerPrice": 1075000,
      "status": "recorder",
      "isRebuilt": false,
      "address": "101 LENA CT, PLEASANT HILL CA",
      "city": "PLEASANT HILL",
      "state": "CA",
      "beds": null,
      "baths": null,
      "sqft": null,
      "lotSize": null,
      "lat": 37.971451,
      "lng": -122.075371
    },
    {
      "propertyId": null,
      "attomId": 37368112,
      "offerDate": "2024-12-10",
      "offerPrice": 600000,
      "status": "recorder",
      "isRebuilt": false,
      "address": "4065 GENOA DR, LAS VEGAS NV",
      "city": "LAS VEGAS",
      "state": "NV",
      "beds": null,
      "baths": null,
      "sqft": null,
      "lotSize": null,
      "lat": 35.995379,
      "lng": -115.193575
    },
    {
      "propertyId": null,
      "attomId": 51054443,
      "offerDate": "2024-12-09",
      "offerPrice": 288000,
      "status": "recorder",
      "isRebuilt": false,
      "address": "1696 GENEVA CIR, LONGMONT CO",
      "city": "LONGMONT",
      "state": "CO",
      "beds": null,
      "baths": null,
      "sqft": null,
      "lotSize": null,
      "lat": 40.18777,
      "lng": -105.139338
    },
    {
      "propertyId": null,
      "attomId": 155804879,
      "offerDate": "2024-12-04",
      "offerPrice": 1020000,
      "status": "recorder",
      "isRebuilt": false,
      "address": "363 PRAGUE ST, SAN FRANCISCO CA",
      "city": "SAN FRANCISCO",
      "state": "CA",
      "beds": null,
      "baths": null,
      "sqft": null,
      "lotSize": null,
      "lat": 37.716278,
      "lng": -122.428867
    },
    {
      "propertyId": null,
      "attomId": 1326147,
      "offerDate": "2024-12-03",
      "offerPrice": 275000,
      "status": "recorder",
      "isRebuilt": false,
      "address": "822 SWAYING PALM DR, APOPKA FL",
      "city": "APOPKA",
      "state": "FL",
      "beds": null,
      "baths": null,
      "sqft": null,
      "lotSize": null,
      "lat": 28.697055,
      "lng": -81.479076
    },
    {
      "propertyId": null,
      "attomId": 154401246,
      "offerDate": "2024-12-03",
      "offerPrice": 2050000,
      "status": "recorder",
      "isRebuilt": false,
      "address": "17539 MAGNOLIA BLVD, ENCINO CA",
      "city": "ENCINO",
      "state": "CA",
      "beds": null,
      "baths": null,
      "sqft": null,
      "lotSize": null,
      "lat": 34.165653,
      "lng": -118.515746
    },
    {
      "propertyId": null,
      "attomId": 37738040,
      "offerDate": "2024-12-02",
      "offerPrice": 370000,
      "status": "recorder",
      "isRebuilt": false,
      "address": "1467 ORCA WAY, RENO NV",
      "city": "RENO",
      "state": "NV",
      "beds": null,
      "baths": null,
      "sqft": null,
      "lotSize": null,
      "lat": 39.57871,
      "lng": -119.822779
    },
    {
      "propertyId": null,
      "attomId": 45890060,
      "offerDate": "2024-11-27",
      "offerPrice": 285000,
      "status": "recorder",
      "isRebuilt": false,
      "address": "13859 N 91ST LN, PEORIA AZ",
      "city": "PEORIA",
      "state": "AZ",
      "beds": null,
      "baths": null,
      "sqft": null,
      "lotSize": null,
      "lat": 33.610438,
      "lng": -112.256416
    },
    {
      "propertyId": null,
      "attomId": 9630481,
      "offerDate": "2024-11-26",
      "offerPrice": 1000000,
      "status": "recorder",
      "isRebuilt": false,
      "address": "16751 ALONDRA DR, SAN DIEGO CA",
      "city": "SAN DIEGO",
      "state": "CA",
      "beds": null,
      "baths": null,
      "sqft": null,
      "lotSize": null,
      "lat": 33.016669,
      "lng": -117.055837
    },
    {
      "propertyId": null,
      "attomId": 158656234,
      "offerDate": "2024-11-25",
      "offerPrice": 280000,
      "status": "recorder",
      "isRebuilt": false,
      "address": "1517 E DUNBAR DR, TEMPE AZ",
      "city": "TEMPE",
      "state": "AZ",
      "beds": null,
      "baths": null,
      "sqft": null,
      "lotSize": null,
      "lat": 33.379965,
      "lng": -111.913118
    },
    {
      "propertyId": null,
      "attomId": 141912259,
      "offerDate": "2024-11-21",
      "offerPrice": 205000,
      "status": "recorder",
      "isRebuilt": false,
      "address": "3871 N HACIENDA DR, FRESNO CA",
      "city": "FRESNO",
      "state": "CA",
      "beds": null,
      "baths": null,
      "sqft": null,
      "lotSize": null,
      "lat": 36.787699,
      "lng": -119.832152
    },
    {
      "propertyId": null,
      "attomId": 327145591,
      "offerDate": "2024-11-20",
      "offerPrice": 263000,
      "status": "recorder",
      "isRebuilt": false,
      "address": "4109 38TH AVE, SACRAMENTO CA",
      "city": "SACRAMENTO",
      "state": "CA",
      "beds": null,
      "baths": null,
      "sqft": null,
      "lotSize": null,
      "lat": 38.518151,
      "lng": -121.458913
    },
    {
      "propertyId": null,
      "attomId": 14691642,
      "offerDate": "2024-11-18",
      "offerPrice": 300000,
      "status": "recorder",
      "isRebuilt": false,
      "address": "2807 FAITH LN, SPRING HILL TN",
      "city": "SPRING HILL",
      "state": "TN",
      "beds": null,
      "baths": null,
      "sqft": null,
      "lotSize": null,
      "lat": 35.750065,
      "lng": -86.887559
    },
    {
      "propertyId": null,
      "attomId": 157595969,
      "offerDate": "2024-11-18",
      "offerPrice": 1475000,
      "status": "recorder",
      "isRebuilt": false,
      "address": "2508 CALMA CT, SAN JOSE CA",
      "city": "SAN JOSE",
      "state": "CA",
      "beds": null,
      "baths": null,
      "sqft": null,
      "lotSize": null,
      "lat": 37.296803,
      "lng": -121.938552
    },