{
  "investor": {
    "id": "e0f14646-2b1a-4a67-b023-bd044ff99d65",
    "name": "Brennan Wilbanks",
    "email": "brennan@memohiscashflow.com",
    "phone": "+1 (901) 258-1269",
    "totalWon": 1,
    "totalBids": 12,
    "ytdWon": 0,
    "ytdBids": 0,
    "entities": [
      "MEMPHIS CASH FLOW GP",
      "SREERAJ NADRAJAN"
    ]
  },
  "stats": {
    "totalTransactions2025": 6,
    "rebuiltTransactions": 0,
    "recorderTransactions": 16,
    "quarterlyStats": {
      "2025-Q1": {
        "rebuilt": 0,
        "total": 3
      },
      "2025-Q2": {
        "rebuilt": 0,
        "total": 0
      },
      "2025-Q3": {
        "rebuilt": 0,
        "total": 2
      },
      "2025-Q4": {
        "rebuilt": 0,
        "total": 1
      },
      "2026-Q1": {
        "rebuilt": 0,
        "total": 2
      }
    }
  },
  "properties": [
    {
      "propertyId": null,
      "attomId": 7755628,
      "offerDate": "2026-02-24",
      "offerPrice": 87500,
      "status": "recorder",
      "isRebuilt": false,
      "address": "3165 MAPLE HILL DR, MEMPHIS TN",
      "city": "MEMPHIS",
      "state": "TN",
      "beds": null,
      "baths": null,
      "sqft": null,
      "lotSize": null,
      "lat": 35.009286,
      "lng": -89.958272
    },
    {
      "propertyId": null,
      "attomId": 152245628,
      "offerDate": "2026-02-17",
      "offerPrice": 50000,
      "status": "recorder",
      "isRebuilt": false,
      "address": "5805 WISTERIA CT, NORTH LITTLE ROCK AR",
      "city": "NORTH LITTLE ROCK",
      "state": "AR",
      "beds": null,
      "baths": null,
      "sqft": null,
      "lotSize": null,
      "lat": 34.808655,
      "lng": -92.26933
    },
    {
      "propertyId": null,
      "attomId": 25681106,
      "offerDate": "2025-10-21",
      "offerPrice": 137500,
      "status": "recorder",
      "isRebuilt": false,
      "address": "5417 FLEETWAY AVE, MEMPHIS TN",
      "city": "MEMPHIS",
      "state": "TN",
      "beds": null,
      "baths": null,
      "sqft": null,
      "lotSize": null,
      "lat": 35.057937,
      "lng": -89.882917
    },
    {
      "propertyId": null,
      "attomId": 18334267,
      "offerDate": "2025-09-15",
      "offerPrice": 87500,
      "status": "recorder",
      "isRebuilt": false,
      "address": "5298 SUNRAY DR, MEMPHIS TN",
      "city": "MEMPHIS",
      "state": "TN",
      "beds": null,
      "baths": null,
      "sqft": null,
      "lotSize": null,
      "lat": 35.003835,
      "lng": -89.960058
    },
    {
      "propertyId": null,
      "attomId": 24028365,
      "offerDate": "2025-08-18",
      "offerPrice": 162500,
      "status": "recorder",
      "isRebuilt": false,
      "address": "5353 STEPHEN FOREST CV, MEMPHIS TN",
      "city": "MEMPHIS",
      "state": "TN",
      "beds": null,
      "baths": null,
      "sqft": null,
      "lotSize": null,
      "lat": 35.002174,
      "lng": -89.838906
    },
    {
      "propertyId": null,
      "attomId": 140710472,
      "offerDate": "2025-03-28",
      "offerPrice": 74000,
      "status": "recorder",
      "isRebuilt": false,
      "address": "501 W 24TH ST, NORTH LITTLE ROCK AR",
      "city": "NORTH LITTLE ROCK",
      "state": "AR",
      "beds": null,
      "baths": null,
      "sqft": null,
      "lotSize": null,
      "lat": 34.777437,
      "lng": -92.272623
    },
    {
      "propertyId": null,
      "attomId": 3985677,
      "offerDate": "2025-01-09",
      "offerPrice": 70000,
      "status": "recorder",
      "isRebuilt": false,
      "address": "2077 WELLONS AVE, MEMPHIS TN",
      "city": "MEMPHIS",
      "state": "TN",
      "beds": null,
      "baths": null,
      "sqft": null,
      "lotSize": null,
      "lat": 35.235721,
      "lng": -89.994715
    },
    {
      "propertyId": null,
      "attomId": 417580,
      "offerDate": "2025-01-02",
      "offerPrice": 140000,
      "status": "recorder",
      "isRebuilt": false,
      "address": "4320 CRIMSON TREE CV, MEMPHIS TN",
      "city": "MEMPHIS",
      "state": "TN",
      "beds": null,
      "baths": null,
      "sqft": null,
      "lotSize": null,
      "lat": 35.030443,
      "lng": -89.861531
    },
    {
      "propertyId": null,
      "attomId": 187084044,
      "offerDate": "2024-12-20",
      "offerPrice": 63000,
      "status": "recorder",
      "isRebuilt": false,
      "address": "607 FRANK T BUNTON ST, LONOKE AR",
      "city": "LONOKE",
      "state": "AR",
      "beds": null,
      "baths": null,
      "sqft": null,
      "lotSize": null,
      "lat": 34.778698,
      "lng": -91.896314
    },
    {
      "propertyId": null,
      "attomId": 5078841,
      "offerDate": "2024-12-10",
      "offerPrice": 64000,
      "status": "recorder",
      "isRebuilt": false,
      "address": "6 IVY DR, LITTLE ROCK AR",
      "city": "LITTLE ROCK",
      "state": "AR",
      "beds": null,
      "baths": null,
      "sqft": null,
      "lotSize": null,
      "lat": 34.697719,
      "lng": -92.34923
    },
    {
      "propertyId": null,
      "attomId": 5298142,
      "offerDate": "2024-12-03",
      "offerPrice": 78000,
      "status": "recorder",
      "isRebuilt": false,
      "address": "3371 FORD RD, MEMPHIS TN",
      "city": "MEMPHIS",
      "state": "TN",
      "beds": null,
      "baths": null,
      "sqft": null,
      "lotSize": null,
      "lat": 35.056717,
      "lng": -90.081183
    },
    {
      "propertyId": null,
      "attomId": 22894353,
      "offerDate": "2024-11-21",
      "offerPrice": 61000,
      "status": "recorder",
      "isRebuilt": false,
      "address": "3576 ENGLAND ST, MEMPHIS TN",
      "city": "MEMPHIS",
      "state": "TN",
      "beds": null,
      "baths": null,
      "sqft": null,
      "lotSize": null,
      "lat": 35.223334,
      "lng": -89.970807
    },
    {
      "propertyId": null,
      "attomId": 141055878,
      "offerDate": "2024-08-06",
      "offerPrice": 70000,
      "status": "recorder",
      "isRebuilt": false,
      "address": "216 DELTA RD, MEMPHIS TN",
      "city": "MEMPHIS",
      "state": "TN",
      "beds": null,
      "baths": null,
      "sqft": null,
      "lotSize": null,
      "lat": 35.018487,
      "lng": -90.071159
    },
    {
      "propertyId": null,
      "attomId": 196192406,
      "offerDate": "2024-07-15",
      "offerPrice": 70000,
      "status": "recorder",
      "isRebuilt": false,
      "address": "1221 CHESTNUT ST, LONOKE AR",
      "city": "LONOKE",
      "state": "AR",
      "beds": null,
      "baths": null,
      "sqft": null,
      "lotSize": null,
      "lat": 34.770429,
      "lng": -91.902183
    },
    {
      "propertyId": null,
      "attomId": 190176106,
      "offerDate": "2024-07-11",
      "offerPrice": 307000,
      "status": "recorder",
      "isRebuilt": false,
      "address": "6847 NESHOBA RD, MEMPHIS TN",
      "city": "MEMPHIS",
      "state": "TN",
      "beds": null,
      "baths": null,
      "sqft": null,
      "lotSize": null,
      "lat": 35.105958,
      "lng": -89.835001
    },
    {
      "propertyId": null,
      "attomId": 140716377,
      "offerDate": "2024-01-18",
      "offerPrice": 40000,
      "status": "recorder",
      "isRebuilt": false,
      "address": "9205 WOODFORD DR, LITTLE ROCK AR",
      "city": "LITTLE ROCK",
      "state": "AR",
      "beds": null,
      "baths": null,
      "sqft": null,
      "lotSize": null,
      "lat": 34.666916,
      "lng": -92.371618
    }
  ]
}