{
  "investor": {
    "id": "f6d64924-a3aa-4052-b227-dafe82b3529c",
    "name": "Chance Woods",
    "email": "Cwoods1004@profitableproperties.net",
    "phone": "+1 (417) 755-2318",
    "totalWon": 1,
    "totalBids": 1,
    "ytdWon": 0,
    "ytdBids": 0,
    "entities": [
      "PEGASUS REAL ESTATE SERVICES LLC"
    ]
  },
  "stats": {
    "totalTransactions2025": 74,
    "rebuiltTransactions": 1,
    "recorderTransactions": 157,
    "quarterlyStats": {
      "2023-Q3": {
        "rebuilt": 1,
        "total": 1
      },
      "2024-Q1": {
        "rebuilt": 0,
        "total": 12
      },
      "2024-Q2": {
        "rebuilt": 0,
        "total": 17
      },
      "2024-Q3": {
        "rebuilt": 0,
        "total": 21
      },
      "2024-Q4": {
        "rebuilt": 0,
        "total": 19
      },
      "2025-Q1": {
        "rebuilt": 0,
        "total": 15
      },
      "2025-Q2": {
        "rebuilt": 0,
        "total": 18
      },
      "2025-Q3": {
        "rebuilt": 0,
        "total": 22
      },
      "2025-Q4": {
        "rebuilt": 0,
        "total": 19
      },
      "2026-Q1": {
        "rebuilt": 0,
        "total": 14
      }
    }
  },
  "properties": [
    {
      "propertyId": null,
      "attomId": 148591883,
      "offerDate": "2023-08-17",
      "offerPrice": 72000.0,
      "status": "won",
      "isRebuilt": true,
      "address": "8272 CEDARBRUSH DR, SOUTHAVEN ms",
      "city": "SOUTHAVEN",
      "state": "ms",
      "beds": null,
      "baths": null,
      "sqft": null,
      "lotSize": null,
      "lat": 34.98,
      "lng": -90.03
    },
    {
      "propertyId": null,
      "attomId": 142719932,
      "offerDate": "2026-03-17",
      "offerPrice": 70000,
      "status": "recorder",
      "isRebuilt": false,
      "address": "1785 SANTA CLARA AVE, MEMPHIS TN",
      "city": "MEMPHIS",
      "state": "TN",
      "beds": null,
      "baths": null,
      "sqft": null,
      "lotSize": null,
      "lat": 34.995207,
      "lng": -90.004327
    },
    {
      "propertyId": null,
      "attomId": 24139126,
      "offerDate": "2026-03-05",
      "offerPrice": 63000,
      "status": "recorder",
      "isRebuilt": false,
      "address": "4078 DUNN RD, MEMPHIS TN",
      "city": "MEMPHIS",
      "state": "TN",
      "beds": null,
      "baths": null,
      "sqft": null,
      "lotSize": null,
      "lat": 35.090311,
      "lng": -89.926613
    },
    {
      "propertyId": null,
      "attomId": 52525059,
      "offerDate": "2026-03-05",
      "offerPrice": 100000,
      "status": "recorder",
      "isRebuilt": false,
      "address": "895 BROWNLEE RD, MEMPHIS TN",
      "city": "MEMPHIS",
      "state": "TN",
      "beds": null,
      "baths": null,
      "sqft": null,
      "lotSize": null,
      "lat": 35.032309,
      "lng": -90.034155
    },
    {
      "propertyId": null,
      "attomId": 194608442,
      "offerDate": "2026-03-05",
      "offerPrice": 65000,
      "status": "recorder",
      "isRebuilt": false,
      "address": "4059 GERALDUS AVE, MEMPHIS TN",
      "city": "MEMPHIS",
      "state": "TN",
      "beds": null,
      "baths": null,
      "sqft": null,
      "lotSize": null,
      "lat": 35.088426,
      "lng": -89.927255
    },
    {
      "propertyId": null,
      "attomId": 195843579,
      "offerDate": "2026-03-05",
      "offerPrice": 80000,
      "status": "recorder",
      "isRebuilt": false,
      "address": "1232 VAUGHN RD, MEMPHIS TN",
      "city": "MEMPHIS",
      "state": "TN",
      "beds": null,
      "baths": null,
      "sqft": null,
      "lotSize": null,
      "lat": 35.165323,
      "lng": -89.922778
    },
    {
      "propertyId": null,
      "attomId": 141081986,
      "offerDate": "2026-03-04",
      "offerPrice": 127500,
      "status": "recorder",
      "isRebuilt": false,
      "address": "3204 KENNETH ST, MEMPHIS TN",
      "city": "MEMPHIS",
      "state": "TN",
      "beds": null,
      "baths": null,
      "sqft": null,
      "lotSize": null,
      "lat": 35.212984,
      "lng": -89.904591
    },
    {
      "propertyId": null,
      "attomId": 9101975,
      "offerDate": "2026-02-20",
      "offerPrice": 120000,
      "status": "recorder",
      "isRebuilt": false,
      "address": "1381 LAUDEEN DR, MEMPHIS TN",
      "city": "MEMPHIS",
      "state": "TN",
      "beds": null,
      "baths": null,
      "sqft": null,
      "lotSize": null,
      "lat": 35.040341,
      "lng": -90.018095
    },
    {
      "propertyId": null,
      "attomId": 152433561,
      "offerDate": "2026-02-20",
      "offerPrice": 80000,
      "status": "recorder",
      "isRebuilt": false,
      "address": "3129 CURZON AVE, MEMPHIS TN",
      "city": "MEMPHIS",
      "state": "TN",
      "beds": null,
      "baths": null,
      "sqft": null,
      "lotSize": null,
      "lat": 35.033739,
      "lng": -89.959476
    },
    {
      "propertyId": null,
      "attomId": 18656302,
      "offerDate": "2026-01-22",
      "offerPrice": 60000,
      "status": "recorder",
      "isRebuilt": false,
      "address": "1738 WILLOW WOOD AVE, MEMPHIS TN",
      "city": "MEMPHIS",
      "state": "TN",
      "beds": null,
      "baths": null,
      "sqft": null,
      "lotSize": null,
      "lat": 35.212479,
      "lng": -90.005833
    },
    {
      "propertyId": null,
      "attomId": 15235117,
      "offerDate": "2026-01-15",
      "offerPrice": 130000,
      "status": "recorder",
      "isRebuilt": false,
      "address": "3801 BLUE JAY RD, MEMPHIS TN",
      "city": "MEMPHIS",
      "state": "TN",
      "beds": null,
      "baths": null,
      "sqft": null,
      "lotSize": null,
      "lat": 35.045044,
      "lng": -90.00372
    },
    {
      "propertyId": null,
      "attomId": 41580968,
      "offerDate": "2026-01-12",
      "offerPrice": 115000,
      "status": "recorder",
      "isRebuilt": false,
      "address": "3320 MCCORKLE RD, MEMPHIS TN",
      "city": "MEMPHIS",
      "state": "TN",
      "beds": null,
      "baths": null,
      "sqft": null,
      "lotSize": null,
      "lat": 35.058061,
      "lng": -90.03799
    },
    {
      "propertyId": null,
      "attomId": 4410979,
      "offerDate": "2026-01-12",
      "offerPrice": 126000,
      "status": "recorder",
      "isRebuilt": false,
      "address": "1288 DAVIDSON DR, MEMPHIS TN",
      "city": "MEMPHIS",
      "state": "TN",
      "beds": null,
      "baths": null,
      "sqft": null,
      "lotSize": null,
      "lat": 35.028736,
      "lng": -90.021014
    },
    {
      "propertyId": null,
      "attomId": 188661261,
      "offerDate": "2026-01-07",
      "offerPrice": 112000,
      "status": "recorder",
      "isRebuilt": false,
      "address": "3804 CAZASSA RD, MEMPHIS TN",
      "city": "MEMPHIS",
      "state": "TN",
      "beds": null,
      "baths": null,
      "sqft": null,
      "lotSize": null,
      "lat": 35.044959,
      "lng": -90.002086
    },
    {
      "propertyId": null,
      "attomId": 195338192,
      "offerDate": "2026-01-06",
      "offerPrice": 120000,
      "status": "recorder",
      "isRebuilt": false,
      "address": "342 N MCNEIL ST, MEMPHIS TN",
      "city": "MEMPHIS",
      "state": "TN",
      "beds": null,
      "baths": null,
      "sqft": null,
      "lotSize": null,
      "lat": 35.147834,
      "lng": -90.010881
    },
    {
      "propertyId": null,
      "attomId": 21672942,
      "offerDate": "2025-12-22",
      "offerPrice": 95000,
      "status": "recorder",
      "isRebuilt": false,
      "address": "3240 BOXDALE ST, MEMPHIS TN",
      "city": "MEMPHIS",
      "state": "TN",
      "beds": null,
      "baths": null,
      "sqft": null,
      "lotSize": null,
      "lat": 35.059825,
      "lng": -89.902599
    },
    {
      "propertyId": null,
      "attomId": 20036185,
      "offerDate": "2025-12-18",
      "offerPrice": 100000,
      "status": "recorder",
      "isRebuilt": false,
      "address": "3751 CHARLES DR, MEMPHIS TN",
      "city": "MEMPHIS",
      "state": "TN",
      "beds": null,
      "baths": null,
      "sqft": null,
      "lotSize": null,
      "lat": 35.046267,
      "lng": -90.020958
    },
    {
      "propertyId": null,
      "attomId": 149175266,
      "offerDate": "2025-12-18",
      "offerPrice": 100000,
      "status": "recorder",
      "isRebuilt": false,
      "address": "1071 BONNIE ST, MEMPHIS TN",
      "city": "MEMPHIS",
      "state": "TN",
      "beds": null,
      "baths": null,
      "sqft": null,
      "lotSize": null,
      "lat": 35.160682,
      "lng": -89.918589
    },
    {
      "propertyId": null,
      "attomId": 142822385,
      "offerDate": "2025-12-05",
      "offerPrice": 90000,
      "status": "recorder",
      "isRebuilt": false,
      "address": "42 BONITA DR, MEMPHIS TN",
      "city": "MEMPHIS",
      "state": "TN",
      "beds": null,
      "baths": null,
      "sqft": null,
      "lotSize": null,
      "lat": 35.036992,
      "lng": -90.062787
    },
    {
      "propertyId": null,
      "attomId": 3638656,
      "offerDate": "2025-12-03",
      "offerPrice": 57500,
      "status": "recorder",
      "isRebuilt": false,
      "address": "4051 AUBURN RD, MEMPHIS TN",
      "city": "MEMPHIS",
      "state": "TN",
      "beds": null,
      "baths": null,
      "sqft": null,
      "lotSize": null,
      "lat": 35.038084,
      "lng": -90.03539
    },
    {
      "propertyId": null,
      "attomId": 188661131,
      "offerDate": "2025-12-02",
      "offerPrice": 76000,
      "status": "recorder",
      "isRebuilt": false,
      "address": "444 HONDURAS AVE, MEMPHIS TN",
      "city": "MEMPHIS",
      "state": "TN",
      "beds": null,
      "baths": null,
      "sqft": null,
      "lotSize": null,
      "lat": 35.014666,
      "lng": -90.078929
    },
    {
      "propertyId": null,
      "attomId": 23947972,
      "offerDate": "2025-11-14",
      "offerPrice": 55000,
      "status": "recorder",
      "isRebuilt": false,
      "address": "3592 SUZANNE DR, MEMPHIS TN",
      "city": "MEMPHIS",
      "state": "TN",
      "beds": null,
      "baths": null,
      "sqft": null,
      "lotSize": null,
      "lat": 35.223674,
      "lng": -89.982648
    },
    {
      "propertyId": null,
      "attomId": 30306314,
      "offerDate": "2025-11-14",
      "offerPrice": 70000,
      "status": "recorder",
      "isRebuilt": false,
      "address": "4502 DUNN AVE, MEMPHIS TN",
      "city": "MEMPHIS",
      "state": "TN",
      "beds": null,
      "baths": null,
      "sqft": null,
      "lotSize": null,
      "lat": 35.090641,
      "lng": -89.912031
    },
    {
      "propertyId": null,
      "attomId": 47182577,
      "offerDate": "2025-11-05",
      "offerPrice": 57000,
      "status": "recorder",
      "isRebuilt": false,
      "address": "2019 DRIFTWOOD AVE, MEMPHIS TN",
      "city": "MEMPHIS",
      "state": "TN",
      "beds": null,
      "baths": null,
      "sqft": null,
      "lotSize": null,
      "lat": 35.209708,
      "lng": -89.996544
    },
    {
      "propertyId": null,
      "attomId": 26982420,
      "offerDate": "2025-11-04",
      "offerPrice": 175000,
      "status": "recorder",
      "isRebuilt": false,
      "address": "4080 CHIPPEWA RD, MEMPHIS TN",
      "city": "MEMPHIS",
      "state": "TN",
      "beds": null,
      "baths": null,
      "sqft": null,
      "lotSize": null,
      "lat": 35.070294,
      "lng": -89.92744
    },
    {
      "propertyId": null,
      "attomId": 26982418,
      "offerDate": "2025-11-04",
      "offerPrice": 175000,
      "status": "recorder",
      "isRebuilt": false,
      "address": "4064 CHIPPEWA RD, MEMPHIS TN",
      "city": "MEMPHIS",
      "state": "TN",
      "beds": null,
      "baths": null,
      "sqft": null,
      "lotSize": null,
      "lat": 35.070072,
      "lng": -89.928486
    },
    {
      "propertyId": null,
      "attomId": 198819749,
      "offerDate": "2025-10-29",
      "offerPrice": 115000,
      "status": "recorder",
      "isRebuilt": false,
      "address": "4638 ROSS RD, MEMPHIS TN",
      "city": "MEMPHIS",
      "state": "TN",
      "beds": null,
      "baths": null,
      "sqft": null,
      "lotSize": null,
      "lat": 35.021824,
      "lng": -89.839554
    },
    {
      "propertyId": null,
      "attomId": 942367,
      "offerDate": "2025-10-24",
      "offerPrice": 75000,
      "status": "recorder",
      "isRebuilt": false,
      "address": "4229 VANN AVE, MEMPHIS TN",
      "city": "MEMPHIS",
      "state": "TN",
      "beds": null,
      "baths": null,
      "sqft": null,
      "lotSize": null,
      "lat": 35.091017,
      "lng": -89.921005
    },
    {
      "propertyId": null,
      "attomId": 198293745,
      "offerDate": "2025-10-24",
      "offerPrice": 60000,
      "status": "recorder",
      "isRebuilt": false,
      "address": "2272 ARLENE AVE, MEMPHIS TN",
      "city": "MEMPHIS",
      "state": "TN",
      "beds": null,
      "baths": null,
      "sqft": null,
      "lotSize": null,
      "lat": 35.219326,
      "lng": -89.987966
    },
    {
      "propertyId": null,
      "attomId": 141422525,
      "offerDate": "2025-10-24",
      "offerPrice": 65000,
      "status": "recorder",
      "isRebuilt": false,
      "address": "3017 SPOTTSWOOD AVE, MEMPHIS TN",
      "city": "MEMPHIS",
      "state": "TN",
      "beds": null,
      "baths": null,
      "sqft": null,
      "lotSize": null,
      "lat": 35.113096,
      "lng": -89.961793
    },
    {
      "propertyId": null,
      "attomId": 1509118,
      "offerDate": "2025-10-03",
      "offerPrice": 55000,
      "status": "recorder",
      "isRebuilt": false,
      "address": "4661 BERTA RD, MEMPHIS TN",
      "city": "MEMPHIS",
      "state": "TN",
      "beds": null,
      "baths": null,
      "sqft": null,
      "lotSize": null,
      "lat": 35.021147,
      "lng": -90.0459
    },
    {
      "propertyId": null,
      "attomId": 2037366,
      "offerDate": "2025-10-03",
      "offerPrice": 75000,
      "status": "recorder",
      "isRebuilt": false,
      "address": "3464 MILLARD RD, MEMPHIS TN",
      "city": "MEMPHIS",
      "state": "TN",
      "beds": null,
      "baths": null,
      "sqft": null,
      "lotSize": null,
      "lat": 35.054082,
      "lng": -90.070683
    },
    {
      "propertyId": null,
      "attomId": 26546892,
      "offerDate": "2025-10-03",
      "offerPrice": 40000,
      "status": "recorder",
      "isRebuilt": false,
      "address": "3405 MEDFORD CV, MEMPHIS TN",
      "city": "MEMPHIS",
      "state": "TN",
      "beds": null,
      "baths": null,
      "sqft": null,
      "lotSize": null,
      "lat": 35.21875,
      "lng": -90.002348
    },
    {
      "propertyId": null,
      "attomId": 189033474,
      "offerDate": "2025-10-03",
      "offerPrice": 80000,
      "status": "recorder",
      "isRebuilt": false,
      "address": "4903 GIVEN AVE, MEMPHIS TN",
      "city": "MEMPHIS",
      "state": "TN",
      "beds": null,
      "baths": null,
      "sqft": null,
      "lotSize": null,
      "lat": 35.156218,
      "lng": -89.897149
    },
    {
      "propertyId": null,
      "attomId": 188595552,
      "offerDate": "2025-09-29",
      "offerPrice": 110000,
      "status": "recorder",
      "isRebuilt": false,
      "address": "6868 FOX HORSE CV W, MEMPHIS TN",
      "city": "MEMPHIS",
      "state": "TN",
      "beds": null,
      "baths": null,
      "sqft": null,
      "lotSize": null,
      "lat": 35.029559,
      "lng": -89.834255
    },
    {
      "propertyId": null,
      "attomId": 187379010,
      "offerDate": "2025-09-18",
      "offerPrice": 130000,
      "status": "recorder",
      "isRebuilt": false,
      "address": "3164 INVERNESS PARKWAY DR, MEMPHIS TN",
      "city": "MEMPHIS",
      "state": "TN",
      "beds": null,
      "baths": null,
      "sqft": null,
      "lotSize": null,
      "lat": 35.062341,
      "lng": -89.86796
    },
    {
      "propertyId": null,
      "attomId": 11335190,
      "offerDate": "2025-09-18",
      "offerPrice": 71000,
      "status": "recorder",
      "isRebuilt": false,
      "address": "3770 WISTERIA CV, MEMPHIS TN",
      "city": "MEMPHIS",
      "state": "TN",
      "beds": null,
      "baths": null,
      "sqft": null,
      "lotSize": null,
      "lat": 35.0458,
      "lng": -90.012126
    },
    {
      "propertyId": null,
      "attomId": 22686366,
      "offerDate": "2025-09-15",
      "offerPrice": 60000,
      "status": "recorder",
      "isRebuilt": false,
      "address": "1941 QUINN AVE, MEMPHIS TN",
      "city": "MEMPHIS",
      "state": "TN",
      "beds": null,
      "baths": null,
      "sqft": null,
      "lotSize": null,
      "lat": 35.105709,
      "lng": -89.997918
    },
    {
      "propertyId": null,
      "attomId": 4362456,
      "offerDate": "2025-09-11",
      "offerPrice": 70000,
      "status": "recorder",
      "isRebuilt": false,
      "address": "2516 WELLONS AVE, MEMPHIS TN",
      "city": "MEMPHIS",
      "state": "TN",
      "beds": null,
      "baths": null,
      "sqft": null,
      "lotSize": null,
      "lat": 35.237231,
      "lng": -89.979783
    },
    {
      "propertyId": null,
      "attomId": 142468076,
      "offerDate": "2025-09-09",
      "offerPrice": 20000,
      "status": "recorder",
      "isRebuilt": false,
      "address": "3115 SIGNAL ST, MEMPHIS TN",
      "city": "MEMPHIS",
      "state": "TN",
      "beds": null,
      "baths": null,
      "sqft": null,
      "lotSize": null,
      "lat": 35.210697,
      "lng": -90.012021
    },
    {
      "propertyId": null,
      "attomId": 15890588,
      "offerDate": "2025-08-27",
      "offerPrice": 80000,
      "status": "recorder",
      "isRebuilt": false,
      "address": "1016 MENDENHALL CV, MEMPHIS TN",
      "city": "MEMPHIS",
      "state": "TN",
      "beds": null,
      "baths": null,
      "sqft": null,
      "lotSize": null,
      "lat": 35.159169,
      "lng": -89.897084
    },
    {
      "propertyId": null,
      "attomId": 34012818,
      "offerDate": "2025-08-27",
      "offerPrice": 150000,
      "status": "recorder",
      "isRebuilt": false,
      "address": "1961 DURHAM AVE, MEMPHIS TN",
      "city": "MEMPHIS",
      "state": "TN",
      "beds": null,
      "baths": null,
      "sqft": null,
      "lotSize": null,
      "lat": 35.240009,
      "lng": -89.998267
    },
    {
      "propertyId": null,
      "attomId": 145821302,
      "offerDate": "2025-08-15",
      "offerPrice": 60000,
      "status": "recorder",
      "isRebuilt": false,
      "address": "1156 BROWER ST, MEMPHIS TN",
      "city": "MEMPHIS",
      "state": "TN",
      "beds": null,
      "baths": null,
      "sqft": null,
      "lotSize": null,
      "lat": 35.100118,
      "lng": -89.952159
    },
    {
      "propertyId": null,
      "attomId": 197951560,
      "offerDate": "2025-08-08",
      "offerPrice": 40000,
      "status": "recorder",
      "isRebuilt": false,
      "address": "1598 FRAYSER BLVD, MEMPHIS TN",
      "city": "MEMPHIS",
      "state": "TN",
      "beds": null,
      "baths": null,
      "sqft": null,
      "lotSize": null,
      "lat": 35.218181,
      "lng": -90.010589
    },
    {
      "propertyId": null,
      "attomId": 187386430,
      "offerDate": "2025-08-04",
      "offerPrice": 25000,
      "status": "recorder",
      "isRebuilt": false,
      "address": "1580 ORIOLE ST, MEMPHIS TN",
      "city": "MEMPHIS",
      "state": "TN",
      "beds": null,
      "baths": null,
      "sqft": null,
      "lotSize": null,
      "lat": 35.175645,
      "lng": -89.958077
    },
    {
      "propertyId": null,
      "attomId": 41385793,
      "offerDate": "2025-07-15",
      "offerPrice": 82000,
      "status": "recorder",
      "isRebuilt": false,
      "address": "1224 BROWER ST, MEMPHIS TN",
      "city": "MEMPHIS",
      "state": "TN",
      "beds": null,
      "baths": null,
      "sqft": null,
      "lotSize": null,
      "lat": 35.09868,
      "lng": -89.95296
    },
    {
      "propertyId": null,
      "attomId": 17071326,
      "offerDate": "2025-07-15",
      "offerPrice": 67500,
      "status": "recorder",
      "isRebuilt": false,
      "address": "824 CARSON ST, MEMPHIS TN",
      "city": "MEMPHIS",
      "state": "TN",
      "beds": null,
      "baths": null,
      "sqft": null,
      "lotSize": null,
      "lat": 35.109579,
      "lng": -89.962342
    },
    {
      "propertyId": null,
      "attomId": 145168354,
      "offerDate": "2025-07-03",
      "offerPrice": 68000,
      "status": "recorder",
      "isRebuilt": false,
      "address": "4056 GRANTHAM RD, MEMPHIS TN",
      "city": "MEMPHIS",
      "state": "TN",
      "beds": null,
      "baths": null,
      "sqft": null,
      "lotSize": null,
      "lat": 35.038055,
      "lng": -90.044572
    },
    {
      "propertyId": null,
      "attomId": 9789167,
      "offerDate": "2025-07-03",
      "offerPrice": 102000,
      "status": "recorder",
      "isRebuilt": false,
      "address": "3108 WICKHAM DR, MEMPHIS TN",
      "city": "MEMPHIS",
      "state": "TN",
      "beds": null,
      "baths": null,
      "sqft": null,
      "lotSize": null,
      "lat": 35.037241,
      "lng": -89.960133
    },
    {
      "propertyId": null,
      "attomId": 155371831,
      "offerDate": "2025-07-03",
      "offerPrice": 60000,
      "status": "recorder",
      "isRebuilt": false,
      "address": "832 MARIANNA ST, MEMPHIS TN",
      "city": "MEMPHIS",
      "state": "TN",
      "beds": null,
      "baths": null,
      "sqft": null,
      "lotSize": null,
      "lat": 35.109343,
      "lng": -89.971092
    },
    {
      "propertyId": null,
      "attomId": 13340686,
      "offerDate": "2025-06-24",
      "offerPrice": 70000,
      "status": "recorder",
      "isRebuilt": false,
      "address": "3256 RIDGECREST ST, MEMPHIS TN",
      "city": "MEMPHIS",
      "state": "TN",
      "beds": null,
      "baths": null,
      "sqft": null,
      "lotSize": null,
      "lat": 35.214488,
      "lng": -90.019707
    },
    {
      "propertyId": null,
      "attomId": 187410192,
      "offerDate": "2025-06-24",
      "offerPrice": 41500,
      "status": "recorder",
      "isRebuilt": false,
      "address": "1290 DELLWOOD AVE, MEMPHIS TN",
      "city": "MEMPHIS",
      "state": "TN",
      "beds": null,
      "baths": null,
      "sqft": null,
      "lotSize": null,
      "lat": 35.210852,
      "lng": -90.020761
    },
    {
      "propertyId": null,
      "attomId": 3635039,
      "offerDate": "2025-06-06",
      "offerPrice": 57000,
      "status": "recorder",
      "isRebuilt": false,
      "address": "2687 OVERTON CROSSING ST, MEMPHIS TN",
      "city": "MEMPHIS",
      "state": "TN",
      "beds": null,
      "baths": null,
      "sqft": null,
      "lotSize": null,
      "lat": 35.199196,
      "lng": -90.002737
    },
    {
      "propertyId": null,
      "attomId": 14609133,
      "offerDate": "2025-06-06",
      "offerPrice": 55000,
      "status": "recorder",
      "isRebuilt": false,
      "address": "5227 BRADEN DR, MEMPHIS TN",
      "city": "MEMPHIS",
      "state": "TN",
      "beds": null,
      "baths": null,
      "sqft": null,
      "lotSize": null,
      "lat": 35.26869,
      "lng": -90.040034
    },
    {
      "propertyId": null,
      "attomId": 141312206,
      "offerDate": "2025-05-29",
      "offerPrice": 110000,
      "status": "recorder",
      "isRebuilt": false,
      "address": "4198 AUBURN RD, MEMPHIS TN",
      "city": "MEMPHIS",
      "state": "TN",
      "beds": null,
      "baths": null,
      "sqft": null,
      "lotSize": null,
      "lat": 35.034006,
      "lng": -90.034401
    },
    {
      "propertyId": null,
      "attomId": 150807452,
      "offerDate": "2025-05-29",
      "offerPrice": 32000,
      "status": "recorder",
      "isRebuilt": false,
      "address": "865 PAR AVE, MEMPHIS TN",
      "city": "MEMPHIS",
      "state": "TN",
      "beds": null,
      "baths": null,
      "sqft": null,
      "lotSize": null,
      "lat": 35.220703,
      "lng": -90.035444
    },
    {
      "propertyId": null,
      "attomId": 10298918,
      "offerDate": "2025-05-29",
      "offerPrice": 47000,
      "status": "recorder",
      "isRebuilt": false,
      "address": "703 BALTIC ST, MEMPHIS TN",
      "city": "MEMPHIS",
      "state": "TN",
      "beds": null,
      "baths": null,
      "sqft": null,
      "lotSize": null,
      "lat": 35.151468,
      "lng": -89.95815
    },
    {
      "propertyId": null,
      "attomId": 385123,
      "offerDate": "2025-05-29",
      "offerPrice": 61250,
      "status": "recorder",
      "isRebuilt": false,
      "address": "1052 NATIONAL ST, MEMPHIS TN",
      "city": "MEMPHIS",
      "state": "TN",
      "beds": null,
      "baths": null,
      "sqft": null,
      "lotSize": null,
      "lat": 35.160813,
      "lng": -89.947035
    },
    {
      "propertyId": null,
      "attomId": 146290358,
      "offerDate": "2025-05-23",
      "offerPrice": 90000,
      "status": "recorder",
      "isRebuilt": false,
      "address": "554 SANDRIDGE ST, MEMPHIS TN",
      "city": "MEMPHIS",
      "state": "TN",
      "beds": null,
      "baths": null,
      "sqft": null,
      "lotSize": null,
      "lat": 35.146483,
      "lng": -89.912665
    },
    {
      "propertyId": null,
      "attomId": 202256089,
      "offerDate": "2025-05-19",
      "offerPrice": 65000,
      "status": "recorder",
      "isRebuilt": false,
      "address": "1041 VAUGHN RD, MEMPHIS TN",
      "city": "MEMPHIS",
      "state": "TN",
      "beds": null,
      "baths": null,
      "sqft": null,
      "lotSize": null,
      "lat": 35.15989,
      "lng": -89.921692
    },
    {
      "propertyId": null,
      "attomId": 19165466,
      "offerDate": "2025-05-19",
      "offerPrice": 95000,
      "status": "recorder",
      "isRebuilt": false,
      "address": "3835 KIMBALL AVE, MEMPHIS TN",
      "city": "MEMPHIS",
      "state": "TN",
      "beds": null,
      "baths": null,
      "sqft": null,
      "lotSize": null,
      "lat": 35.092817,
      "lng": -89.934747
    },
    {
      "propertyId": null,
      "attomId": 192730579,
      "offerDate": "2025-05-15",
      "offerPrice": 20000,
      "status": "recorder",
      "isRebuilt": false,
      "address": "2146 HUNTER AVE, MEMPHIS TN",
      "city": "MEMPHIS",
      "state": "TN",
      "beds": null,
      "baths": null,
      "sqft": null,
      "lotSize": null,
      "lat": 35.17034,
      "lng": -89.985714
    },
    {
      "propertyId": null,
      "attomId": 807878,
      "offerDate": "2025-05-13",
      "offerPrice": 110000,
      "status": "recorder",
      "isRebuilt": false,
      "address": "1962 LAMAR AVE, MEMPHIS TN",
      "city": "MEMPHIS",
      "state": "TN",
      "beds": null,
      "baths": null,
      "sqft": null,
      "lotSize": null,
      "lat": 35.114362,
      "lng": -89.997013
    },
    {
      "propertyId": null,
      "attomId": 190497122,
      "offerDate": "2025-04-28",
      "offerPrice": 90000,
      "status": "recorder",
      "isRebuilt": false,
      "address": "1155 VAUGHN RD, MEMPHIS TN",
      "city": "MEMPHIS",
      "state": "TN",
      "beds": null,
      "baths": null,
      "sqft": null,
      "lotSize": null,
      "lat": 35.162895,
      "lng": -89.921196
    },
    {
      "propertyId": null,
      "attomId": 4334021,
      "offerDate": "2025-04-25",
      "offerPrice": 118000,
      "status": "recorder",
      "isRebuilt": false,
      "address": "3843 BLUE JAY RD, MEMPHIS TN",
      "city": "MEMPHIS",
      "state": "TN",
      "beds": null,
      "baths": null,
      "sqft": null,
      "lotSize": null,
      "lat": 35.043879,
      "lng": -90.003724
    },
    {
      "propertyId": null,
      "attomId": 30842483,
      "offerDate": "2025-04-16",
      "offerPrice": 60000,
      "status": "recorder",
      "isRebuilt": false,
      "address": "1601 STRIBLING ST, MEMPHIS TN",
      "city": "MEMPHIS",
      "state": "TN",
      "beds": null,
      "baths": null,
      "sqft": null,
      "lotSize": null,
      "lat": 35.088042,
      "lng": -89.932675
    },
    {
      "propertyId": null,
      "attomId": 201523020,
      "offerDate": "2025-04-14",
      "offerPrice": 125000,
      "status": "recorder",
      "isRebuilt": false,
      "address": "755 HOUSTON ST, MEMPHIS TN",
      "city": "MEMPHIS",
      "state": "TN",
      "beds": null,
      "baths": null,
      "sqft": null,
      "lotSize": null,
      "lat": 35.110803,
      "lng": -89.940537
    },
    {
      "propertyId": null,
      "attomId": 199575400,
      "offerDate": "2025-04-14",
      "offerPrice": 125000,
      "status": "recorder",
      "isRebuilt": false,
      "address": "3593 CLAYPHIL AVE, MEMPHIS TN",
      "city": "MEMPHIS",
      "state": "TN",
      "beds": null,
      "baths": null,
      "sqft": null,
      "lotSize": null,
      "lat": 35.11066,
      "lng": -89.942619
    },
    {
      "propertyId": null,
      "attomId": 1509642,
      "offerDate": "2025-03-31",
      "offerPrice": 60000,
      "status": "recorder",
      "isRebuilt": false,
      "address": "822 BITTER CREEK CV, MEMPHIS TN",
      "city": "MEMPHIS",
      "state": "TN",
      "beds": null,
      "baths": null,
      "sqft": null,
      "lotSize": null,
      "lat": 35.271293,
      "lng": -90.03623
    },
    {
      "propertyId": null,
      "attomId": 21123108,
      "offerDate": "2025-03-31",
      "offerPrice": 35000,
      "status": "recorder",
      "isRebuilt": false,
      "address": "3152 FORD RD, MEMPHIS TN",
      "city": "MEMPHIS",
      "state": "TN",
      "beds": null,
      "baths": null,
      "sqft": null,
      "lotSize": null,
      "lat": 35.062719,
      "lng": -90.080232
    },
    {
      "propertyId": null,
      "attomId": 198293746,
      "offerDate": "2025-03-13",
      "offerPrice": 63000,
      "status": "recorder",
      "isRebuilt": false,
      "address": "2283 ARLENE AVE, MEMPHIS TN",
      "city": "MEMPHIS",
      "state": "TN",
      "beds": null,
      "baths": null,
      "sqft": null,
      "lotSize": null,
      "lat": 35.21887,
      "lng": -89.98752
    },
    {
      "propertyId": null,
      "attomId": 1252218,
      "offerDate": "2025-03-12",
      "offerPrice": 65000,
      "status": "recorder",
      "isRebuilt": false,
      "address": "1187 LEAWOOD ST, MEMPHIS TN",
      "city": "MEMPHIS",
      "state": "TN",
      "beds": null,
      "baths": null,
      "sqft": null,
      "lotSize": null,
      "lat": 35.164178,
      "lng": -89.937649
    },
    {
      "propertyId": null,
      "attomId": 187315712,
      "offerDate": "2025-02-28",
      "offerPrice": 66000,
      "status": "recorder",
      "isRebuilt": false,
      "address": "3125 LAMPHIER AVE, MEMPHIS TN",
      "city": "MEMPHIS",
      "state": "TN",
      "beds": null,
      "baths": null,
      "sqft": null,
      "lotSize": null,
      "lat": 35.160021,
      "lng": -89.956695
    },
    {
      "propertyId": null,
      "attomId": 20036253,
      "offerDate": "2025-02-04",
      "offerPrice": 141500,
      "status": "recorder",
      "isRebuilt": false,
      "address": "2579 JENWOOD ST, MEMPHIS TN",
      "city": "MEMPHIS",
      "state": "TN",
      "beds": null,
      "baths": null,
      "sqft": null,
      "lotSize": null,
      "lat": 35.195755,
      "lng": -89.889188
    },
    {
      "propertyId": null,
      "attomId": 1148023,
      "offerDate": "2025-02-04",
      "offerPrice": 60000,
      "status": "recorder",
      "isRebuilt": false,
      "address": "846 FREEMAN ST, MEMPHIS TN",
      "city": "MEMPHIS",
      "state": "TN",
      "beds": null,
      "baths": null,
      "sqft": null,
      "lotSize": null,
      "lat": 35.154966,
      "lng": -89.93767
    },
    {
      "propertyId": null,
      "attomId": 146831893,
      "offerDate": "2025-01-23",
      "offerPrice": 40000,
      "status": "recorder",
      "isRebuilt": false,
      "address": "3520 PUEBLO AVE, MEMPHIS TN",
      "city": "MEMPHIS",
      "state": "TN",
      "beds": null,
      "baths": null,
      "sqft": null,
      "lotSize": null,
      "lat": 35.221423,
      "lng": -89.987098
    },
    {
      "propertyId": null,
      "attomId": 4024480,
      "offerDate": "2025-01-16",
      "offerPrice": 112500,
      "status": "recorder",
      "isRebuilt": false,
      "address": "1109 GOODMAN ST, MEMPHIS TN",
      "city": "MEMPHIS",
      "state": "TN",
      "beds": null,
      "baths": null,
      "sqft": null,
      "lotSize": null,
      "lat": 35.1014,
      "lng": -89.933847
    },
    {
      "propertyId": null,
      "attomId": 402557,
      "offerDate": "2025-01-14",
      "offerPrice": 53000,
      "status": "recorder",
      "isRebuilt": false,
      "address": "902 GILLILAND AVE, MEMPHIS TN",
      "city": "MEMPHIS",
      "state": "TN",
      "beds": null,
      "baths": null,
      "sqft": null,
      "lotSize": null,
      "lat": 35.211106,
      "lng": -90.033754
    },
    {
      "propertyId": null,
      "attomId": 8661662,
      "offerDate": "2025-01-09",
      "offerPrice": 5500,
      "status": "recorder",
      "isRebuilt": false,
      "address": "2151 LYON AVE, MEMPHIS TN",
      "city": "MEMPHIS",
      "state": "TN",
      "beds": null,
      "baths": null,
      "sqft": null,
      "lotSize": null,
      "lat": 35.178237,
      "lng": -89.985236
    },
    {
      "propertyId": null,
      "attomId": 755478,
      "offerDate": "2025-01-09",
      "offerPrice": 82500,
      "status": "recorder",
      "isRebuilt": false,
      "address": "2193 STEPHANIE AVE, MEMPHIS TN",
      "city": "MEMPHIS",
      "state": "TN",
      "beds": null,
      "baths": null,
      "sqft": null,
      "lotSize": null,
      "lat": 35.221963,
      "lng": -89.990458
    },
    {
      "propertyId": null,
      "attomId": 151111937,
      "offerDate": "2025-01-09",
      "offerPrice": 99900,
      "status": "recorder",
      "isRebuilt": false,
      "address": "1757 EUCLID AVE, MEMPHIS TN",
      "city": "MEMPHIS",
      "state": "TN",
      "beds": null,
      "baths": null,
      "sqft": null,
      "lotSize": null,
      "lat": 35.120826,
      "lng": -90.003485
    },
    {
      "propertyId": null,
      "attomId": 54313037,
      "offerDate": "2025-01-09",
      "offerPrice": 51000,
      "status": "recorder",
      "isRebuilt": false,
      "address": "3633 WINSTON DR, MEMPHIS TN",
      "city": "MEMPHIS",
      "state": "TN",
      "beds": null,
      "baths": null,
      "sqft": null,
      "lotSize": null,
      "lat": 35.224774,
      "lng": -90.011254
    },
    {
      "propertyId": null,
      "attomId": 20192399,
      "offerDate": "2025-01-09",
      "offerPrice": 50000,
      "status": "recorder",
      "isRebuilt": false,
      "address": "3632 TOWNES AVE, MEMPHIS TN",
      "city": "MEMPHIS",
      "state": "TN",
      "beds": null,
      "baths": null,
      "sqft": null,
      "lotSize": null,
      "lat": 35.172735,
      "lng": -89.938984
    },
    {
      "propertyId": null,
      "attomId": 153754397,
      "offerDate": "2024-12-18",
      "offerPrice": 50000,
      "status": "recorder",
      "isRebuilt": false,
      "address": "2386 LAROSE AVE, MEMPHIS TN",
      "city": "MEMPHIS",
      "state": "TN",
      "beds": null,
      "baths": null,
      "sqft": null,
      "lotSize": null,
      "lat": 35.100393,
      "lng": -89.983388
    },
    {
      "propertyId": null,
      "attomId": 141343254,
      "offerDate": "2024-12-13",
      "offerPrice": 120000,
      "status": "recorder",
      "isRebuilt": false,
      "address": "2093 LAMAR AVE, MEMPHIS TN",
      "city": "MEMPHIS",
      "state": "TN",
      "beds": null,
      "baths": null,
      "sqft": null,
      "lotSize": null,
      "lat": 35.110972,
      "lng": -89.993101
    },
    {
      "propertyId": null,
      "attomId": 141343255,
      "offerDate": "2024-12-03",
      "offerPrice": 115000,
      "status": "recorder",
      "isRebuilt": false,
      "address": "2089 LAMAR AVE, MEMPHIS TN",
      "city": "MEMPHIS",
      "state": "TN",
      "beds": null,
      "baths": null,
      "sqft": null,
      "lotSize": null,
      "lat": 35.111067,
      "lng": -89.993375
    },
    {
      "propertyId": null,
      "attomId": 1672610,
      "offerDate": "2024-12-03",
      "offerPrice": 30000,
      "status": "recorder",
      "isRebuilt": false,
      "address": "1139 PARKLAND RD, MEMPHIS TN",
      "city": "MEMPHIS",
      "state": "TN",
      "beds": null,
      "baths": null,
      "sqft": null,
      "lotSize": null,
      "lat": 35.100688,
      "lng": -89.954024
    },
    {
      "propertyId": null,
      "attomId": 143691151,
      "offerDate": "2024-11-21",
      "offerPrice": 65000,
      "status": "recorder",
      "isRebuilt": false,
      "address": "105 GLENARM AVE, MEMPHIS TN",
      "city": "MEMPHIS",
      "state": "TN",
      "beds": null,
      "baths": null,
      "sqft": null,
      "lotSize": null,
      "lat": 35.013173,
      "lng": -90.060392
    },
    {
      "propertyId": null,
      "attomId": 7037457,
      "offerDate": "2024-11-15",
      "offerPrice": 120000,
      "status": "recorder",
      "isRebuilt": false,
      "address": "1750 EUCLID AVE, MEMPHIS TN",
      "city": "MEMPHIS",
      "state": "TN",
      "beds": null,
      "baths": null,
      "sqft": null,
      "lotSize": null,
      "lat": 35.121382,
      "lng": -90.003692
    },
    {
      "propertyId": null,
      "attomId": 1538663,
      "offerDate": "2024-10-25",
      "offerPrice": 209750,
      "status": "recorder",
      "isRebuilt": false,
      "address": "4324 GOLDIE AVE, MEMPHIS TN",
      "city": "MEMPHIS",
      "state": "TN",
      "beds": null,
      "baths": null,
      "sqft": null,
      "lotSize": null,
      "lat": 35.155197,
      "lng": -89.916607
    },
    {
      "propertyId": null,
      "attomId": 3573439,
      "offerDate": "2024-10-25",
      "offerPrice": 176500,
      "status": "recorder",
      "isRebuilt": false,
      "address": "4571 SEA ISLE RD, MEMPHIS TN",
      "city": "MEMPHIS",
      "state": "TN",
      "beds": null,
      "baths": null,
      "sqft": null,
      "lotSize": null,
      "lat": 35.092484,
      "lng": -89.909392
    },
    {
      "propertyId": null,
      "attomId": 3573442,
      "offerDate": "2024-10-25",
      "offerPrice": 100000,
      "status": "recorder",
      "isRebuilt": false,
      "address": "4601 VERNE RD, MEMPHIS TN",
      "city": "MEMPHIS",
      "state": "TN",
      "beds": null,
      "baths": null,
      "sqft": null,
      "lotSize": null,
      "lat": 35.092775,
      "lng": -89.908886
    },
    {
      "propertyId": null,
      "attomId": 807823,
      "offerDate": "2024-10-25",
      "offerPrice": 84700,
      "status": "recorder",
      "isRebuilt": false,
      "address": "3451 CARNES AVE, MEMPHIS TN",
      "city": "MEMPHIS",
      "state": "TN",
      "beds": null,
      "baths": null,
      "sqft": null,
      "lotSize": null,
      "lat": 35.111203,
      "lng": -89.947358
    },
    {
      "propertyId": null,
      "attomId": 11439221,
      "offerDate": "2024-10-25",
      "offerPrice": 84700,
      "status": "recorder",
      "isRebuilt": false,
      "address": "793 BERCLAIR RD, MEMPHIS TN",
      "city": "MEMPHIS",
      "state": "TN",
      "beds": null,
      "baths": null,
      "sqft": null,
      "lotSize": null,
      "lat": 35.152976,
      "lng": -89.912119
    },
    {
      "propertyId": null,
      "attomId": 199264751,
      "offerDate": "2024-10-25",
      "offerPrice": 90000,
      "status": "recorder",
      "isRebuilt": false,
      "address": "3528 MARION AVE, MEMPHIS TN",
      "city": "MEMPHIS",
      "state": "TN",
      "beds": null,
      "baths": null,
      "sqft": null,
      "lotSize": null,
      "lat": 35.10925,
      "lng": -89.94499
    },
    {
      "propertyId": null,
      "attomId": 4833461,
      "offerDate": "2024-10-25",
      "offerPrice": 176500,
      "status": "recorder",
      "isRebuilt": false,
      "address": "3526 STUART RD, MEMPHIS TN",
      "city": "MEMPHIS",
      "state": "TN",
      "beds": null,
      "baths": null,
      "sqft": null,
      "lotSize": null,
      "lat": 35.105343,
      "lng": -89.945108
    },
    {
      "propertyId": null,
      "attomId": 10120642,
      "offerDate": "2024-10-25",
      "offerPrice": 209750,
      "status": "recorder",
      "isRebuilt": false,
      "address": "766 WATSON ST, MEMPHIS TN",
      "city": "MEMPHIS",
      "state": "TN",
      "beds": null,
      "baths": null,
      "sqft": null,
      "lotSize": null,
      "lat": 35.110263,
      "lng": -89.927149
    },
    {
      "propertyId": null,
      "attomId": 18953089,
      "offerDate": "2024-10-24",
      "offerPrice": 45000,
      "status": "recorder",
      "isRebuilt": false,
      "address": "2674 KIMBALL AVE, MEMPHIS TN",
      "city": "MEMPHIS",
      "state": "TN",
      "beds": null,
      "baths": null,
      "sqft": null,
      "lotSize": null,
      "lat": 35.09536,
      "lng": -89.97376
    },
    {
      "propertyId": null,
      "attomId": 4180173,
      "offerDate": "2024-10-24",
      "offerPrice": 90000,
      "status": "recorder",
      "isRebuilt": false,
      "address": "4796 SUMMERLANE AVE, MEMPHIS TN",
      "city": "MEMPHIS",
      "state": "TN",
      "beds": null,
      "baths": null,
      "sqft": null,
      "lotSize": null,
      "lat": 35.071153,
      "lng": -89.903513
    },
    {
      "propertyId": null,
      "attomId": 141025496,
      "offerDate": "2024-10-22",
      "offerPrice": 60000,
      "status": "recorder",
      "isRebuilt": false,
      "address": "2204 LYON AVE, MEMPHIS TN",
      "city": "MEMPHIS",
      "state": "TN",
      "beds": null,
      "baths": null,
      "sqft": null,
      "lotSize": null,
      "lat": 35.178678,
      "lng": -89.983488
    },
    {
      "propertyId": null,
      "attomId": 1632645,
      "offerDate": "2024-10-17",
      "offerPrice": 63000,
      "status": "recorder",
      "isRebuilt": false,
      "address": "985 ECHLES ST, MEMPHIS TN",
      "city": "MEMPHIS",
      "state": "TN",
      "beds": null,
      "baths": null,
      "sqft": null,
      "lotSize": null,
      "lat": 35.104582,
      "lng": -89.940933
    },
    {
      "propertyId": null,
      "attomId": 54051929,
      "offerDate": "2024-10-01",
      "offerPrice": 60000,
      "status": "recorder",
      "isRebuilt": false,
      "address": "4479 RALEIGH MILLINGTON RD, MEMPHIS TN",
      "city": "MEMPHIS",
      "state": "TN",
      "beds": null,
      "baths": null,
      "sqft": null,
      "lotSize": null,
      "lat": 35.247999,
      "lng": -89.928032
    },
    {
      "propertyId": null,
      "attomId": 904514,
      "offerDate": "2024-09-26",
      "offerPrice": 21000,
      "status": "recorder",
      "isRebuilt": false,
      "address": "1911 THE OAKS AVE, MEMPHIS TN",
      "city": "MEMPHIS",
      "state": "TN",
      "beds": null,
      "baths": null,
      "sqft": null,
      "lotSize": null,
      "lat": 35.200817,
      "lng": -90.000164
    },
    {
      "propertyId": null,
      "attomId": 8745173,
      "offerDate": "2024-09-18",
      "offerPrice": 65000,
      "status": "recorder",
      "isRebuilt": false,
      "address": "2067 COLLIER RD, MEMPHIS TN",
      "city": "MEMPHIS",
      "state": "TN",
      "beds": null,
      "baths": null,
      "sqft": null,
      "lotSize": null,
      "lat": 35.210511,
      "lng": -89.994938
    },
    {
      "propertyId": null,
      "attomId": 21341458,
      "offerDate": "2024-09-17",
      "offerPrice": 33000,
      "status": "recorder",
      "isRebuilt": false,
      "address": "3437 HENDRICKS AVE, MEMPHIS TN",
      "city": "MEMPHIS",
      "state": "TN",
      "beds": null,
      "baths": null,
      "sqft": null,
      "lotSize": null,
      "lat": 35.092284,
      "lng": -89.94804
    },
    {
      "propertyId": null,
      "attomId": 2609280,
      "offerDate": "2024-09-17",
      "offerPrice": 80000,
      "status": "recorder",
      "isRebuilt": false,
      "address": "4745 BERTA RD, MEMPHIS TN",
      "city": "MEMPHIS",
      "state": "TN",
      "beds": null,
      "baths": null,
      "sqft": null,
      "lotSize": null,
      "lat": 35.019008,
      "lng": -90.045878
    },
    {
      "propertyId": null,
      "attomId": 29426572,
      "offerDate": "2024-09-11",
      "offerPrice": 70000,
      "status": "recorder",
      "isRebuilt": false,
      "address": "299 W LEVI RD, MEMPHIS TN",
      "city": "MEMPHIS",
      "state": "TN",
      "beds": null,
      "baths": null,
      "sqft": null,
      "lotSize": null,
      "lat": 35.04252,
      "lng": -90.073956
    },
    {
      "propertyId": null,
      "attomId": 30314440,
      "offerDate": "2024-09-11",
      "offerPrice": 33226,
      "status": "recorder",
      "isRebuilt": false,
      "address": "3063 REDBUD RD, MEMPHIS TN",
      "city": "MEMPHIS",
      "state": "TN",
      "beds": null,
      "baths": null,
      "sqft": null,
      "lotSize": null,
      "lat": 35.065074,
      "lng": -90.067571
    },
    {
      "propertyId": null,
      "attomId": 24939490,
      "offerDate": "2024-09-09",
      "offerPrice": 100000,
      "status": "recorder",
      "isRebuilt": false,
      "address": "3402 KETTLEBROOK CV, MEMPHIS TN",
      "city": "MEMPHIS",
      "state": "TN",
      "beds": null,
      "baths": null,
      "sqft": null,
      "lotSize": null,
      "lat": 35.218427,
      "lng": -89.920057
    },
    {
      "propertyId": null,
      "attomId": 19729716,
      "offerDate": "2024-09-06",
      "offerPrice": 55000,
      "status": "recorder",
      "isRebuilt": false,
      "address": "3610 ORCHI RD, MEMPHIS TN",
      "city": "MEMPHIS",
      "state": "TN",
      "beds": null,
      "baths": null,
      "sqft": null,
      "lotSize": null,
      "lat": 35.179241,
      "lng": -89.939371
    },
    {
      "propertyId": null,
      "attomId": 195294013,
      "offerDate": "2024-08-30",
      "offerPrice": 60000,
      "status": "recorder",
      "isRebuilt": false,
      "address": "3082 KINGSTON ST, MEMPHIS TN",
      "city": "MEMPHIS",
      "state": "TN",
      "beds": null,
      "baths": null,
      "sqft": null,
      "lotSize": null,
      "lat": 35.209746,
      "lng": -90.03643
    },
    {
      "propertyId": null,
      "attomId": 25953393,
      "offerDate": "2024-08-16",
      "offerPrice": 65000,
      "status": "recorder",
      "isRebuilt": false,
      "address": "3290 ADAIR DR, MEMPHIS TN",
      "city": "MEMPHIS",
      "state": "TN",
      "beds": null,
      "baths": null,
      "sqft": null,
      "lotSize": null,
      "lat": 35.215384,
      "lng": -89.99902
    },
    {
      "propertyId": null,
      "attomId": 195835219,
      "offerDate": "2024-08-08",
      "offerPrice": 97000,
      "status": "recorder",
      "isRebuilt": false,
      "address": "800 CHATWOOD ST, MEMPHIS TN",
      "city": "MEMPHIS",
      "state": "TN",
      "beds": null,
      "baths": null,
      "sqft": null,
      "lotSize": null,
      "lat": 35.15346,
      "lng": -89.929841
    },
    {
      "propertyId": null,
      "attomId": 22332595,
      "offerDate": "2024-08-06",
      "offerPrice": 10000,
      "status": "recorder",
      "isRebuilt": false,
      "address": "3569 BAYLISS AVE, MEMPHIS TN",
      "city": "MEMPHIS",
      "state": "TN",
      "beds": null,
      "baths": null,
      "sqft": null,
      "lotSize": null,
      "lat": 35.171122,
      "lng": -89.941303
    },
    {
      "propertyId": null,
      "attomId": 191014763,
      "offerDate": "2024-08-06",
      "offerPrice": 50000,
      "status": "recorder",
      "isRebuilt": false,
      "address": "793 N HOLLYWOOD ST, MEMPHIS TN",
      "city": "MEMPHIS",
      "state": "TN",
      "beds": null,
      "baths": null,
      "sqft": null,
      "lotSize": null,
      "lat": 35.157139,
      "lng": -89.976418
    },
    {
      "propertyId": null,
      "attomId": 141707138,
      "offerDate": "2024-07-19",
      "offerPrice": 72000,
      "status": "recorder",
      "isRebuilt": false,
      "address": "663 NORTHAVEN DR, MEMPHIS TN",
      "city": "MEMPHIS",
      "state": "TN",
      "beds": null,
      "baths": null,
      "sqft": null,
      "lotSize": null,
      "lat": 35.261017,
      "lng": -90.041856
    },
    {
      "propertyId": null,
      "attomId": 190236793,
      "offerDate": "2024-07-19",
      "offerPrice": 40000,
      "status": "recorder",
      "isRebuilt": false,
      "address": "4381 JAMAICA DR, MEMPHIS TN",
      "city": "MEMPHIS",
      "state": "TN",
      "beds": null,
      "baths": null,
      "sqft": null,
      "lotSize": null,
      "lat": 35.171042,
      "lng": -89.914476
    },
    {
      "propertyId": null,
      "attomId": 151699399,
      "offerDate": "2024-07-19",
      "offerPrice": 35000,
      "status": "recorder",
      "isRebuilt": false,
      "address": "1553 HAMILTON ST, MEMPHIS TN",
      "city": "MEMPHIS",
      "state": "TN",
      "beds": null,
      "baths": null,
      "sqft": null,
      "lotSize": null,
      "lat": 35.102909,
      "lng": -89.978347
    },
    {
      "propertyId": null,
      "attomId": 187394654,
      "offerDate": "2024-07-08",
      "offerPrice": 111000,
      "status": "recorder",
      "isRebuilt": false,
      "address": "5131 QUEEN ELIZABETH FWY, MEMPHIS TN",
      "city": "MEMPHIS",
      "state": "TN",
      "beds": null,
      "baths": null,
      "sqft": null,
      "lotSize": null,
      "lat": 35.008509,
      "lng": -89.998716
    },
    {
      "propertyId": null,
      "attomId": 34196073,
      "offerDate": "2024-07-08",
      "offerPrice": 65000,
      "status": "recorder",
      "isRebuilt": false,
      "address": "3636 E MALLORY AVE, MEMPHIS TN",
      "city": "MEMPHIS",
      "state": "TN",
      "beds": null,
      "baths": null,
      "sqft": null,
      "lotSize": null,
      "lat": 35.083843,
      "lng": -89.94118
    },
    {
      "propertyId": null,
      "attomId": 29523758,
      "offerDate": "2024-07-03",
      "offerPrice": 88000,
      "status": "recorder",
      "isRebuilt": false,
      "address": "4252 ARGONNE ST, MEMPHIS TN",
      "city": "MEMPHIS",
      "state": "TN",
      "beds": null,
      "baths": null,
      "sqft": null,
      "lotSize": null,
      "lat": 35.241395,
      "lng": -89.995608
    },
    {
      "propertyId": null,
      "attomId": 11492404,
      "offerDate": "2024-07-03",
      "offerPrice": 71000,
      "status": "recorder",
      "isRebuilt": false,
      "address": "1593 LOOKOUT RD, MEMPHIS TN",
      "city": "MEMPHIS",
      "state": "TN",
      "beds": null,
      "baths": null,
      "sqft": null,
      "lotSize": null,
      "lat": 35.205338,
      "lng": -90.01051
    },
    {
      "propertyId": null,
      "attomId": 53438059,
      "offerDate": "2024-07-02",
      "offerPrice": 17000,
      "status": "recorder",
      "isRebuilt": false,
      "address": "3576 FULLER RD, MEMPHIS TN",
      "city": "MEMPHIS",
      "state": "TN",
      "beds": null,
      "baths": null,
      "sqft": null,
      "lotSize": null,
      "lat": 35.071906,
      "lng": -89.944226
    },
    {
      "propertyId": null,
      "attomId": 17343091,
      "offerDate": "2024-06-24",
      "offerPrice": 65000,
      "status": "recorder",
      "isRebuilt": false,
      "address": "1027 MOUNT VERNON RD, MEMPHIS TN",
      "city": "MEMPHIS",
      "state": "TN",
      "beds": null,
      "baths": null,
      "sqft": null,
      "lotSize": null,
      "lat": 35.103694,
      "lng": -89.951522
    },
    {
      "propertyId": null,
      "attomId": 141088901,
      "offerDate": "2024-06-24",
      "offerPrice": 63500,
      "status": "recorder",
      "isRebuilt": false,
      "address": "2308 LAROSE AVE, MEMPHIS TN",
      "city": "MEMPHIS",
      "state": "TN",
      "beds": null,
      "baths": null,
      "sqft": null,
      "lotSize": null,
      "lat": 35.101429,
      "lng": -89.986132
    },
    {
      "propertyId": null,
      "attomId": 150636233,
      "offerDate": "2024-06-24",
      "offerPrice": 77000,
      "status": "recorder",
      "isRebuilt": false,
      "address": "1713 WEINER RD, MEMPHIS TN",
      "city": "MEMPHIS",
      "state": "TN",
      "beds": null,
      "baths": null,
      "sqft": null,
      "lotSize": null,
      "lat": 35.178357,
      "lng": -89.915865
    },
    {
      "propertyId": null,
      "attomId": 18248837,
      "offerDate": "2024-06-17",
      "offerPrice": 66400,
      "status": "recorder",
      "isRebuilt": false,
      "address": "4195 CHIPPEWA RD, MEMPHIS TN",
      "city": "MEMPHIS",
      "state": "TN",
      "beds": null,
      "baths": null,
      "sqft": null,
      "lotSize": null,
      "lat": 35.069727,
      "lng": -89.923591
    },
    {
      "propertyId": null,
      "attomId": 193275881,
      "offerDate": "2024-06-11",
      "offerPrice": 100000,
      "status": "recorder",
      "isRebuilt": false,
      "address": "380 WATSON DR, ARLINGTON TN",
      "city": "ARLINGTON",
      "state": "TN",
      "beds": null,
      "baths": null,
      "sqft": null,
      "lotSize": null,
      "lat": 35.325244,
      "lng": -89.61804
    },
    {
      "propertyId": null,
      "attomId": 25017945,
      "offerDate": "2024-06-06",
      "offerPrice": 90000,
      "status": "recorder",
      "isRebuilt": false,
      "address": "710 HUDSON ST, MEMPHIS TN",
      "city": "MEMPHIS",
      "state": "TN",
      "beds": null,
      "baths": null,
      "sqft": null,
      "lotSize": null,
      "lat": 35.15153,
      "lng": -89.953282
    },
    {
      "propertyId": null,
      "attomId": 142068424,
      "offerDate": "2024-05-30",
      "offerPrice": 50000,
      "status": "recorder",
      "isRebuilt": false,
      "address": "3089 NORTHGATE ST, MEMPHIS TN",
      "city": "MEMPHIS",
      "state": "TN",
      "beds": null,
      "baths": null,
      "sqft": null,
      "lotSize": null,
      "lat": 35.209811,
      "lng": -90.035842
    },
    {
      "propertyId": null,
      "attomId": 195839899,
      "offerDate": "2024-05-23",
      "offerPrice": 152500,
      "status": "recorder",
      "isRebuilt": false,
      "address": "3535 FOX MEADOWS RD, MEMPHIS TN",
      "city": "MEMPHIS",
      "state": "TN",
      "beds": null,
      "baths": null,
      "sqft": null,
      "lotSize": null,
      "lat": 35.052004,
      "lng": -89.873451
    },
    {
      "propertyId": null,
      "attomId": 20192404,
      "offerDate": "2024-05-23",
      "offerPrice": 60000,
      "status": "recorder",
      "isRebuilt": false,
      "address": "3639 TOWNES AVE, MEMPHIS TN",
      "city": "MEMPHIS",
      "state": "TN",
      "beds": null,
      "baths": null,
      "sqft": null,
      "lotSize": null,
      "lat": 35.171972,
      "lng": -89.938901
    },
    {
      "propertyId": null,
      "attomId": 201636422,
      "offerDate": "2024-05-23",
      "offerPrice": 52500,
      "status": "recorder",
      "isRebuilt": false,
      "address": "1474 CRIDER ST, MEMPHIS TN",
      "city": "MEMPHIS",
      "state": "TN",
      "beds": null,
      "baths": null,
      "sqft": null,
      "lotSize": null,
      "lat": 35.091416,
      "lng": -89.952699
    },
    {
      "propertyId": null,
      "attomId": 190316790,
      "offerDate": "2024-05-23",
      "offerPrice": 89000,
      "status": "recorder",
      "isRebuilt": false,
      "address": "1112 STRATFORD RD, MEMPHIS TN",
      "city": "MEMPHIS",
      "state": "TN",
      "beds": null,
      "baths": null,
      "sqft": null,
      "lotSize": null,
      "lat": 35.161567,
      "lng": -89.905512
    },
    {
      "propertyId": null,
      "attomId": 17443476,
      "offerDate": "2024-05-08",
      "offerPrice": 80000,
      "status": "recorder",
      "isRebuilt": false,
      "address": "610 SIMONTON ST, COVINGTON TN",
      "city": "COVINGTON",
      "state": "TN",
      "beds": null,
      "baths": null,
      "sqft": null,
      "lotSize": null,
      "lat": 35.572589,
      "lng": -89.653933
    },
    {
      "propertyId": null,
      "attomId": 150616853,
      "offerDate": "2024-05-08",
      "offerPrice": 95000,
      "status": "recorder",
      "isRebuilt": false,
      "address": "1409 OAK RIDGE DR, MEMPHIS TN",
      "city": "MEMPHIS",
      "state": "TN",
      "beds": null,
      "baths": null,
      "sqft": null,
      "lotSize": null,
      "lat": 35.093471,
      "lng": -89.923861
    },
    {
      "propertyId": null,
      "attomId": 195007101,
      "offerDate": "2024-04-25",
      "offerPrice": 78000,
      "status": "recorder",
      "isRebuilt": false,
      "address": "1009 MCEVERS RD, MEMPHIS TN",
      "city": "MEMPHIS",
      "state": "TN",
      "beds": null,
      "baths": null,
      "sqft": null,
      "lotSize": null,
      "lat": 35.103597,
      "lng": -89.933031
    },
    {
      "propertyId": null,
      "attomId": 23949846,
      "offerDate": "2024-04-25",
      "offerPrice": 40600,
      "status": "recorder",
      "isRebuilt": false,
      "address": "2736 ENTERPRISE AVE, MEMPHIS TN",
      "city": "MEMPHIS",
      "state": "TN",
      "beds": null,
      "baths": null,
      "sqft": null,
      "lotSize": null,
      "lat": 35.107361,
      "lng": -89.971134
    },
    {
      "propertyId": null,
      "attomId": 187386329,
      "offerDate": "2024-04-12",
      "offerPrice": 42000,
      "status": "recorder",
      "isRebuilt": false,
      "address": "2127 STOVALL AVE, MEMPHIS TN",
      "city": "MEMPHIS",
      "state": "TN",
      "beds": null,
      "baths": null,
      "sqft": null,
      "lotSize": null,
      "lat": 35.179051,
      "lng": -89.986027
    },
    {
      "propertyId": null,
      "attomId": 144610588,
      "offerDate": "2024-04-12",
      "offerPrice": 30000,
      "status": "recorder",
      "isRebuilt": false,
      "address": "5087 BOWERS RD, MEMPHIS TN",
      "city": "MEMPHIS",
      "state": "TN",
      "beds": null,
      "baths": null,
      "sqft": null,
      "lotSize": null,
      "lat": 35.00957,
      "lng": -90.107029
    },
    {
      "propertyId": null,
      "attomId": 963727,
      "offerDate": "2024-03-28",
      "offerPrice": 53000,
      "status": "recorder",
      "isRebuilt": false,
      "address": "5355 AIRVIEW RD, MEMPHIS TN",
      "city": "MEMPHIS",
      "state": "TN",
      "beds": null,
      "baths": null,
      "sqft": null,
      "lotSize": null,
      "lat": 35.002336,
      "lng": -90.106384
    },
    {
      "propertyId": null,
      "attomId": 190316779,
      "offerDate": "2024-03-20",
      "offerPrice": 90000,
      "status": "recorder",
      "isRebuilt": false,
      "address": "4678 LYNN RD, MEMPHIS TN",
      "city": "MEMPHIS",
      "state": "TN",
      "beds": null,
      "baths": null,
      "sqft": null,
      "lotSize": null,
      "lat": 35.153235,
      "lng": -89.904873
    },
    {
      "propertyId": null,
      "attomId": 2044073,
      "offerDate": "2024-03-18",
      "offerPrice": 80000,
      "status": "recorder",
      "isRebuilt": false,
      "address": "781 DAWN CV, MEMPHIS TN",
      "city": "MEMPHIS",
      "state": "TN",
      "beds": null,
      "baths": null,
      "sqft": null,
      "lotSize": null,
      "lat": 35.214905,
      "lng": -90.038022
    },
    {
      "propertyId": null,
      "attomId": 144767833,
      "offerDate": "2024-02-27",
      "offerPrice": 87000,
      "status": "recorder",
      "isRebuilt": false,
      "address": "1752 CARLYLE RD, MEMPHIS TN",
      "city": "MEMPHIS",
      "state": "TN",
      "beds": null,
      "baths": null,
      "sqft": null,
      "lotSize": null,
      "lat": 35.23353,
      "lng": -90.004675
    },
    {
      "propertyId": null,
      "attomId": 8874391,
      "offerDate": "2024-02-21",
      "offerPrice": 50000,
      "status": "recorder",
      "isRebuilt": false,
      "address": "1717 WILLOW WOOD AVE, MEMPHIS TN",
      "city": "MEMPHIS",
      "state": "TN",
      "beds": null,
      "baths": null,
      "sqft": null,
      "lotSize": null,
      "lat": 35.211985,
      "lng": -90.00656
    },
    {
      "propertyId": null,
      "attomId": 190934972,
      "offerDate": "2024-02-16",
      "offerPrice": 57500,
      "status": "recorder",
      "isRebuilt": false,
      "address": "4046 MAUMEE ST, MEMPHIS TN",
      "city": "MEMPHIS",
      "state": "TN",
      "beds": null,
      "baths": null,
      "sqft": null,
      "lotSize": null,
      "lat": 35.038328,
      "lng": -90.104498
    },
    {
      "propertyId": null,
      "attomId": 7574414,
      "offerDate": "2024-02-13",
      "offerPrice": 44500,
      "status": "recorder",
      "isRebuilt": false,
      "address": "1751 WARNER AVE, MEMPHIS TN",
      "city": "MEMPHIS",
      "state": "TN",
      "beds": null,
      "baths": null,
      "sqft": null,
      "lotSize": null,
      "lat": 35.211056,
      "lng": -90.005426
    },
    {
      "propertyId": null,
      "attomId": 23110310,
      "offerDate": "2024-01-29",
      "offerPrice": 85000,
      "status": "recorder",
      "isRebuilt": false,
      "address": "277 HONDURAS AVE, MEMPHIS TN",
      "city": "MEMPHIS",
      "state": "TN",
      "beds": null,
      "baths": null,
      "sqft": null,
      "lotSize": null,
      "lat": 35.014057,
      "lng": -90.07345
    },
    {
      "propertyId": null,
      "attomId": 194608376,
      "offerDate": "2024-01-24",
      "offerPrice": 100000,
      "status": "recorder",
      "isRebuilt": false,
      "address": "504 PHILWOOD CV, MEMPHIS TN",
      "city": "MEMPHIS",
      "state": "TN",
      "beds": null,
      "baths": null,
      "sqft": null,
      "lotSize": null,
      "lat": 35.145516,
      "lng": -89.924684
    },
    {
      "propertyId": null,
      "attomId": 202529763,
      "offerDate": "2024-01-12",
      "offerPrice": 70000,
      "status": "recorder",
      "isRebuilt": false,
      "address": "2841 LAROSE AVE, MEMPHIS TN",
      "city": "MEMPHIS",
      "state": "TN",
      "beds": null,
      "baths": null,
      "sqft": null,
      "lotSize": null,
      "lat": 35.097093,
      "lng": -89.967912
    },
    {
      "propertyId": null,
      "attomId": 16781243,
      "offerDate": "2024-01-03",
      "offerPrice": 48000,
      "status": "recorder",
      "isRebuilt": false,
      "address": "1706 COMBS ST, MEMPHIS TN",
      "city": "MEMPHIS",
      "state": "TN",
      "beds": null,
      "baths": null,
      "sqft": null,
      "lotSize": null,
      "lat": 35.178565,
      "lng": -89.917345
    },
    {
      "propertyId": null,
      "attomId": 23165042,
      "offerDate": "2024-01-03",
      "offerPrice": 40000,
      "status": "recorder",
      "isRebuilt": false,
      "address": "3594 COLEMAN AVE, MEMPHIS TN",
      "city": "MEMPHIS",
      "state": "TN",
      "beds": null,
      "baths": null,
      "sqft": null,
      "lotSize": null,
      "lat": 35.155994,
      "lng": -89.940971
    },
    {
      "propertyId": null,
      "attomId": 237572374,
      "offerDate": "2025-08-25",
      "offerPrice": 288,
      "status": "recorder",
      "isRebuilt": false,
      "address": "309 TONEY ST, MCGEHEE AR",
      "city": "MCGEHEE",
      "state": "AR",
      "beds": null,
      "baths": null,
      "sqft": null,
      "lotSize": null,
      "lat": 33.61624,
      "lng": -91.387482
    },
    {
      "propertyId": null,
      "attomId": 237572176,
      "offerDate": "2025-08-25",
      "offerPrice": 231,
      "status": "recorder",
      "isRebuilt": false,
      "address": "701 S 4TH ST, MCGEHEE AR",
      "city": "MCGEHEE",
      "state": "AR",
      "beds": null,
      "baths": null,
      "sqft": null,
      "lotSize": null,
      "lat": 33.632528,
      "lng": -91.402141
    },
    {
      "propertyId": null,
      "attomId": 237520462,
      "offerDate": "2025-08-25",
      "offerPrice": 306,
      "status": "recorder",
      "isRebuilt": false,
      "address": "346 S PROSPECT ST, EUDORA AR",
      "city": "EUDORA",
      "state": "AR",
      "beds": null,
      "baths": null,
      "sqft": null,
      "lotSize": null,
      "lat": 33.108116,
      "lng": -91.259299
    },
    {
      "propertyId": null,
      "attomId": 237572177,
      "offerDate": "2025-08-25",
      "offerPrice": 231,
      "status": "recorder",
      "isRebuilt": false,
      "address": "706 S 4TH ST, MCGEHEE AR",
      "city": "MCGEHEE",
      "state": "AR",
      "beds": null,
      "baths": null,
      "sqft": null,
      "lotSize": null,
      "lat": 33.632726,
      "lng": -91.401893
    },
    {
      "propertyId": null,
      "attomId": 218237729,
      "offerDate": "2025-08-25",
      "offerPrice": 245,
      "status": "recorder",
      "isRebuilt": false,
      "address": "907 N KNOX ST, DERMOTT AR",
      "city": "DERMOTT",
      "state": "AR",
      "beds": null,
      "baths": null,
      "sqft": null,
      "lotSize": null,
      "lat": 33.530481,
      "lng": -91.429885
    },
    {
      "propertyId": null,
      "attomId": 218265237,
      "offerDate": "2025-08-25",
      "offerPrice": 237,
      "status": "recorder",
      "isRebuilt": false,
      "address": "1008 N CROSS ST, DERMOTT AR",
      "city": "DERMOTT",
      "state": "AR",
      "beds": null,
      "baths": null,
      "sqft": null,
      "lotSize": null,
      "lat": 33.537637,
      "lng": -91.444096
    }
  ]
}